stop_id,stop_code,platform_code,stop_name,stop_desc,stop_lat,stop_lon,zone_id,stop_url,location_type,parent_station,stop_timezone,position,direction,wheelchair_boarding
14001000,1000,,20 Tupelo St,Hamilton City,-37.73612778,175.2333694,WKO00_1,,0,,Pacific/Auckland,,,0
14001013,1013,,126 Ellicot Rd,Hamilton City,-37.78697222,175.2395583,WKO00_1,,0,,Pacific/Auckland,,,0
14001015,1015,,202 Sandwich Rd,Hamilton City,-37.748328,175.248825,WKO00_1,,0,,Pacific/Auckland,,,0
14001017,1017,,86 Sandwich Rd,Hamilton City,-37.752474,175.255752,WKO00_1,,0,,Pacific/Auckland,,,0
14001020,1020,,12 Braid Rd,Hamilton City,-37.75761,175.259514,WKO00_1,,0,,Pacific/Auckland,,,0
14001021,1021,,605 Sealey St (hail2ride),Thames,-37.1383,175.547615,WKO00_6B,,0,,Pacific/Auckland,,,0
14001028,1028,,1340 Victoria St (Trevellyn Rest Home),Hamilton City,-37.770338,175.264772,WKO00_1,,0,,Pacific/Auckland,,,0
14001029,1029,,18 Fifth Ave,Hamilton City,-37.77194167,175.2949778,WKO00_1,,0,,Pacific/Auckland,,,0
14001030,1030,,River Rd (Proposed),Tuakau,-37.295374346088,174.9468599962,WKO00_5A,,0,,Pacific/Auckland,,,0
14001034,1034,,SH 26 (near Platt Rd) (hail2ride),,-37.778993,175.400829,WKO00_2B,,0,,Pacific/Auckland,,,0
14001036,1036,,611 Victoria St ,Hamilton City,-37.78390278,175.2798222,WKO00_CBD,,0,,Pacific/Auckland,,,0
14001038,1038,,967 Victoria St,Hamilton City,-37.77892778,175.2753,WKO00_CBD,,0,,Pacific/Auckland,,,0
14001043,1043,,Tristram St (Language Institute),Hamilton City,-37.786245,175.275319,WKO00_CBD,,0,,Pacific/Auckland,,,0
14001044,1044,,15C Chedworth Ave,Hamilton City,-37.752057,175.283707,WKO00_1,,0,,Pacific/Auckland,,,0
14001046,1046,,1755 Ohaupo Rd (near Greenhill Dr),Te Awamutu,-37.992757,175.328551,WKO00_3D,,0,,Pacific/Auckland,,,0
14001049,1049,,119 Discovery Dr,Hamilton City,-37.727786,175.255655,WKO00_1,,0,,Pacific/Auckland,,,0
14001054,1054,,211 Cambridge Rd (Caltex),Hamilton City,-37.800744,175.321231,WKO00_1,,0,,Pacific/Auckland,,,0
14001055,1055,,38 Lorne St (near Thames St),Morrinsville,-37.65881389,175.5271583,WKO00_3B,,0,,Pacific/Auckland,,,0
14001058,1058,,61 Bankwood Rd (Fairfield College),Hamilton City,-37.761453,175.276657,WKO00_1,,0,,Pacific/Auckland,,,0
14001065,1065,,221 Taharepa Rd,Taupo,-38.68551944,176.0961861,WKO00_9C,,0,,Pacific/Auckland,,,0
14001066,1066,,38 King St,Hamilton City,-37.787681588056,175.26808288967,WKO00_1,,0,,Pacific/Auckland,,,0
14001067,1067,,330 Cambridge Rd (near Riverlea Rd),Hamilton City,-37.804879,175.32586,WKO00_1,,0,,Pacific/Auckland,,,0
14001068,1068,,2 Nevada Rd,Hamilton City,-37.790159,175.326757,WKO00_1,,0,,Pacific/Auckland,,,0
14001069,1069,,139 Taharepa Rd (Tauhara Primary School),Taupo,-38.69205833,176.0993222,WKO00_9C,,0,,Pacific/Auckland,,,0
14001070,1070,,Avantidrome Northbound (St. Peters School Rd),Cambridge,-37.88918056,175.4330667,WKO00_2C,,0,,Pacific/Auckland,,,0
14001071,1071,,150 Masters Ave,Hamilton City,-37.793009,175.328093,WKO00_1,,0,,Pacific/Auckland,,,0
14001074,1074,,68 Masters Ave,Hamilton City,-37.79501944,175.3209806,WKO00_1,,0,,Pacific/Auckland,,,0
14001078,1078,,96 Hillcrest Rd,Hamilton City,-37.791113,175.317913,WKO00_1,,0,,Pacific/Auckland,,,0
14001080,1080,,66 Hyde Ave (Nawton Mall),Hamilton City,-37.78141944,175.2368389,WKO00_1,,0,,Pacific/Auckland,,,0
14001083,1083,,272 Clyde St (opp Hillcrest Warehouse),Hamilton City,-37.79014444,175.3091417,WKO00_1,,0,,Pacific/Auckland,,,0
14001089,1089,,Opp 27 Te Kowhai Rd E (Wingers Hamilton),Hamilton City,-37.744717,175.226622,WKO00_1,,0,,Pacific/Auckland,,,0
14001091,1091,,401 Grey St (outside Waikato Regional Council),Hamilton City,-37.792637,175.29303,WKO00_1,,0,,Pacific/Auckland,,,0
14001092,1092,,Tumate Mahuta Dr (near Tainui Bridge Rd),Huntly,-37.56623,175.157976,WKO00_3A,,0,,Pacific/Auckland,,,0
14001098,1098,,158 Pukete Rd,Hamilton City,-37.740884,175.239042,WKO00_1,,0,,Pacific/Auckland,,,0
14001099,1099,,44 Victoria St,Hamilton City,-37.79145556,175.287125,WKO00_CBD,,0,,Pacific/Auckland,,,0
14001100,1100,,430 Grey St,Hamilton City,-37.791984,175.292963,WKO00_1,,0,,Pacific/Auckland,,,0
14001101,1101,,Opp 1105 River Rd,Hamilton City,-37.742844,175.256741,WKO00_1,,0,,Pacific/Auckland,,,0
14001106,1106,,62 Dominion Rd,Hamilton City,-37.776371,175.236343,WKO00_1,,0,,Pacific/Auckland,,,0
14001109,1109,,271 Clyde St (Hillcrest Warehouse),Hamilton City,-37.790066,175.309058,WKO00_1,,0,,Pacific/Auckland,,,0
14001124,1124,,558 River Rd,Hamilton City,-37.769929,175.269975,WKO00_1,,0,,Pacific/Auckland,,,0
14001125,1125,,42 Lloyd Dr,Hamilton City,-37.775784,175.230762,WKO00_1,,0,,Pacific/Auckland,,,0
14001126,1126,,Alison St (opp Gower Park),Hamilton City,-37.80734722,175.2713722,WKO00_1,,0,,Pacific/Auckland,,,0
14001129,1129,,Silverdale Normal School (57 Silverdale Rd),Hamilton City,-37.793675,175.3294139,WKO00_1,,0,,Pacific/Auckland,,,0
14001130,1130,,211 Grandview Rd,Hamilton City,-37.78535,175.2298,WKO00_1,,0,,Pacific/Auckland,,,0
14001135,1135,,21 Wilson St,Hamilton City,-37.787379,175.3012,WKO00_1,,0,,Pacific/Auckland,,,0
14001138,1138,,184 Rifle Range Rd,Taupo,-38.68474,176.09379,WKO00_9C,,0,,Pacific/Auckland,,,0
14001139,1139,,44 Whatawhata Rd (Dinsdale Shops),Hamilton City,-37.7951577606113,175.245792643374,WKO00_1,,0,,Pacific/Auckland,,,0
14001141,1141,,69 Knighton Rd,Hamilton City,-37.791331,175.310222,WKO00_1,,0,,Pacific/Auckland,,,0
14001144,1144,,30 Tuhikaramea Rd,Hamilton City,-37.79608,175.24748,WKO00_1,,0,,Pacific/Auckland,,,0
14001145,1145,,167 Dinsdale Rd,Hamilton City,-37.792349,175.23701,WKO00_1,,0,,Pacific/Auckland,,,0
14001147,1147,,120 Killarney Rd,Hamilton City,-37.79495833,175.2584222,WKO00_1,,0,,Pacific/Auckland,,,0
14001161,1161,,400 Ulster St,Hamilton City,-37.772754,175.263953,WKO00_1,,0,,Pacific/Auckland,,,0
14001163,1163,,61 Anglesea St (opp Countdown),Hamilton City,-37.794689,175.286422,WKO00_CBD,,0,,Pacific/Auckland,,,0
14001166,1166,,9 Edinburgh Rd,Hamilton City,-37.793703,175.312454,WKO00_1,,0,,Pacific/Auckland,,,0
14001168,1168,,219A Killarney Rd,Hamilton City,-37.79498611,175.2499472,WKO00_1,,0,,Pacific/Auckland,,,0
14001170,1170,,180 Whatawhata Rd,Hamilton City,-37.79730278,175.2359583,WKO00_1,,0,,Pacific/Auckland,,,0
14001171,1171,,112 Avalon Dr (outside Turners),Hamilton City,-37.7719911498823,175.241204684691,WKO00_1,,0,,Pacific/Auckland,,,0
14001178,1178,,31 Bruce Ave,Hamilton City,-37.81786389,175.2883833,WKO00_1,,0,,Pacific/Auckland,,,0
14001181,1181,,Shakespeare St (opp Kingsley St) (hail2ride),Cambridge,-37.898804,175.479222,WKO00_3C,,0,,Pacific/Auckland,,,0
14001185,1185,,49 MacFarlane St,Hamilton City,-37.80141944,175.2933278,WKO00_1,,0,,Pacific/Auckland,,,0
14001187,1187,,2 Bartholomew Dr,Hamilton City,-37.777946,175.231828,WKO00_1,,0,,Pacific/Auckland,,,0
14001189,1189,,20 Lloyd Dr,Hamilton City,-37.774342,175.230586,WKO00_1,,0,,Pacific/Auckland,,,0
14001190,1190,,740 Te Rapa Rd (outside the Z Service Station),Hamilton City,-37.752302,175.240671,WKO00_1,,0,,Pacific/Auckland,,,0
14001191,1191,,Opp 1162 River Rd (Alandale Retirement Village),Hamilton City,-37.738379,175.251689,WKO00_1,,0,,Pacific/Auckland,,,0
14001196,1196,,Opp Countdown Putaruru,Putaruru,-38.04767,175.780794,WKO00_5C,,0,,Pacific/Auckland,,,0
14001200,1200,,94 Endeavour Ave (near Endeavour School),Hamilton City,-37.732873,175.252432,WKO00_1,,0,,Pacific/Auckland,,,0
14001203,1203,,Opp 23 Endeavour Ave,Hamilton City,-37.73748,175.257319,WKO00_1,,0,,Pacific/Auckland,,,0
14001204,1204,,1126 River Rd,Hamilton City,-37.739475,175.2546556,WKO00_1,,0,,Pacific/Auckland,,,0
14001208,1208,,185 Maeroa Rd,Hamilton City,-37.778433,175.259028,WKO00_1,,0,,Pacific/Auckland,,,0
14001212,1212,,Lynden Court East A (Chartwell Shopping Centre),Hamilton City,-37.75125833,175.2787778,WKO00_1,,0,,Pacific/Auckland,,,0
14001216,1216,,52 Hukanui Rd,Hamilton City,-37.759685,175.284696,WKO00_1,,0,,Pacific/Auckland,,,0
14001219,1219,,60 Grandview Rd,Hamilton City,-37.778166,175.240727,WKO00_1,,0,,Pacific/Auckland,,,0
14001220,1220,,22 Hamilton Rd (near Hall St) (hail2ride),Cambridge,-37.889545,175.459603,WKO00_3C,,0,,Pacific/Auckland,,,0
14001221,1221,,140 Clarkin Rd,Hamilton City,-37.76538,175.277591,WKO00_1,,0,,Pacific/Auckland,,,0
14001222,1222,,44 MacFarlane St,Hamilton City,-37.801755,175.293557,WKO00_1,,0,,Pacific/Auckland,,,0
14001223,1223,,Putaruru Countdown,Putaruru,-38.047172,175.780709,WKO00_5C,,0,,Pacific/Auckland,,,0
14001227,1227,,Opp Hakanoa St (Proposed),Huntly,-37.544510674007,175.15935559724,WKO00_3A,,0,,Pacific/Auckland,,,0
14001232,1232,,Lynden Court West (Chartwell Shopping Centre),Hamilton City,-37.751064,175.278454,WKO00_1,,0,,Pacific/Auckland,,,0
14001235,1235,,7 Foreman Rd (Wintec Rotokauri),Hamilton City,-37.761515,175.235216,WKO00_1,,0,,Pacific/Auckland,,,0
14001239,1239,,Opp 132 Masters Ave (Hillcrest High School),Hamilton City,-37.793598,175.32615,WKO00_1,,0,,Pacific/Auckland,,,0
14001243,1243,,43 Wellington St,Hamilton City,-37.79413,175.299629,WKO00_1,,0,,Pacific/Auckland,,,0
14001247,1247,,77 Hukanui Rd (ST. Pauls Collegiate),Hamilton City,-37.75963,175.28432,WKO00_1,,0,,Pacific/Auckland,,,0
14001250,1250,,Hakanoa St (hail2ride),Huntly,-37.550651,175.159393,WKO00_3A,,0,,Pacific/Auckland,,,0
14001254,1254,,Opp 452 Hukanui Rd (Countdown),Hamilton City,-37.73242,175.273792,WKO00_1,,0,,Pacific/Auckland,,,0
14001255,1255,,Opp 39 Amanda Ave,Hamilton City,-37.801678,175.24118,WKO00_1,,0,,Pacific/Auckland,,,0
14001257,1257,,50 Glen Lynne Ave,Hamilton City,-37.746846,175.269822,WKO00_1,,0,,Pacific/Auckland,,,0
14001259,1259,,381 Te Rapa Rd (outside Road and Sport),Hamilton City,-37.76441667,175.2526361,WKO00_1,,0,,Pacific/Auckland,,,0
14001271,1271,,58 Comries Rd,Hamilton City,-37.753564,175.272172,WKO00_1,,0,,Pacific/Auckland,,,0
14001272,1272,,17 Herbert Rd,Hamilton City,-37.752014,175.270543,WKO00_1,,0,,Pacific/Auckland,,,0
14001275,1275,,2 Collingwood St ,Hamilton City,-37.788609,175.283241,WKO00_CBD,,0,,Pacific/Auckland,,,0
14001277,1277,,35 Acacia Cr,Hamilton City,-37.82848889,175.2935389,WKO00_1,,0,,Pacific/Auckland,,,0
14001278,1278,,4 Glen Lynne Ave,Hamilton City,-37.74815,175.265448,WKO00_1,,0,,Pacific/Auckland,,,0
14001281,1281,,Manukau Rd Pukekohe(near Glasgow Rd)(hail2ride),,-37.20668611,174.909225,WKO00_6A,,0,,Pacific/Auckland,,,0
14001282,1282,,768 River Rd (near Day's Park),Hamilton City,-37.759201,175.267178,WKO00_1,,0,,Pacific/Auckland,,,0
14001293,1293,,234 Kahikatea Dr,Hamilton City,-37.80618,175.26396,WKO00_1,,0,,Pacific/Auckland,,,0
14001294,1294,,110 Kahikatea Dr (Opp Gallaghers),Hamilton City,-37.807743,175.270374,WKO00_1,,0,,Pacific/Auckland,,,0
14001295,1295,,243 Kahikatea Dr (Opp Marshall Transmissions),Hamilton City,-37.806244,175.263727,WKO00_1,,0,,Pacific/Auckland,,,0
14001296,1296,,71A Kahikatea Dr,Hamilton City,-37.8084792830985,175.272858166023,WKO00_1,,0,,Pacific/Auckland,,,0
14001297,1297,,16 Moreland Ave,Hamilton City,-37.737553,175.235755,WKO00_1,,0,,Pacific/Auckland,,,0
14001300,1300,,81 Bankwood Rd,Hamilton City,-37.7593253966543,175.276886501818,WKO00_1,,0,,Pacific/Auckland,,,0
14001303,1303,,65 Heuheu St (Taupo Backpackers),Taupo,-38.68841111,176.0728278,WKO00_9C,,0,,Pacific/Auckland,,,0
14001308,1308,,3 Chedworth Ave,Hamilton City,-37.752419,175.28204,WKO00_1,,0,,Pacific/Auckland,,,0
14001311,1311,,28 Maui St,Hamilton City,-37.73851,175.226456,WKO00_1,,0,,Pacific/Auckland,,,0
14001313,1313,,41 Bow St,Raglan,-37.800207,174.870113,WKO00_4E,,0,,Pacific/Auckland,,,0
14001314,1314,,Manu Bay (Ngarunui Beach Rd),,-37.821503,174.812264,WKO00_4E,,0,,Pacific/Auckland,,,0
14001317,1317,,5 Wall St,Hamilton City,-37.775927,175.242076,WKO00_1,,0,,Pacific/Auckland,,,0
14001319,1319,,35 Dominion Rd,Hamilton City,-37.775169,175.238434,WKO00_1,,0,,Pacific/Auckland,,,0
14001321,1321,,98 Bailey St,Huntly,-37.537106,175.161313,WKO00_3A,,0,,Pacific/Auckland,,,0
14001322,1322,,32 MacDonald Rd (near Macmurdo Ave),Hamilton City,-37.822725,175.2860778,WKO00_1,,0,,Pacific/Auckland,,,0
14001325,1325,,39 Saxbys Rd,Hamilton City,-37.823564,175.278861,WKO00_1,,0,,Pacific/Auckland,,,0
14001327,1327,,35 Deanwell Ave,Hamilton City,-37.82066111,175.2764417,WKO00_1,,0,,Pacific/Auckland,,,0
14001329,1329,,36 Prisk St,Hamilton City,-37.81593056,175.2742333,WKO00_1,,0,,Pacific/Auckland,,,0
14001332,1332,,124 Comries Rd (outside St. Albans Church),Hamilton City,-37.752297,175.277778,WKO00_1,,0,,Pacific/Auckland,,,0
14001333,1333,,52 Ohaupo Rd,Hamilton City,-37.81,175.280976,WKO00_1,,0,,Pacific/Auckland,,,0
14001335,1335,,64 Alison St,Hamilton City,-37.80588056,175.2714167,WKO00_1,,0,,Pacific/Auckland,,,0
14001336,1336,,Opp 100 Hillcrest Rd (St. John's College),Hamilton City,-37.790986,175.317853,WKO00_1,,0,,Pacific/Auckland,,,0
14001338,1338,,41 Clarkin Rd,Hamilton City,-37.76670833,175.2712361,WKO00_1,,0,,Pacific/Auckland,,,0
14001339,1339,,20 Farnborough Dr,Hamilton City,-37.775857,175.227259,WKO00_1,,0,,Pacific/Auckland,,,0
14001341,1341,,30 Palmerston St (outside St. Peters Tennis Club),Hamilton City,-37.796325,175.283769,WKO00_CBD,,0,,Pacific/Auckland,,,0
14001344,1344,,95 Rimu St,Hamilton City,-37.78054167,175.2577528,WKO00_1,,0,,Pacific/Auckland,,,0
14001350,1350,,306 Hill St (hail2ride),Thames,-37.13812,175.552374,WKO00_6B,,0,,Pacific/Auckland,,,0
14001354,1354,,15 Palmerston St (opp ST. Peters Tennis club),Hamilton City,-37.796084,175.284527,WKO00_CBD,,0,,Pacific/Auckland,,,0
14001363,1363,,50 Hamilton Rd (hail2ride),Cambridge,-37.889373,175.462926,WKO00_3C,,0,,Pacific/Auckland,,,0
14001366,1366,,Opp 124 Great South Rd (Ngaruawahia),,-37.671278,175.151696,WKO00_2A,,0,,Pacific/Auckland,,,0
14001370,1370,,200 Seddon Rd,Hamilton City,-37.780197,175.262795,WKO00_1,,0,,Pacific/Auckland,,,0
14001371,1371,,Airport Rd (hail2ride),,-37.876813,175.327008,WKO00_2D,,0,,Pacific/Auckland,,,0
14001375,1375,,151 George St (hail2ride),Tuakau,-37.268039,174.942974,WKO00_6A,,0,,Pacific/Auckland,,,0
14001382,1382,,373 Thames St (near Seales Rd) (hail2ride),Morrinsville,-37.65013,175.541943,WKO00_3B,,0,,Pacific/Auckland,,,0
14001383,1383,,Opp 1161 Victoria St,Hamilton City,-37.77648,175.27358,WKO00_CBD,,0,,Pacific/Auckland,,,0
14001388,1388,,48 Mahoe St,Hamilton City,-37.811947,175.278072,WKO00_1,,0,,Pacific/Auckland,,,0
14001391,1391,,52 Te Aroha St,Hamilton City,-37.781382,175.29316,WKO00_1,,0,,Pacific/Auckland,,,0
14001392,1392,,Cambridge Rd (Oderings Garden Centre) (hail2ride),Cambridge,-37.886145,175.430344,WKO00_2C,,0,,Pacific/Auckland,,,0
14001393,1393,,6 Glenview Tce,Hamilton City,-37.81949722,175.2846111,WKO00_1,,0,,Pacific/Auckland,,,0
14001395,1395,,144 Ohaupo Rd,Hamilton City,-37.81664444,175.2823333,WKO00_1,,0,,Pacific/Auckland,,,0
14001398,1398,,32 Ohaupo Rd (outside Braemar Hospital),Hamilton City,-37.807798,175.280093,WKO00_1,,0,,Pacific/Auckland,,,0
14001399,1399,,224 Pembroke St (Hospital - Inbound),Hamilton City,-37.805466,175.280869,WKO00_CBD,,0,,Pacific/Auckland,,,0
14001401,1401,,68b Tuhikaramea Rd,Hamilton City,-37.798482,175.247864,WKO00_1,,0,,Pacific/Auckland,,,0
14001402,1402,,68 Richmond Ave,Taupo,-38.71825833,176.0898194,WKO00_9C,,0,,Pacific/Auckland,,,0
14001407,1407,,Opp 10 Peterburg Dr,Hamilton City,-37.727412,175.238952,WKO00_1,,0,,Pacific/Auckland,,,0
14001410,1410,,Opp 222 Borman Rd,Hamilton City,-37.72183889,175.2683444,WKO00_1,,0,,Pacific/Auckland,,,0
14001413,1413,,Opp 15 Maire St (Waiarakei Village),Taupo,-38.61721944,176.1026111,WKO00_9C,,0,,Pacific/Auckland,,,0
14001414,1414,,Opp 226 Pembroke St (Hospital),Hamilton City,-37.805744,175.280944,WKO00_CBD,,0,,Pacific/Auckland,,,0
14001417,1417,,45 Ohaupo Rd,Hamilton City,-37.80929,175.28081,WKO00_1,,0,,Pacific/Auckland,,,0
14001419,1419,,Opp 196 Hillcrest Rd (University of Waikato),Hamilton City,-37.78655,175.3201222,WKO00_1,,0,,Pacific/Auckland,,,0
14001430,1430,,42 Pulham Cr,Hamilton City,-37.747675,175.270053,WKO00_1,,0,,Pacific/Auckland,,,0
14001432,1432,,Opp 104 Bailey St (Proposed),Huntly,-37.536374944507,175.16121449944,WKO00_3A,,0,,Pacific/Auckland,,,0
14001437,1437,,27 Billah St (hail2ride),Tokoroa,-38.217597,175.857164,WKO00_6C,,0,,Pacific/Auckland,,,0
14001438,1438,,190 Tuhikaramea Rd,Hamilton City,-37.80533,175.241672,WKO00_1,,0,,Pacific/Auckland,,,0
14001440,1440,,29 Moreland Ave,Hamilton City,-37.737378,175.235739,WKO00_1,,0,,Pacific/Auckland,,,0
14001442,1442,,49 Breckons Ave,Hamilton City,-37.772957,175.236183,WKO00_1,,0,,Pacific/Auckland,,,0
14001445,1445,,403 Borman Rd,Hamilton City,-37.720277,175.247836,WKO00_1,,0,,Pacific/Auckland,,,0
14001450,1450,,24 Maple Ave,Hamilton City,-37.78717,175.240115,WKO00_1,,0,,Pacific/Auckland,,,0
14001451,1451,,66 Aberdeen Dr,Hamilton City,-37.789293,175.242031,WKO00_1,,0,,Pacific/Auckland,,,0
14001453,1453,,Raglan i-SITE (near Raglan Museum),Raglan,-37.80223,174.868573,WKO00_4E,,0,,Pacific/Auckland,,,0
14001454,1454,,96 Rifle Range Rd,Hamilton City,-37.789088,175.250169,WKO00_1,,0,,Pacific/Auckland,,,0
14001455,1455,,Tamahere (Proposed),,-37.8295502021763,175.342596092979,WKO00_1,,0,,Pacific/Auckland,,,0
14001457,1457,,Opp 171 Grandview Rd,Hamilton City,-37.78259722,175.2332722,WKO00_1,,0,,Pacific/Auckland,,,0
14001464,1464,,Opp 90 Te Aroha St,Hamilton City,-37.78029,175.29764,WKO00_1,,0,,Pacific/Auckland,,,0
14001468,1468,,60 MacDonald Rd,Hamilton City,-37.82385,175.2891056,WKO00_1,,0,,Pacific/Auckland,,,0
14001469,1469,,Opp 12 Rawhiti St ,Hamilton City,-37.787402,175.264515,WKO00_1,,0,,Pacific/Auckland,,,0
14001477,1477,,171 Clyde St,Hamilton City,-37.789848,175.301242,WKO00_1,,0,,Pacific/Auckland,,,0
14001481,1481,,183 Rifle Range Rd,Taupo,-38.68481,176.09392,WKO00_9C,,0,,Pacific/Auckland,,,0
14001482,1482,,37 Splitt Ave,Hamilton City,-37.82038333,175.2964194,WKO00_1,,0,,Pacific/Auckland,,,0
14001483,1483,,105 Williams St (hail2ride),Thames,-37.131911,175.535932,WKO00_6B,,0,,Pacific/Auckland,,,0
14001487,1487,,113 Huntington Dr,Hamilton City,-37.745852,175.285554,WKO00_1,,0,,Pacific/Auckland,,,0
14001490,1490,,The Base (Platform A),Hamilton City,-37.747872,175.231234,WKO00_1,,0,,Pacific/Auckland,,,0
14001491,1491,,The Base (Platform B),Hamilton City,-37.748059,175.23117,WKO00_1,,0,,Pacific/Auckland,,,0
14001492,1492,,Opp 77 Arrowsmith Ave,Taupo,-38.70678611,176.0976944,WKO00_9C,,0,,Pacific/Auckland,,,0
14001494,1494,,8 Waterford Rd,Hamilton City,-37.812853,175.30111,WKO00_1,,0,,Pacific/Auckland,,,0
14001496,1496,,26 Glen Lynne Ave,Hamilton City,-37.747205,175.268394,WKO00_1,,0,,Pacific/Auckland,,,0
14001499,1499,,62 London St,Hamilton City,-37.783656,175.278472,WKO00_CBD,,0,,Pacific/Auckland,,,0
14001501,1501,,Great South Rd (Hopuhopu)(Fox Rd),,-37.63540833,175.1737222,WKO00_3A,,0,,Pacific/Auckland,,,0
14001502,1502,,Opp 50 Garnett Ave (outside Waterworld),Hamilton City,-37.767851,175.253326,WKO00_1,,0,,Pacific/Auckland,,,0
14001504,1504,,26 Wall St,Hamilton City,-37.774262,175.240655,WKO00_1,,0,,Pacific/Auckland,,,0
14001511,1511,,36 Grandview Rd,Hamilton City,-37.777136,175.242436,WKO00_1,,0,,Pacific/Auckland,,,0
14001513,1513,,1240 Victoria St,Hamilton City,-37.773672,175.270413,WKO00_CBD,,0,,Pacific/Auckland,,,0
14001514,1514,,3 Discovery Dr,Hamilton City,-37.735846,175.249958,WKO00_1,,0,,Pacific/Auckland,,,0
14001524,1524,,568 Anglesea St ,Hamilton City,-37.78117,175.274033,WKO00_CBD,,0,,Pacific/Auckland,,,0
14001528,1528,,126 Fairfield Rd,Hamilton City,-37.769174,175.281081,WKO00_1,,0,,Pacific/Auckland,,,0
14001532,1532,,62 Pine Ave,Hamilton City,-37.813257,175.287485,WKO00_1,,0,,Pacific/Auckland,,,0
14001539,1539,,Acacia Bay (Proposed),Taupo,-38.7019931640162,176.030801654157,WKO00_9C,,0,,Pacific/Auckland,,,0
14001541,1541,,131 Fairview St,Hamilton City,-37.75634167,175.2976222,WKO00_1,,0,,Pacific/Auckland,,,0
14001547,1547,,Peachgrove Rd (Opp Intermediate School),Hamilton City,-37.784053,175.298051,WKO00_1,,0,,Pacific/Auckland,,,0
14001550,1550,,25 Fifth Ave,Hamilton City,-37.77171944,175.2952167,WKO00_1,,0,,Pacific/Auckland,,,0
14001556,1556,,49 Maeroa Rd,Hamilton City,-37.77238,175.262882,WKO00_1,,0,,Pacific/Auckland,,,0
14001562,1562,,39 Dalmeny St (hail2ride),Tokoroa,-38.21614,175.863973,WKO00_6C,,0,,Pacific/Auckland,,,0
14001564,1564,,218 Cambridge Rd (Hillcrest Normal School),Hamilton City,-37.800951,175.320568,WKO00_1,,0,,Pacific/Auckland,,,0
14001566,1566,,64 Callum Brae Dr,Hamilton City,-37.7350351252246,175.267525049885,WKO00_1,,0,,Pacific/Auckland,,,0
14001567,1567,,3 Snell Dr,Hamilton City,-37.757702,175.295346,WKO00_1,,0,,Pacific/Auckland,,,0
14001573,1573,,83 Clarkin Rd,Hamilton City,-37.766135,175.273742,WKO00_1,,0,,Pacific/Auckland,,,0
14001574,1574,,Thames Civic Centre (hail2ride),Thames,-37.138391,175.540788,WKO00_6B,,0,,Pacific/Auckland,,,0
14001583,1583,,152 George St (hail2ride),Tuakau,-37.267862722364,174.94261361023,WKO00_6A,,0,,Pacific/Auckland,,,0
14001585,1585,,Cambridge Rd (opp Peake Rd) (hail2ride),Cambridge,-37.888343,175.438277,WKO00_3C,,0,,Pacific/Auckland,,,0
14001586,1586,,9 Carrington Ave,Hamilton City,-37.794332,175.320667,WKO00_1,,0,,Pacific/Auckland,,,0
14001600,1600,,9 Garden Heights Ave,Hamilton City,-37.822211,175.290026,WKO00_1,,0,,Pacific/Auckland,,,0
14001607,1607,,Main Rd (Lorenzen Bay Rd),,-37.805965,174.887541,WKO00_4E,,0,,Pacific/Auckland,,,0
14001608,1608,,56 Commerce St,Hamilton City,-37.785983,175.267144,WKO00_1,,0,,Pacific/Auckland,,,0
14001614,1614,,70 Foreman Rd (New Zealand Rural Press),Hamilton City,-37.75516389,175.2339056,WKO00_1,,0,,Pacific/Auckland,,,0
14001615,1615,,5 Waimarie St (Fraser High School),Hamilton City,-37.78324167,175.2453333,WKO00_1,,0,,Pacific/Auckland,,,0
14001616,1616,,40 Urlich Ave,Hamilton City,-37.816632,175.284771,WKO00_1,,0,,Pacific/Auckland,,,0
14001620,1620,,114 Discovery Dr,Hamilton City,-37.727866,175.255923,WKO00_1,,0,,Pacific/Auckland,,,0
14001624,1624,,204 Tramway Rd,Hamilton City,-37.762421,175.297981,WKO00_1,,0,,Pacific/Auckland,,,0
14001629,1629,,359 Peachgrove Rd ,Hamilton City,-37.766674,175.29011,WKO00_1,,0,,Pacific/Auckland,,,0
14001633,1633,,573 Te Rapa Rd ,Hamilton City,-37.758491,175.246678,WKO00_1,,0,,Pacific/Auckland,,,0
14001636,1636,,56 Fairfield Rd (near Ranfurly Park),Hamilton City,-37.769265,175.275646,WKO00_1,,0,,Pacific/Auckland,,,0
14001640,1640,,19 Oakley Ave,Hamilton City,-37.776731,175.281471,WKO00_1,,0,,Pacific/Auckland,,,0
14001641,1641,,22 Hillcrest Rd,Hamilton City,-37.7959014993927,175.315582570604,WKO00_1,,0,,Pacific/Auckland,,,0
14001642,1642,,7 Wiltshire Dr,Hamilton City,-37.732869,175.285864,WKO00_1,,0,,Pacific/Auckland,,,0
14001643,1643,,Opp 37 Mark Ball Dr,Pokeno,-37.2361257581874,175.010510226467,WKO00_6A,,0,,Pacific/Auckland,,,0
14001646,1646,,Opp 6622 Te Rapa Rd,Hamilton City,-37.732979,175.220881,WKO00_1,,0,,Pacific/Auckland,,,0
14001648,1648,,82 Brookfield St,Hamilton City,-37.800373,175.30267,WKO00_1,,0,,Pacific/Auckland,,,0
14001649,1649,,62 Church Rd (outside FlexFitness),Hamilton City,-37.74138056,175.2306917,WKO00_1,,0,,Pacific/Auckland,,,0
14001652,1652,,16 Church Rd,Hamilton City,-37.737034,175.233836,WKO00_1,,0,,Pacific/Auckland,,,0
14001657,1657,,300 Te Rapa Rd,Hamilton City,-37.76616389,175.2562083,WKO00_1,,0,,Pacific/Auckland,,,0
14001659,1659,,1335 Victoria St (opp Trevellyn Rest Home,Hamilton City,-37.77055,175.2650222,WKO00_1,,0,,Pacific/Auckland,,,0
14001662,1662,,Cambridge Rd (near Forrest Rd) (hail2ride),Cambridge,-37.880605,175.423751,WKO00_2C,,0,,Pacific/Auckland,,,0
14001663,1663,,Ruakura Rd (opp Innovation Park),Hamilton City,-37.780509,175.311139,WKO00_1,,0,,Pacific/Auckland,,,0
14001664,1664,,Kihikihi Rd (near Bridgman Rd) (hail2ride),Te Awamutu,-38.020269893598,175.32569278695,WKO00_3D,,0,,Pacific/Auckland,,,0
14001671,1671,,"Victoria St, Cambridge (Town Hall)",Cambridge,-37.89253611,175.4679083,WKO00_3C,,0,,Pacific/Auckland,,,0
14001672,1672,,118 Fitzroy Ave,Hamilton City,-37.815099,175.299827,WKO00_1,,0,,Pacific/Auckland,,,0
14001676,1676,,Main Road (i-Site Tokoroa),Tokoroa,-38.21820278,175.8732722,WKO00_6C,,0,,Pacific/Auckland,,,0
14001677,1677,,12 Norrie St,Hamilton City,-37.80985,175.296951,WKO00_1,,0,,Pacific/Auckland,,,0
14001682,1682,,Opp 129 Cumberland Dr,Hamilton City,-37.724516,175.241389,WKO00_1,,0,,Pacific/Auckland,,,0
14001683,1683,,88 Silverdale Rd,Hamilton City,-37.79159,175.327494,WKO00_1,,0,,Pacific/Auckland,,,0
14001685,1685,,72 Urlich Ave,Hamilton City,-37.814511,175.285292,WKO00_1,,0,,Pacific/Auckland,,,0
14001687,1687,,80 Pelorus St,Hamilton City,-37.8237063811562,175.296439927305,WKO00_1,,0,,Pacific/Auckland,,,0
14001690,1690,,48 Holland Rd,Hamilton City,-37.769054,175.285448,WKO00_1,,0,,Pacific/Auckland,,,0
14001692,1692,,Ruakura Rd (near Innovation Park),Hamilton City,-37.78041944,175.3115833,WKO00_1,,0,,Pacific/Auckland,,,0
14001697,1697,,109 Cambridge Rd,Hamilton City,-37.79834722,175.3154028,WKO00_1,,0,,Pacific/Auckland,,,0
14001710,1710,,26 Moana Cres (Mangakino),,-38.36843889,175.7778556,WKO00_7C,,0,,Pacific/Auckland,,,0
14001714,1714,,Opp 80 Great South Rd (Ngaruawahia),,-37.666102,175.147914,WKO00_2A,,0,,Pacific/Auckland,,,0
14001720,1720,,19 Church Rd,Hamilton City,-37.737038,175.233925,WKO00_1,,0,,Pacific/Auckland,,,0
14001721,1721,,Outside 92 Birch St (Kiddle Drive Side),Taupo,-38.70180833,176.0976611,WKO00_9C,,0,,Pacific/Auckland,,,0
14001723,1723,,27 Rotokauri Rd,Hamilton City,-37.76923611,175.2369361,WKO00_1,,0,,Pacific/Auckland,,,0
14001724,1724,,30 Hukanui Rd,Hamilton City,-37.760946,175.286302,WKO00_1,,0,,Pacific/Auckland,,,0
14001726,1726,,Opp 153 Maeroa Rd,Hamilton City,-37.77659167,175.2588444,WKO00_1,,0,,Pacific/Auckland,,,0
14001730,1730,,Kenrick St (Te Aroha) (hail2ride),Te Aroha,-37.543282,175.712002,WKO00_4B,,0,,Pacific/Auckland,,,0
14001731,1731,,75 Cameron Rd,Hamilton City,-37.785203,175.308254,WKO00_1,,0,,Pacific/Auckland,,,0
14001739,1739,,92 Te Aroha St,Hamilton City,-37.780347,175.297866,WKO00_1,,0,,Pacific/Auckland,,,0
14001741,1741,,17 Saxbys Rd,Hamilton City,-37.82261389,175.2818722,WKO00_1,,0,,Pacific/Auckland,,,0
14001744,1744,,70 Jellicoe Dr,Hamilton City,-37.802317,175.290788,WKO00_1,,0,,Pacific/Auckland,,,0
14001750,1750,,57 Great South Rd (Taupiri),,-37.616141,175.186793,WKO00_3A,,0,,Pacific/Auckland,,,0
14001752,1752,,Te Rapa Rd (near McKee St),Hamilton City,-37.726772,175.218684,WKO00_1,,0,,Pacific/Auckland,,,0
14001754,1754,,103 Lake Cr,Hamilton City,-37.803137,175.274361,WKO00_1,,0,,Pacific/Auckland,,,0
14001755,1755,,Opp 25 Lakewood Dr,Taupo,-38.683035,176.055291,WKO00_9C,,0,,Pacific/Auckland,,,0
14001756,1756,,Opp 77 Queens Ave,Hamilton City,-37.792959,175.267709,WKO00_1,,0,,Pacific/Auckland,,,0
14001757,1757,,Peachgrove Rd (Peachgrove Intermediate),Hamilton City,-37.785109,175.298392,WKO00_1,,0,,Pacific/Auckland,,,0
14001759,1759,,25 Marama St,Hamilton City,-37.79014,175.27199,WKO00_1,,0,,Pacific/Auckland,,,0
14001773,1773,,118 Rimu St,Hamilton City,-37.780149,175.255636,WKO00_1,,0,,Pacific/Auckland,,,0
14001774,1774,,"Waerenga Rd (Aparangi Village, Te Kauwhata)",Te Kauwhata,-37.402674,175.14553,WKO00_4A,,0,,Pacific/Auckland,,,0
14001779,1779,,46 Raymond St,Hamilton City,-37.760694,175.305187,WKO00_1,,0,,Pacific/Auckland,,,0
14001780,1780,,Opp 3 Hakanoa St (Proposed),Huntly,-37.550896812163,175.15959660471,WKO00_3A,,0,,Pacific/Auckland,,,0
14001783,1783,,Opp 100 Dixon St (hail2ride),Thames,-37.127278,175.532795,WKO00_6B,,0,,Pacific/Auckland,,,0
14001793,1793,,255 Peachgrove Rd ,Hamilton City,-37.772019,175.292781,WKO00_1,,0,,Pacific/Auckland,,,0
14001795,1795,,26 King St,Hamilton City,-37.78692427207,175.268979980243,WKO00_1,,0,,Pacific/Auckland,,,0
14001796,1796,,"111 Victoria St, Cambridge (White Church)",Cambridge,-37.88974722,175.4665389,WKO00_3C,,0,,Pacific/Auckland,,,0
14001805,1805,,35 Rainbow Dr,Taupo,-38.71846667,176.0779917,WKO00_9C,,0,,Pacific/Auckland,,,0
14001807,1807,,George St (Tuakau Town Hall) (hail2ride),Tuakau,-37.260444,174.945676,WKO00_6A,,0,,Pacific/Auckland,,,0
14001812,1812,,272 Peachgrove Rd,Hamilton City,-37.771746,175.292656,WKO00_1,,0,,Pacific/Auckland,,,0
14001813,1813,,78A Endeavour Ave,Hamilton City,-37.733261,175.255532,WKO00_1,,0,,Pacific/Auckland,,,0
14001819,1819,,6 Papanui St (hail2ride),Tokoroa,-38.215052,175.860037,WKO00_6C,,0,,Pacific/Auckland,,,0
14001821,1821,,1 Splitt Ave,Hamilton City,-37.81800278,175.2933111,WKO00_1,,0,,Pacific/Auckland,,,0
14001829,1829,,Porritt Avenue - Huntly,Huntly,-37.572692,175.150146,WKO00_3A,,0,,Pacific/Auckland,,,0
14001832,1832,,Te Rapa Rd (Harvey Norman),Hamilton City,-37.742322,175.227669,WKO00_1,,0,,Pacific/Auckland,,,0
14001834,1834,,116 Farnborough Dr,Hamilton City,-37.7798933579525,175.220471057137,WKO00_1,,0,,Pacific/Auckland,,,0
14001838,1838,,Opp Ocean View Rd (Proposed),,-37.397316149476,174.71168419116,WKO00_5A,,0,,Pacific/Auckland,,,0
14001839,1839,,Kimbrae Dr (Rototuna High School),Hamilton City,-37.717642,175.267542,WKO00_1,,0,,Pacific/Auckland,,,0
14001842,1842,,228 Old Farm Rd,Hamilton City,-37.781918,175.313839,WKO00_1,,0,,Pacific/Auckland,,,0
14001846,1846,,8 Farringdon Dr,Hamilton City,-37.7272,175.25825,WKO00_1,,0,,Pacific/Auckland,,,0
14001853,1853,,23 Poaka Ave,Hamilton City,-37.79789444,175.244625,WKO00_1,,0,,Pacific/Auckland,,,0
14001857,1857,,2 Kelso St (hail2ride),Tokoroa,-38.228607,175.866638,WKO00_6C,,0,,Pacific/Auckland,,,0
14001858,1858,,66 Garnett Ave (opp Waterworld),Hamilton City,-37.767287,175.252776,WKO00_1,,0,,Pacific/Auckland,,,0
14001862,1862,,Opp 588 River Rd,Hamilton City,-37.76885,175.268683,WKO00_1,,0,,Pacific/Auckland,,,0
14001865,1865,,18 Wellington St,Hamilton City,-37.795539,175.293892,WKO00_1,,0,,Pacific/Auckland,,,0
14001872,1872,,10 Garden Heights Ave (near Pelorus St),Hamilton City,-37.822266,175.290189,WKO00_1,,0,,Pacific/Auckland,,,0
14001878,1878,,Opp Waikaretu Rd (Proposed),,-37.389928463337,174.72900691802,WKO00_5A,,0,,Pacific/Auckland,,,0
14001882,1882,,60 Massey St,Hamilton City,-37.78967222,175.2582556,WKO00_1,,0,,Pacific/Auckland,,,0
14001886,1886,,52 Great South Rd (Ngaruawahia Riverview Dairy),,-37.661463,175.149734,WKO00_2A,,0,,Pacific/Auckland,,,0
14001889,1889,,291 Grey St,Hamilton City,-37.795046,175.29394,WKO00_1,,0,,Pacific/Auckland,,,0
14001897,1897,,49 Harris St - Huntly,Huntly,-37.561257,175.151294,WKO00_3A,,0,,Pacific/Auckland,,,0
14001902,1902,,Te Kauwhata Rd (Rangiriri Paa),,-37.427305,175.130405,WKO00_4A,,0,,Pacific/Auckland,,,0
14001903,1903,,31 King St,Hamilton City,-37.7870026665775,175.269212113267,WKO00_1,,0,,Pacific/Auckland,,,0
14001908,1908,,53 Commerce St,Hamilton City,-37.785864,175.267368,WKO00_1,,0,,Pacific/Auckland,,,0
14001909,1909,,110 Bankwood Rd,Hamilton City,-37.757444,175.276814,WKO00_1,,0,,Pacific/Auckland,,,0
14001915,1915,,1044 Heaphy Tce,Hamilton City,-37.770325,175.282387,WKO00_1,,0,,Pacific/Auckland,,,0
14001921,1921,,108 Naylor St,Hamilton City,-37.79734722,175.3069361,WKO00_1,,0,,Pacific/Auckland,,,0
14001923,1923,,Opp 44 Great South Rd (Ngaruawahia Riverview Dairy),,-37.661161,175.14973,WKO00_2A,,0,,Pacific/Auckland,,,0
14001928,1928,,75 Holland Rd,Hamilton City,-37.767999,175.286551,WKO00_1,,0,,Pacific/Auckland,,,0
14001929,1929,,3 Thackeray St (outside Angelsea Pharmacy),Hamilton City,-37.79194,175.282757,WKO00_CBD,,0,,Pacific/Auckland,,,0
14001930,1930,,24 Howell Ave,Hamilton City,-37.804065,175.321732,WKO00_1,,0,,Pacific/Auckland,,,0
14001940,1940,,Pukete Rd (Cullimore St),Hamilton City,-37.746635,175.240445,WKO00_1,,0,,Pacific/Auckland,,,0
14001941,1941,,14 Kauri Drive (Waiarakei Village),Taupo,-38.61957778,176.1040222,WKO00_9C,,0,,Pacific/Auckland,,,0
14001946,1946,,5 Norris Ave (outside Dave Allen Motors),Hamilton City,-37.758355,175.251629,WKO00_1,,0,,Pacific/Auckland,,,0
14001948,1948,,201 Hukanui Rd (Chartwell Shopping Centre),Hamilton City,-37.750663,175.280121,WKO00_1,,0,,Pacific/Auckland,,,0
14001951,1951,,Alexander St - Huntly,Huntly,-37.570812,175.150861,WKO00_3A,,0,,Pacific/Auckland,,,0
14001952,1952,,29 Tongariro St (Breakers),Taupo,-38.688216,176.069275,WKO00_9C,,0,,Pacific/Auckland,,,0
14001954,1954,,Opp 7 Silverdale Rd,Hamilton City,-37.796001,175.332066,WKO00_1,,0,,Pacific/Auckland,,,0
14001957,1957,,9 Liston Ave (Bupa Liston Heights Retirement Village),Taupo,-38.699235,176.09657,WKO00_9C,,0,,Pacific/Auckland,,,0
14001959,1959,,Buckland Rd Pukekohe(near Logan Rd)(hail2ride),,-37.22746667,174.9272556,WKO00_6A,,0,,Pacific/Auckland,,,0
14001960,1960,,84 Mardon Rd,Hamilton City,-37.765886,175.296286,WKO00_1,,0,,Pacific/Auckland,,,0
14001962,1962,,175 Grandview Rd,Hamilton City,-37.78294444,175.2328889,WKO00_1,,0,,Pacific/Auckland,,,0
14001964,1964,,252 Ulster St (outside Aaron Court Motel),Hamilton City,-37.776781,175.268622,WKO00_CBD,,0,,Pacific/Auckland,,,0
14001971,1971,,177 Taharepa Rd,Taupo,-38.68955,176.0987778,WKO00_9C,,0,,Pacific/Auckland,,,0
14001972,1972,,56 Rimu St,Hamilton City,-37.780397,175.260515,WKO00_1,,0,,Pacific/Auckland,,,0
14001992,1992,,70 Dixon Rd,Hamilton City,-37.82264167,175.2976472,WKO00_1,,0,,Pacific/Auckland,,,0
14001994,1994,,106 Wentworth Dr,Hamilton City,-37.724352,175.259872,WKO00_1,,0,,Pacific/Auckland,,,0
14001995,1995,,Opp 228 Old Farm Rd,Hamilton City,-37.781858,175.313669,WKO00_1,,0,,Pacific/Auckland,,,0
14001999,1999,,Pukete Rd (opp Cullimore St),Hamilton City,-37.746428,175.240253,WKO00_1,,0,,Pacific/Auckland,,,0
14002032,2032,,130 Anglesea St ,Hamilton City,-37.792375,175.284376,WKO00_CBD,,0,,Pacific/Auckland,,,0
14002033,2033,,68 Maeroa Rd (near Beerescourt Tennis Club),Hamilton City,-37.77267,175.262158,WKO00_1,,0,,Pacific/Auckland,,,0
14002035,2035,,Opp 127 Collingwood (Wintec),Hamilton City,-37.79066,175.27985,WKO00_CBD,,0,,Pacific/Auckland,,,0
14002036,2036,,12 Norton Rd,Hamilton City,-37.78507778,175.2706639,WKO00_1,,0,,Pacific/Auckland,,,0
14002038,2038,,34 Manukau Rd (near Simon Rd),Raglan,-37.801418,174.882687,WKO00_4E,,0,,Pacific/Auckland,,,0
14002040,2040,,19 Ellicott Rd,Hamilton City,-37.78123889,175.2487167,WKO00_1,,0,,Pacific/Auckland,,,0
14002044,2044,,Opp 68 Whatawhata Rd (Dinsdale Shops),Hamilton City,-37.795618,175.244658,WKO00_1,,0,,Pacific/Auckland,,,0
14002045,2045,,21 Hamilton Rd (near Hall St),Cambridge,-37.889666,175.459482,WKO00_3C,,0,,Pacific/Auckland,,,0
14002053,2053,,151 Duke St,Hamilton City,-37.800496,175.252736,WKO00_1,,0,,Pacific/Auckland,,,0
14002057,2057,,130 Pukete Rd,Hamilton City,-37.7432740292243,175.239658239325,WKO00_1,,0,,Pacific/Auckland,,,0
14002060,2060,,7 Farringdon Dr,Hamilton City,-37.727062,175.258166,WKO00_1,,0,,Pacific/Auckland,,,0
14002063,2063,,212 Thomas Rd,Hamilton City,-37.73034722,175.2672167,WKO00_1,,0,,Pacific/Auckland,,,0
14002065,2065,,462 Thames St (near Seales Rd) (hail2ride),Morrinsville,-37.650221,175.542029,WKO00_3B,,0,,Pacific/Auckland,,,0
14002069,2069,,24 Thames St (hail2ride),Morrinsville,-37.661352,175.51891,WKO00_3B,,0,,Pacific/Auckland,,,0
14002072,2072,,22 St. James Dr,Hamilton City,-37.734136,175.284048,WKO00_1,,0,,Pacific/Auckland,,,0
14002075,2075,,452 Hukanui Rd (Rototuna),Hamilton City,-37.732408,175.27392,WKO00_1,,0,,Pacific/Auckland,,,0
14002076,2076,,Lyon St (Kihikihi Town Hall) (hail2ride),Te Awamutu,-38.037085,175.344995,WKO00_3D,,0,,Pacific/Auckland,,,0
14002081,2081,,674 Te Rapa Rd(outside PB Tech),Hamilton City,-37.75503056,175.2434639,WKO00_1,,0,,Pacific/Auckland,,,0
14002083,2083,,48 Saxbys Rd,Hamilton City,-37.82348611,175.2787972,WKO00_1,,0,,Pacific/Auckland,,,0
14002087,2087,,Opp 299 Hukanui Rd,Hamilton City,-37.744862,175.274863,WKO00_1,,0,,Pacific/Auckland,,,0
14002089,2089,,72 Wainui Rd (near Te Hutewai Rd),Raglan,-37.810296,174.858775,WKO00_4E,,0,,Pacific/Auckland,,,0
14002090,2090,,11 Alconbury Dr,Hamilton City,-37.728764941826,175.2707207809,WKO00_1,,0,,Pacific/Auckland,,,0
14002093,2093,,299 Hukanui Rd,Hamilton City,-37.745387,175.274906,WKO00_1,,0,,Pacific/Auckland,,,0
14002096,2096,,28 Foreman Rd ,Hamilton City,-37.759163,175.23613,WKO00_1,,0,,Pacific/Auckland,,,0
14002097,2097,,19 Callum Brae Dr,Hamilton City,-37.737467,175.270097,WKO00_1,,0,,Pacific/Auckland,,,0
14002102,2102,,41 Hood St,Hamilton City,-37.791187,175.28383,WKO00_CBD,,0,,Pacific/Auckland,,,0
14002107,2107,,102 Queens Ave,Hamilton City,-37.79455278,175.2673972,WKO00_1,,0,,Pacific/Auckland,,,0
14002112,2112,,370 Anglesea St (opp Transport Centre),Hamilton City,-37.785744,175.278215,WKO00_CBD,,0,,Pacific/Auckland,,,0
14002113,2113,,13 Jarden Mile,Taupo,-38.6864,176.05297,WKO00_9C,,0,,Pacific/Auckland,,,0
14002116,2116,,Opp 58 Peachgrove Rd (HBHS main entrance),Hamilton City,-37.786044,175.298377,WKO00_1,,0,,Pacific/Auckland,,,0
14002118,2118,,Westvale Ln (Proposed),,-37.7381675362738,175.152129335395,WKO00_2A,,0,,Pacific/Auckland,,,0
14002122,2122,,Onewhero (Proposed),,-37.330972537291,174.90904220493,WKO00_5A,,0,,Pacific/Auckland,,,0
14002124,2124,,Opp 187 Ward St (opp Hamilton Girls' High School),Hamilton City,-37.788651,175.276789,WKO00_CBD,,0,,Pacific/Auckland,,,0
14002125,2125,,68 Cameron Rd,Hamilton City,-37.784687,175.308191,WKO00_1,,0,,Pacific/Auckland,,,0
14002129,2129,,7 Queens Ave,Hamilton City,-37.790458,175.270428,WKO00_1,,0,,Pacific/Auckland,,,0
14002135,2135,,40 Dominion Rd,Hamilton City,-37.775219,175.23819,WKO00_1,,0,,Pacific/Auckland,,,0
14002137,2137,,117 Avalon Dr,Hamilton City,-37.771462,175.240594,WKO00_1,,0,,Pacific/Auckland,,,0
14002145,2145,,15 Poaka Ave,Hamilton City,-37.797112,175.244358,WKO00_1,,0,,Pacific/Auckland,,,0
14002146,2146,,Opp 42 Hillpark Dr,Pokeno,-37.235771,175.016577,WKO00_6A,,0,,Pacific/Auckland,,,0
14002148,2148,,55 Hillcrest Rd,Hamilton City,-37.793333,175.316998,WKO00_1,,0,,Pacific/Auckland,,,0
14002160,2160,,88 Ellicott Rd,Hamilton City,-37.785499,175.243494,WKO00_1,,0,,Pacific/Auckland,,,0
14002161,2161,,194 Hillcrest Rd (opp University of Waikato),Hamilton City,-37.78685,175.32011,WKO00_1,,0,,Pacific/Auckland,,,0
14002162,2162,,118 Holland Rd,Hamilton City,-37.766817,175.288849,WKO00_1,,0,,Pacific/Auckland,,,0
14002166,2166,,7 Tupelo St (near Taksan Pl),Hamilton City,-37.736331,175.231761,WKO00_1,,0,,Pacific/Auckland,,,0
14002167,2167,,George St (opp Taukau Town Hall),Tuakau,-37.260417,174.945857,WKO00_6A,,0,,Pacific/Auckland,,,0
14002170,2170,,Rototuna Shopping Centre,Hamilton City,-37.72900278,175.2740611,WKO00_1,,0,,Pacific/Auckland,,,0
14002175,2175,,Hague Rd Northbound (Hospital),Hamilton City,-37.804901,175.284406,,,0,,Pacific/Auckland,,,0
14002177,2177,,63 Huntington Dr,Hamilton City,-37.741638,175.283191,WKO00_1,,0,,Pacific/Auckland,,,0
14002178,2178,,24 Edinburgh Rd,Hamilton City,-37.793514,175.312881,WKO00_1,,0,,Pacific/Auckland,,,0
14002179,2179,,Tokoroa Squash Club (hail2ride),Tokoroa,-38.204439,175.868945,WKO00_6C,,0,,Pacific/Auckland,,,0
14002180,2180,,209 Clyde St,Hamilton City,-37.79003,175.30484,WKO00_1,,0,,Pacific/Auckland,,,0
14002181,2181,,94 Glen Lynne Ave,Hamilton City,-37.745739,175.274484,WKO00_1,,0,,Pacific/Auckland,,,0
14002182,2182,,68 Wellington St,Hamilton City,-37.794317,175.29925,WKO00_1,,0,,Pacific/Auckland,,,0
14002184,2184,,37 Mark Ball Dr (hail2ride),Pokeno,-37.2362150665259,175.010736777082,WKO00_6A,,0,,Pacific/Auckland,,,0
14002187,2187,,35 Baverstock Rd,Hamilton City,-37.771294,175.230042,WKO00_1,,0,,Pacific/Auckland,,,0
14002199,2199,,Te Kowhai (Proposed),,-37.7374647166368,175.154330376392,WKO00_2A,,0,,Pacific/Auckland,,,0
14002221,2221,,Rangatira Dr (near Hinau St) (hail2ride),,-38.375749,175.771006,WKO00_7C,,0,,Pacific/Auckland,,,0
14002229,2229,,SH 23 (opp Glentui Ln) (hail2ride),,-37.806984939146,175.08810395235,WKO00_2E,,0,,Pacific/Auckland,,,0
14002230,2230,,73 Clyde St,Hamilton City,-37.790848,175.29592,WKO00_1,,0,,Pacific/Auckland,,,0
14002233,2233,,Opp Buckville Rd (Proposed),Tuakau,-37.226624863405,174.95286398546,WKO00_6A,,0,,Pacific/Auckland,,,0
14002236,2236,,222 Killarney Rd,Hamilton City,-37.79487778,175.2498333,WKO00_1,,0,,Pacific/Auckland,,,0
14002240,2240,,4 Foreman Rd (outside Fonterra),Hamilton City,-37.76152,175.235397,WKO00_1,,0,,Pacific/Auckland,,,0
14002245,2245,,Shakespeare St (near Cook St) (hail2ride),Cambridge,-37.900171,175.478438,WKO00_3C,,0,,Pacific/Auckland,,,0
14002254,2254,,Opp 10 Ngatira Rd (hail2ride),,-38.1090122263036,175.820668277321,WKO00_5C,,0,,Pacific/Auckland,,,0
14002264,2264,,170 Dinsdale Rd,Hamilton City,-37.79242,175.237104,WKO00_1,,0,,Pacific/Auckland,,,0
14002270,2270,,81 Ellicott Rd,Hamilton City,-37.785076,175.244542,WKO00_1,,0,,Pacific/Auckland,,,0
14002271,2271,,159 Silverdale Rd (Uni Gate 10),Hamilton City,-37.78826,175.324036,WKO00_1,,0,,Pacific/Auckland,,,0
14002272,2272,,2 Alison St,Hamilton City,-37.802084,175.271799,WKO00_1,,0,,Pacific/Auckland,,,0
14002276,2276,,86 Rifle Range Rd,Taupo,-38.68962222,176.0837389,WKO00_9C,,0,,Pacific/Auckland,,,0
14002277,2277,,32 Brymer Rd,Hamilton City,-37.783226,175.226955,WKO00_1,,0,,Pacific/Auckland,,,0
14002278,2278,,Wainui Rd (Fire Station),Raglan,-37.801335,174.868621,WKO00_4E,,0,,Pacific/Auckland,,,0
14002280,2280,,Rangatira Dr (near Kowhai St) (hail2ride),,-38.375635,175.77109,WKO00_7C,,0,,Pacific/Auckland,,,0
14002281,2281,,Opp 5 Jellicoe Dr,Hamilton City,-37.79726,175.290276,WKO00_1,,0,,Pacific/Auckland,,,0
14002283,2283,,110A Mahoe St,Hamilton City,-37.81343889,175.2751222,WKO00_1,,0,,Pacific/Auckland,,,0
14002286,2286,,Te Rapa Train Yard,"Te Rapa Train yard, start and end location of H2A train link",-37.770865,175.243982,,,0,,Pacific/Auckland,,,0
14002287,2287,,503 Cochrane St (hail2ride),Thames,-37.133907,175.541064,WKO00_6B,,0,,Pacific/Auckland,,,0
14002290,2290,,28 Wallis St (near James St),Raglan,-37.798527,174.870161,WKO00_4E,,0,,Pacific/Auckland,,,0
14002291,2291,,123 Knighton Rd (Opp Uni Gate 2),Hamilton City,-37.78719722,175.3120417,WKO00_1,,0,,Pacific/Auckland,,,0
14002293,2293,,2 Willis St,Hamilton City,-37.810846,175.288121,WKO00_1,,0,,Pacific/Auckland,,,0
14002303,2303,,71 Billah St (hail2ride),Tokoroa,-38.220684,175.858881,WKO00_6C,,0,,Pacific/Auckland,,,0
14002305,2305,,89 Crosby Rd,Hamilton City,-37.75408,175.29065,WKO00_1,,0,,Pacific/Auckland,,,0
14002311,2311,,44 Callum Brae Dr,Hamilton City,-37.736853,175.269698,WKO00_1,,0,,Pacific/Auckland,,,0
14002313,2313,,76 MacFarlane St,Hamilton City,-37.799838,175.292877,WKO00_1,,0,,Pacific/Auckland,,,0
14002318,2318,,Opp 303 Ensor St (hail2ride),Thames,-37.128685,175.530829,WKO00_6B,,0,,Pacific/Auckland,,,0
14002321,2321,,12 Totara Dr,Hamilton City,-37.74739,175.248466,WKO00_1,,0,,Pacific/Auckland,,,0
14002327,2327,,7 Mardon Rd,Hamilton City,-37.767264,175.290959,WKO00_1,,0,,Pacific/Auckland,,,0
14002328,2328,,104 Beach Rd (hail2ride),Thames,-37.133067,175.535853,WKO00_6B,,0,,Pacific/Auckland,,,0
14002331,2331,,11 Mitcham Ave,Hamilton City,-37.772671263207,175.25476599159,WKO00_1,,0,,Pacific/Auckland,,,0
14002336,2336,,4 Tupelo St,Hamilton City,-37.736517,175.231523,WKO00_1,,0,,Pacific/Auckland,,,0
14002345,2345,,258 Thomas Rd,Hamilton City,-37.73128889,175.2616333,WKO00_1,,0,,Pacific/Auckland,,,0
14002346,2346,,2 Cate Rd,Hamilton City,-37.732894,175.268028,WKO00_1,,0,,Pacific/Auckland,,,0
14002347,2347,,92 Maeroa Rd,Hamilton City,-37.773838,175.260222,WKO00_1,,0,,Pacific/Auckland,,,0
14002352,2352,,60 Great South Rd (Taupiri Hopin Stopin Cafe),,-37.616592,175.186671,WKO00_3A,,0,,Pacific/Auckland,,,0
14002355,2355,,19 Radiata St,Hamilton City,-37.760328,175.301626,WKO00_1,,0,,Pacific/Auckland,,,0
14002357,2357,,Opp 343 Hukanui Rd,Hamilton City,-37.742206,175.274154,WKO00_1,,0,,Pacific/Auckland,,,0
14002359,2359,,82 Pembroke St,Hamilton City,-37.799349,175.281017,WKO00_CBD,,0,,Pacific/Auckland,,,0
14002361,2361,,82 Clyde St (Sacred Heart Girls College),Hamilton City,-37.79084444,175.2963667,WKO00_1,,0,,Pacific/Auckland,,,0
14002365,2365,,40 Challinor St,Hamilton City,-37.741012,175.243777,WKO00_1,,0,,Pacific/Auckland,,,0
14002367,2367,,95 Fifth Ave,Hamilton City,-37.76918889,175.3002306,WKO00_1,,0,,Pacific/Auckland,,,0
14002368,2368,,109 Dominion Rd,Hamilton City,-37.77742778,175.2305361,WKO00_1,,0,,Pacific/Auckland,,,0
14002370,2370,,4 Vardon Rd,Hamilton City,-37.76433,175.253864,WKO00_1,,0,,Pacific/Auckland,,,0
14002372,2372,,103 Thomas Rd (near Pharmacy),Hamilton City,-37.730834,175.275952,WKO00_1,,0,,Pacific/Auckland,,,0
14002373,2373,,4 Prisk St,Hamilton City,-37.81408056,175.2735333,WKO00_1,,0,,Pacific/Auckland,,,0
14002376,2376,,Opp 129 Knighton Rd (Uni Gate 2),Hamilton City,-37.7867269247426,175.312502172739,WKO00_1,,0,,Pacific/Auckland,,,0
14002377,2377,,13 Liverpool St,Hamilton City,-37.779982,175.275619,WKO00_CBD,,0,,Pacific/Auckland,,,0
14002381,2381,,7 Anzac Parade (Opp Police Station),Hamilton City,-37.792752,175.287286,WKO00_CBD,,0,,Pacific/Auckland,,,0
14002383,2383,,10 Ranfurly Ave,Hamilton City,-37.770198,175.274704,WKO00_1,,0,,Pacific/Auckland,,,0
14002391,2391,,SH 26 (opp Norfolk Rd) (hail2ride),,-37.691107,175.469997,WKO00_3B,,0,,Pacific/Auckland,,,0
14002400,2400,,94 Thomas Rd,Hamilton City,-37.730709,175.276577,WKO00_1,,0,,Pacific/Auckland,,,0
14002420,2420,,14 Houchens,Hamilton City,-37.82580833,175.2935361,WKO00_1,,0,,Pacific/Auckland,,,0
14002427,2427,,306 Karanui St (hail2ride),Thames,-37.126715,175.532101,WKO00_6B,,0,,Pacific/Auckland,,,0
14002431,2431,,10 Boundary Rd,Hamilton City,-37.77583,175.27998,WKO00_1,,0,,Pacific/Auckland,,,0
14002439,2439,,57 Grandview Rd,Hamilton City,-37.778023,175.241166,WKO00_1,,0,,Pacific/Auckland,,,0
14002443,2443,,59 MacFarlane St,Hamilton City,-37.80076,175.293134,WKO00_1,,0,,Pacific/Auckland,,,0
14002444,2444,,19 Wellington St,Hamilton City,-37.79553,175.293672,WKO00_1,,0,,Pacific/Auckland,,,0
14002446,2446,,Cambridge Rd (opp Kelly Rd) (hail2ride),Cambridge,-37.889651,175.452404,WKO00_3C,,0,,Pacific/Auckland,,,0
14002452,2452,,14A Galloway St,Hamilton City,-37.80098333,175.304925,WKO00_1,,0,,Pacific/Auckland,,,0
14002461,2461,,293 Cambridge Rd,Hamilton City,-37.80264,175.324122,WKO00_1,,0,,Pacific/Auckland,,,0
14002462,2462,,62 Howell Ave,Hamilton City,-37.804441,175.319234,WKO00_1,,0,,Pacific/Auckland,,,0
14002463,2463,,13 James St,Raglan,-37.7992222885511,174.871621433757,WKO00_4E,,0,,Pacific/Auckland,,,0
14002467,2467,,Hague Rd Southbound (Hospital),Hamilton City,-37.80469,175.284562,WKO00_1,,0,,Pacific/Auckland,,,0
14002469,2469,,34 Morris Rd,Hamilton City,-37.797038,175.325835,WKO00_1,,0,,Pacific/Auckland,,,0
14002475,2475,,4 Louise Pl,Hamilton City,-37.805137,175.318496,WKO00_1,,0,,Pacific/Auckland,,,0
14002480,2480,,Whatawhata Rd (opp Wallace Rd) (hail2ride),Hamilton City,-37.796979,175.229784,WKO00_1,,0,,Pacific/Auckland,,,0
14002485,2485,,292 Cambridge Rd,Hamilton City,-37.802756,175.323916,WKO00_1,,0,,Pacific/Auckland,,,0
14002487,2487,,50 Harris St - Huntly,Huntly,-37.561338,175.151406,WKO00_3A,,0,,Pacific/Auckland,,,0
14002489,2489,,52 Wentworth Dr,Hamilton City,-37.728867,175.258885,WKO00_1,,0,,Pacific/Auckland,,,0
14002490,2490,,SH 23 (near Te Mata Rd) (hail2ride),,-37.833531,174.917181,WKO00_4E,,0,,Pacific/Auckland,,,0
14002491,2491,,37 Cate Rd,Hamilton City,-37.729311,175.265611,WKO00_1,,0,,Pacific/Auckland,,,0
14002494,2494,,Outside Varda Salon (Temporary for Diversion),Hamilton City,-37.785418,175.277974,WKO00_CBD,,0,,Pacific/Auckland,,,0
14002500,2500,,Transport Centre Bus Station,Hamilton City,-37.7860163882077,175.277566280582,WKO00_CBD,,1,,Pacific/Auckland,,,0
14002501,2501,A,Transport Centre (Platform A),Hamilton City,-37.785957,175.277923,WKO00_CBD,,0,14002500,,,,0
14002502,2502,B,Transport Centre (Platform B),Hamilton City,-37.785993,175.277883,WKO00_CBD,,0,14002500,,,,0
14002503,2503,C,Transport Centre (Platform C) ,Hamilton City,-37.786031,175.277843,WKO00_CBD,,0,14002500,,,,0
14002504,2504,D,Transport Centre (Platform D),Hamilton City,-37.786066,175.277806,WKO00_CBD,,0,14002500,,,,0
14002505,2505,E,Transport Centre (Platform E),Hamilton City,-37.786107,175.277771,WKO00_CBD,,0,14002500,,,,0
14002506,2506,F,Transport Centre (Platform F),Hamilton City,-37.786149,175.277734,WKO00_CBD,,0,14002500,,,,0
14002507,2507,G,Transport Centre (Platform G),Hamilton City,-37.786188,175.277698,WKO00_CBD,,0,14002500,,,,0
14002508,2508,H,Transport Centre (Platform H),Hamilton City,-37.786226,175.277666,WKO00_CBD,,0,14002500,,,,0
14002509,2509,I,Transport Centre (Platform I),Hamilton City,-37.786267,175.277636,WKO00_CBD,,0,14002500,,,,0
14002510,2510,J,Transport Centre (Platform J),Hamilton City,-37.786307,175.277607,WKO00_CBD,,0,14002500,,,,0
14002511,2511,K,Transport Centre (Platform K),Hamilton City,-37.786351,175.277579,WKO00_CBD,,0,14002500,,,,0
14002512,2512,L,Transport Centre (Platform L),Hamilton City,-37.786394,175.277554,WKO00_CBD,,0,14002500,,,,0
14002513,2513,M,Transport Centre (Platform M),Hamilton City,-37.786438,175.277529,WKO00_CBD,,0,14002500,,,,0
14002514,2514,N,Transport Centre (Platform N),Hamilton City,-37.786484,175.27751,WKO00_CBD,,0,14002500,,,,0
14002515,2515,O,Transport Centre (Platform O),Hamilton City,-37.786527,175.277489,WKO00_CBD,,0,14002500,,,,0
14002516,2516,P,Transport Centre (Platform P),Hamilton City,-37.786576,175.277471,WKO00_CBD,,0,14002500,,,,0
14002517,2517,Q,Transport Centre (Platform Q),Hamilton City,-37.786619,175.277456,WKO00_CBD,,0,14002500,,,,0
14002518,2518,R,Transport Centre (Platform R),Hamilton City,-37.786668,175.27744,WKO00_CBD,,0,14002500,,,,0
14002519,2519,S,Transport Centre (Platform S),Hamilton City,-37.786711,175.277429,WKO00_CBD,,0,14002500,,,,0
14002520,2520,T,Transport Centre (Platform T),Hamilton City,-37.786759,175.277415,WKO00_CBD,,0,14002500,,,,0
14002521,2521,U,Transport Centre (Platform U),Hamilton City,-37.786805,175.277404,WKO00_CBD,,0,14002500,,,,0
14002522,2522,V,Transport Centre (Platform V),Hamilton City,-37.786852,175.27739,WKO00_CBD,,0,14002500,,,,0
14002530,2530,,Transport Centre,Hamilton City,-37.7860416,175.2776408,WKO00_CBD,,0,,Pacific/Auckland,,,0
14002552,2552,,68 Manfield St (hail2ride),Tokoroa,-38.206644,175.865065,WKO00_6C,,0,,Pacific/Auckland,,,0
14002564,2564,,33 Bartholomew Dr,Hamilton City,-37.780365,175.229576,WKO00_1,,0,,Pacific/Auckland,,,0
14002565,2565,,46 Thomas Rd,Hamilton City,-37.731161,175.281123,WKO00_1,,0,,Pacific/Auckland,,,0
14002566,2566,,211 Tramway Rd,Hamilton City,-37.762427,175.297845,WKO00_1,,0,,Pacific/Auckland,,,0
14002570,2570,,2 Tomin Rd,Hamilton City,-37.81963889,175.28315,WKO00_1,,0,,Pacific/Auckland,,,0
14002573,2573,,144 Taharepa Rd (opp Tauhara Primary School),Taupo,-38.69207778,176.0991694,WKO00_9C,,0,,Pacific/Auckland,,,0
14002584,2584,,77 Arrowsmith Ave,Taupo,-38.70693333,176.0979556,WKO00_9C,,0,,Pacific/Auckland,,,0
14002588,2588,,123 Wentworth Dr,Hamilton City,-37.724286,175.259737,WKO00_1,,0,,Pacific/Auckland,,,0
14002589,2589,,20 Chedworth Ave,Hamilton City,-37.751945,175.284466,WKO00_1,,0,,Pacific/Auckland,,,0
14002593,2593,,50 Western Heights Dr,Hamilton City,-37.787628,175.23084,WKO00_1,,0,,Pacific/Auckland,,,0
14002594,2594,,39 Harrisville Rd (hail2ride),Tuakau,-37.2526961633805,174.949909125507,WKO00_6A,,0,,Pacific/Auckland,,,0
14002596,2596,,105 Hyde Ave (near Greenwich St),Taupo,-38.71335278,176.0999194,WKO00_9C,,0,,Pacific/Auckland,,,0
14002601,2601,,Transport Centre (Bryce St),Hamilton City,-37.786575,175.277972,WKO00_CBD,,0,14002500,,,,0
14002652,2652,,SH 23 (opp Te Mata Rd) (hail2ride),,-37.832747,174.91704,WKO00_4E,,0,,Pacific/Auckland,,,0
14002667,2667,,43-65 Te Kauwhata Rd (hail2ride),Te Kauwhata,-37.408466,175.139243,WKO00_4A,,0,,Pacific/Auckland,,,0
14002669,2669,,7 Collingwood St,Hamilton City,-37.788491,175.283527,WKO00_CBD,,0,,Pacific/Auckland,,,0
14002672,2672,,Opp 91 Barrington Dr,Hamilton City,-37.724886,175.28242,WKO00_1,,0,,Pacific/Auckland,,,0
14002679,2679,,360 Peachgrove Rd,Hamilton City,-37.766546,175.290184,WKO00_1,,0,,Pacific/Auckland,,,0
14002680,2680,,109 Victoria St (Momento Cafe) (Night Rider Only),Hamilton City,-37.790231,175.285713,WKO00_CBD,,0,,Pacific/Auckland,,,0
14002681,2681,,31 Nevada Rd,Hamilton City,-37.788425,175.329377,WKO00_1,,0,,Pacific/Auckland,,,0
14002682,2682,,Opp 667 River Rd (Dio),Hamilton City,-37.76413056,175.2674889,WKO00_1,,0,,Pacific/Auckland,,,0
14002687,2687,,68 Breckons Ave,Hamilton City,-37.775379,175.236236,WKO00_1,,0,,Pacific/Auckland,,,0
14002688,2688,,201 Te Rapa Rd,Hamilton City,-37.76768056,175.2606944,WKO00_1,,0,,Pacific/Auckland,,,0
14002691,2691,,20 Deanwell Ave,Hamilton City,-37.82208,175.27692,WKO00_1,,0,,Pacific/Auckland,,,0
14002695,2695,,89 Fox St,Hamilton City,-37.797755,175.306507,WKO00_1,,0,,Pacific/Auckland,,,0
14002701,2701,,Transport Centre (Anglesea St),Hamilton City,-37.785973,175.278174,WKO00_CBD,,0,,Pacific/Auckland,,,0
14002756,2756,,37 Brookfield St,Hamilton City,-37.800931,175.299995,WKO00_1,,0,,Pacific/Auckland,,,0
14002765,2765,,1766 River Rd,Hamilton City,-37.733225,175.243256,WKO00_1,,0,,Pacific/Auckland,,,0
14002769,2769,,2 Wellington St,Hamilton City,-37.79607,175.29179,WKO00_1,,0,,Pacific/Auckland,,,0
14002776,2776,,127 Parawai Rd (hail2ride),Thames,-37.147312,175.553834,WKO00_6B,,0,,Pacific/Auckland,,,0
14002786,2786,,"Victoria St, Cambridge (Good Union) (hail2ride)",Cambridge,-37.89056944,175.4671278,WKO00_3C,,0,,Pacific/Auckland,,,0
14002788,2788,,151 Main St (Huntly Shops),Huntly,-37.559871,175.158842,WKO00_3A,,0,,Pacific/Auckland,,,0
14002789,2789,,22 Thomas Rd,Hamilton City,-37.731762,175.284373,WKO00_1,,0,,Pacific/Auckland,,,0
14002790,2790,,422 Parawai Rd (Opp Kauaeranaga Store) (hail2ride),Thames,-37.154021,175.56063,WKO00_6B,,0,,Pacific/Auckland,,,0
14002793,2793,,61 Rimu St,Hamilton City,-37.780574,175.260574,WKO00_1,,0,,Pacific/Auckland,,,0
14002854,2854,,Opp 1770 River Rd,Hamilton City,-37.73313,175.242714,WKO00_1,,0,,Pacific/Auckland,,,0
14002863,2863,,36 Deanwell Ave,Hamilton City,-37.82070556,175.2765694,WKO00_1,,0,,Pacific/Auckland,,,0
14002866,2866,,SH 23 (opp Highbrook Way) (hail2ride),,-37.803564,175.126013,WKO00_2E,,0,,Pacific/Auckland,,,0
14002870,2870,,11 Kiddle Dr,Taupo,-38.69553056,176.0991778,WKO00_9C,,0,,Pacific/Auckland,,,0
14002882,2882,,5 Braid Rd (outside St Andrews Library),Hamilton City,-37.75787222,175.2588528,WKO00_1,,0,,Pacific/Auckland,,,0
14002886,2886,,78 Morrinsville Rd,Hamilton City,-37.7989,175.329298,WKO00_1,,0,,Pacific/Auckland,,,0
14002889,2889,,13 Norris Ave,Hamilton City,-37.756896,175.249998,WKO00_1,,0,,Pacific/Auckland,,,0
14002952,2952,,59 Hamilton Rd,Cambridge,-37.889477,175.463205,WKO00_3C,,0,,Pacific/Auckland,,,0
14002954,2954,,27 Caernarvon St (Caernarvon Park),Hamilton City,-37.794972,175.238706,WKO00_1,,0,,Pacific/Auckland,,,0
14002957,2957,,Te Rapa Rd (opp Fonterra),Hamilton City,-37.719282,175.214438,WKO00_2A,,0,,Pacific/Auckland,,,0
14002962,2962,,Opp 23 Wharewaka Rd(Summerset Retirement Village),Taupo,-38.72983333,176.071425,WKO00_9C,,0,,Pacific/Auckland,,,0
14002968,2968,,901 Heaphy Tce (opp Claudelands Park),Hamilton City,-37.77561,175.285191,WKO00_1,,0,,Pacific/Auckland,,,0
14002970,2970,,Opp 66 Garnett Ave,Hamilton City,-37.767486,175.25283,WKO00_1,,0,,Pacific/Auckland,,,0
14002974,2974,,153 Rimu St,Hamilton City,-37.77961,175.25254,WKO00_1,,0,,Pacific/Auckland,,,0
14002982,2982,,Whitmore St (hail2ride),Te Awamutu,-38.039674151926,175.34944291491,WKO00_3D,,0,,Pacific/Auckland,,,0
14002987,2987,,3 Deanwell Ave,Hamilton City,-37.8234,175.277075,WKO00_1,,0,,Pacific/Auckland,,,0
14002989,2989,,58 Splitt Ave,Hamilton City,-37.82056111,175.2965444,WKO00_1,,0,,Pacific/Auckland,,,0
14002991,2991,,100 Wellington St,Hamilton City,-37.793184,175.304264,WKO00_1,,0,,Pacific/Auckland,,,0
14002992,2992,,5 Lethborg St,Hamilton City,-37.800625,175.251748,WKO00_1,,0,,Pacific/Auckland,,,0
14002993,2993,,12 Wainui Rd (near Stewart St) (hail2ride),Raglan,-37.80142,174.868801,WKO00_4E,,0,,Pacific/Auckland,,,0
14002994,2994,,Opp 1122 River Rd (Near Flagstaff shops),Hamilton City,-37.74002222,175.2547694,WKO00_1,,0,,Pacific/Auckland,,,0
14002995,2995,,Norton Rd (opp Founders Theatre),Hamilton City,-37.785757,175.274426,WKO00_CBD,,0,,Pacific/Auckland,,,0
14002997,2997,,Opp 3 St James St (outside St James St Shops),Taupo,-38.71506111,176.0915,WKO00_9C,,0,,Pacific/Auckland,,,0
14003054,3054,,25 Waimarie St,Hamilton City,-37.782286,175.243914,WKO00_1,,0,,Pacific/Auckland,,,0
14003059,3059,,40 Government Rd,Raglan,-37.798346,174.881986,WKO00_4E,,0,,Pacific/Auckland,,,0
14003060,3060,,6328-6322 Te Rapa Rd,Hamilton City,-37.711249,175.209243,WKO00_2A,,0,,Pacific/Auckland,,,0
14003061,3061,,43 Cambridge Rd,Hamilton City,-37.79736,175.31122,WKO00_1,,0,,Pacific/Auckland,,,0
14003062,3062,,2 Snell Dr,Hamilton City,-37.757589,175.295298,WKO00_1,,0,,Pacific/Auckland,,,0
14003063,3063,,87 Discovery Dr,Hamilton City,-37.729037,175.251865,WKO00_1,,0,,Pacific/Auckland,,,0
14003065,3065,,Arnold St (near Shakespeare St) (hail2ride),Cambridge,-37.913126,175.471866,WKO00_3C,,0,,Pacific/Auckland,,,0
14003067,3067,,27 Thomas Rd,Hamilton City,-37.731895,175.284443,WKO00_1,,0,,Pacific/Auckland,,,0
14003069,3069,,Kimbrae Dr (outside Summerset Retirement Village),Hamilton City,-37.7177,175.267389,WKO00_1,,0,,Pacific/Auckland,,,0
14003072,3072,,SH 23 (opp Te Uku shops) (hail2ride),,-37.829027,174.957421,WKO00_3E,,0,,Pacific/Auckland,,,0
14003074,3074,,115 Rimu St,Hamilton City,-37.78026667,175.2558139,WKO00_1,,0,,Pacific/Auckland,,,0
14003078,3078,,82 Te Huia Drive,Hamilton City,-37.73067778,175.2407167,WKO00_1,,0,,Pacific/Auckland,,,0
14003080,3080,,37 Forest Lake Rd,Hamilton City,-37.771872,175.259471,WKO00_1,,0,,Pacific/Auckland,,,0
14003083,3083,,42 Harrisville Rd (hail2ride),Tuakau,-37.2527495924186,174.95030688648,WKO00_6A,,0,,Pacific/Auckland,,,0
14003084,3084,,43 Wainui Rd (near Tahuna Ave),Raglan,-37.808672,174.860574,WKO00_4E,,0,,Pacific/Auckland,,,0
14003085,3085,,250 Fox St,Hamilton City,-37.790731,175.304075,WKO00_1,,0,,Pacific/Auckland,,,0
14003086,3086,,Mangakino Town Centre (near Four Square),,-38.370424,175.774067,WKO00_7C,,0,,Pacific/Auckland,,,0
14003090,3090,,10 Rawhiti St (Forlongs Home Center),Hamilton City,-37.787084,175.26467,WKO00_1,,0,,Pacific/Auckland,,,0
14003095,3095,,6 Holmes St,Hamilton City,-37.780315,175.240163,WKO00_1,,0,,Pacific/Auckland,,,0
14003098,3098,,3 Norton Rd,Hamilton City,-37.78514722,175.2705028,WKO00_1,,0,,Pacific/Auckland,,,0
14003151,3151,,229 Clarkin Rd,Hamilton City,-37.764152,175.282333,WKO00_1,,0,,Pacific/Auckland,,,0
14003159,3159,,Rotowaro Rd (hail2ride),Huntly,-37.569309,175.147547,WKO00_3A,,0,,Pacific/Auckland,,,0
14003161,3161,,343 Hukanui Rd,Hamilton City,-37.74225,175.2740056,WKO00_1,,0,,Pacific/Auckland,,,0
14003174,3174,,79 Naylor St,Hamilton City,-37.797634,175.304255,WKO00_1,,0,,Pacific/Auckland,,,0
14003177,3177,,43 Morris Rd,Hamilton City,-37.79561,175.32498,WKO00_1,,0,,Pacific/Auckland,,,0
14003181,3181,,Opp 315 Grey St (Steele Park),Hamilton City,-37.794276,175.293794,WKO00_1,,0,,Pacific/Auckland,,,0
14003182,3182,,169 Bankwood Rd,Hamilton City,-37.75409722,175.27545,WKO00_1,,0,,Pacific/Auckland,,,0
14003185,3185,,131 Anglesea St (outside Pilates centre),Hamilton City,-37.792479,175.284218,WKO00_CBD,,0,,Pacific/Auckland,,,0
14003196,3196,,29 O'Sullivan Dr (hail2ride),Tokoroa,-38.2192922586575,175.872521552684,WKO00_6C,,0,,Pacific/Auckland,,,0
14003256,3256,,12 Bankwood Rd,Hamilton City,-37.763613,175.277826,WKO00_1,,0,,Pacific/Auckland,,,0
14003262,3262,,36 Aberdeen Dr,Hamilton City,-37.789553,175.245754,WKO00_1,,0,,Pacific/Auckland,,,0
14003266,3266,,70 Bartholomew Dr,Hamilton City,-37.783015,175.230948,WKO00_1,,0,,Pacific/Auckland,,,0
14003270,3270,,103 Poaka Ave,Hamilton City,-37.80188056,175.2439139,WKO00_1,,0,,Pacific/Auckland,,,0
14003271,3271,,23 Raymond St,Hamilton City,-37.76248889,175.3058556,WKO00_1,,0,,Pacific/Auckland,,,0
14003280,3280,,33 MacDonlad Rd (near Lambert Ct),Hamilton City,-37.822625,175.2860278,WKO00_1,,0,,Pacific/Auckland,,,0
14003286,3286,,Garnett Ave (outside Te Rapa shops),Hamilton City,-37.765162,175.25282,WKO00_1,,0,,Pacific/Auckland,,,0
14003288,3288,,40 Jellicoe Dr,Hamilton City,-37.801358,175.28864,WKO00_1,,0,,Pacific/Auckland,,,0
14003290,3290,,Opp 956 Heaphy Tce,Hamilton City,-37.773013,175.283683,WKO00_1,,0,,Pacific/Auckland,,,0
14003294,3294,,Waharoa (Proposed),,-37.7616359104342,175.75454747941,WKO00_4B,,0,,Pacific/Auckland,,,0
14003327,3327,,56 Norton Rd,Hamilton City,-37.784269,175.265508,WKO00_1,,0,,Pacific/Auckland,,,0
14003351,3351,,18 McKay Dr,Hamilton City,-37.81954,175.222181,WKO00_1,,0,,Pacific/Auckland,,,0
14003354,3354,,Opp 267 Borman Rd,Hamilton City,-37.72278611,175.260175,WKO00_1,,0,,Pacific/Auckland,,,0
14003366,3366,,397A Ulster St,Hamilton City,-37.77305278,175.2638528,WKO00_1,,0,,Pacific/Auckland,,,0
14003370,3370,,218B Anglesea St (Youth and Family),Hamilton City,-37.789918,175.282072,WKO00_CBD,,0,,Pacific/Auckland,,,0
14003373,3373,,28 Marama St,Hamilton City,-37.789835,175.27208,WKO00_1,,0,,Pacific/Auckland,,,0
14003376,3376,,3 Urlich Ave (near Glenview Medical Centre),Hamilton City,-37.817077,175.282856,WKO00_1,,0,,Pacific/Auckland,,,0
14003379,3379,,21 Thames St (hail2ride),Morrinsville,-37.661233,175.518769,WKO00_3B,,0,,Pacific/Auckland,,,0
14003381,3381,,18 Powells Rd,Hamilton City,-37.765882,175.302021,WKO00_1,,0,,Pacific/Auckland,,,0
14003384,3384,,38 Knighton Rd,Hamilton City,-37.793939,175.310946,WKO00_1,,0,,Pacific/Auckland,,,0
14003393,3393,,671 Te Rapa Rd,Hamilton City,-37.75536667,175.2434694,WKO00_1,,0,,Pacific/Auckland,,,0
14003397,3397,,118 Great South Rd (Ohaupo),,-37.917555,175.30683,WKO00_2D,,0,,Pacific/Auckland,,,0
14003464,3464,,88 Clarkin Rd (St. Joseph's Catholic School),Hamilton City,-37.76622778,175.2737083,WKO00_1,,0,,Pacific/Auckland,,,0
14003475,3475,,12 Oakley Ave,Hamilton City,-37.776618,175.281524,WKO00_1,,0,,Pacific/Auckland,,,0
14003477,3477,,402 Hape Rd (hail2ride),Thames,-37.140265,175.55271,WKO00_6B,,0,,Pacific/Auckland,,,0
14003482,3482,,SH 23 (near Cogswell Rd) (hail2ride),,-37.830477,175.043054,WKO00_3E,,0,,Pacific/Auckland,,,0
14003486,3486,,28 Moreland Ave,Hamilton City,-37.737803,175.23723,WKO00_1,,0,,Pacific/Auckland,,,0
14003493,3493,,Opp 187 Knighton Rd,Hamilton City,-37.782562,175.31523,WKO00_1,,0,,Pacific/Auckland,,,0
14003553,3553,,132 Balmoral Dr (hail2ride),Tokoroa,-38.235618,175.869081,WKO00_6C,,0,,Pacific/Auckland,,,0
14003554,3554,,56 Bader St,Hamilton City,-37.808703,175.292147,WKO00_1,,0,,Pacific/Auckland,,,0
14003555,3555,,Opp 258 Thomas Rd,Hamilton City,-37.73143611,175.2617083,WKO00_1,,0,,Pacific/Auckland,,,0
14003557,3557,,103 Ensor St (hail2ride),Thames,-37.128647,175.531682,WKO00_6B,,0,,Pacific/Auckland,,,0
14003561,3561,,4 Goldsmith St (hail2ride),Cambridge,-37.901053,175.467735,WKO00_3C,,0,,Pacific/Auckland,,,0
14003562,3562,,18 Tamihana Ave,Hamilton City,-37.77346,175.277429,WKO00_1,,0,,Pacific/Auckland,,,0
14003567,3567,,1049 River Rd,Hamilton City,-37.745936,175.260532,WKO00_1,,0,,Pacific/Auckland,,,0
14003569,3569,,7 Boundary Rd,Hamilton City,-37.775788,175.279691,WKO00_1,,0,,Pacific/Auckland,,,0
14003572,3572,,41 Moreland Ave,Hamilton City,-37.737743,175.23696,WKO00_1,,0,,Pacific/Auckland,,,0
14003575,3575,,13 Te Kowhai Rd E (Placemakers),Hamilton City,-37.744132604604,175.22810332206,WKO00_1,,0,,Pacific/Auckland,,,0
14003576,3576,,Opp 205 Great South Rd (Ngaruawahia),,-37.678164,175.163419,WKO00_2A,,0,,Pacific/Auckland,,,0
14003578,3578,,Shakespeare St (near Browning St) (hail2ride),Cambridge,-37.909757,175.473659,WKO00_3C,,0,,Pacific/Auckland,,,0
14003579,3579,,Tokoroa Hospital (hail2ride),Tokoroa,-38.230306,175.859187,WKO00_6C,,0,,Pacific/Auckland,,,0
14003583,3583,,Sheehan St (hail2ride),Te Awamutu,-38.042020400408,175.34639283034,WKO00_3D,,0,,Pacific/Auckland,,,0
14003584,3584,,88 Wellington St,Hamilton City,-37.793735,175.30187,WKO00_1,,0,,Pacific/Auckland,,,0
14003585,3585,,55 Thomas Rd,Hamilton City,-37.731332,175.281422,WKO00_1,,0,,Pacific/Auckland,,,0
14003586,3586,,396 Borman Rd,Hamilton City,-37.72039,175.24844,WKO00_1,,0,,Pacific/Auckland,,,0
14003595,3595,,33 Magellan Rise,Hamilton City,-37.727823,175.24898,WKO00_1,,0,,Pacific/Auckland,,,0
14003617,3617,,57 Wiltshire Dr,Hamilton City,-37.735155,175.287379,WKO00_1,,0,,Pacific/Auckland,,,0
14003635,3635,,43 Chedworth Ave,Hamilton City,-37.751853,175.286649,WKO00_1,,0,,Pacific/Auckland,,,0
14003641,3641,,Opp 96 Hyde Ave (Greenwich Green),Taupo,-38.715944,176.098496,WKO00_9C,,0,,Pacific/Auckland,,,0
14003642,3642,,6 Garnett Ave,Hamilton City,-37.769468,175.25555,WKO00_1,,0,,Pacific/Auckland,,,0
14003644,3644,,38 Chedworth Ave,Hamilton City,-37.75194,175.286593,WKO00_1,,0,,Pacific/Auckland,,,0
14003646,3646,,212 Taharepa Rd,Taupo,-38.68479722,176.0955667,WKO00_9C,,0,,Pacific/Auckland,,,0
14003649,3649,,53 Waimarie St,Hamilton City,-37.780828,175.241852,WKO00_1,,0,,Pacific/Auckland,,,0
14003655,3655,,89 Breckons Ave,Hamilton City,-37.775441,175.236389,WKO00_1,,0,,Pacific/Auckland,,,0
14003656,3656,,1 Nevada Rd,Hamilton City,-37.790116,175.3266,WKO00_1,,0,,Pacific/Auckland,,,0
14003657,3657,,53 Herbert Rd,Hamilton City,-37.748692,175.269183,WKO00_1,,0,,Pacific/Auckland,,,0
14003659,3659,,SH 1 Horotiu (AFFCO),,-37.695614,175.191966,WKO00_2A,,0,,Pacific/Auckland,,,0
14003672,3672,,51 Carrington Ave,Hamilton City,-37.792169,175.321598,WKO00_1,,0,,Pacific/Auckland,,,0
14003675,3675,,53 Mardon Rd,Hamilton City,-37.766529,175.293644,WKO00_1,,0,,Pacific/Auckland,,,0
14003676,3676,,79 Grandview Rd,Hamilton City,-37.778891,175.239705,WKO00_1,,0,,Pacific/Auckland,,,0
14003677,3677,,249 Hukanui Rd (opp Hukanui Primary School),Hamilton City,-37.74829,175.27758,WKO00_1,,0,,Pacific/Auckland,,,0
14003684,3684,,283 Ohaupo Rd,Hamilton City,-37.82481944,175.2939389,WKO00_1,,0,,Pacific/Auckland,,,0
14003688,3688,,41 Boundary Rd,Hamilton City,-37.775324,175.281789,WKO00_1,,0,,Pacific/Auckland,,,0
14003693,3693,,1 Gorst Ave (Te Awamutu I-Site),Te Awamutu,-38.008038,175.327786,WKO00_3D,,0,,Pacific/Auckland,,,0
14003698,3698,,Opp 73 Moonlight Dr,Hamilton City,-37.722825652306,175.26575770056,WKO00_1,,0,,Pacific/Auckland,,,0
14003699,3699,,16 Forsyth St,Hamilton City,-37.760202,175.254891,WKO00_1,,0,,Pacific/Auckland,,,0
14003705,3705,,592-558 Ruakura Rd (near Davison Rd) (hail2ride,Hamilton City,-37.777177,175.345674,WKO00_1,,0,,Pacific/Auckland,,,0
14003711,3711,,102 Lake Cr,Hamilton City,-37.803103,175.274542,WKO00_1,,0,,Pacific/Auckland,,,0
14003722,3722,,66 Maui St (Hamilton Mountain Bike Park),Hamilton City,-37.735857,175.224439,WKO00_1,,0,,Pacific/Auckland,,,0
14003724,3724,,165 Ulster St (outside Grosvenor Motel),Hamilton City,-37.77806111,175.2716722,WKO00_CBD,,0,,Pacific/Auckland,,,0
14003727,3727,,1787 River Rd,Hamilton City,-37.732426,175.241013,WKO00_1,,0,,Pacific/Auckland,,,0
14003734,3734,,41 Edinburgh Rd,Hamilton City,-37.793287,175.315554,WKO00_1,,0,,Pacific/Auckland,,,0
14003749,3749,,39 Casey Ave,Hamilton City,-37.772593,175.277058,WKO00_1,,0,,Pacific/Auckland,,,0
14003751,3751,,130 Hyde Ave,Taupo,-38.71341111,176.0996611,WKO00_9C,,0,,Pacific/Auckland,,,0
14003752,3752,,1047 Heaphy Tce,Hamilton City,-37.770368,175.282239,WKO00_1,,0,,Pacific/Auckland,,,0
14003757,3757,,610 Victoria St,Hamilton City,-37.78390278,175.2800667,WKO00_CBD,,0,,Pacific/Auckland,,,0
14003759,3759,,3 Knighton Rd (near Cambridge Rd),Hamilton City,-37.796899,175.311871,WKO00_1,,0,,Pacific/Auckland,,,0
14003760,3760,,110 Ohaupo Rd,Hamilton City,-37.814346,175.282866,WKO00_1,,0,,Pacific/Auckland,,,0
14003761,3761,,Tauwhare (Proposed),,-37.7710899804071,175.4531769021,WKO00_2B,,0,,Pacific/Auckland,,,0
14003763,3763,,1 Poaka Ave,Hamilton City,-37.796135,175.244058,WKO00_1,,0,,Pacific/Auckland,,,0
14003764,3764,,Tirau i-Site,,-37.977178,175.756472,WKO00_4C,,0,,Pacific/Auckland,,,0
14003793,3793,,42 MacDonald Rd,Hamilton City,-37.82309722,175.2872694,WKO00_1,,0,,Pacific/Auckland,,,0
14003795,3795,,15 Houchens Rd,Hamilton City,-37.82608889,175.2934889,WKO00_1,,0,,Pacific/Auckland,,,0
14003802,3802,,Otorohanga College (Proposed),Otorohanga,-38.1800031428737,175.206557259407,WKO00_4D,,0,,Pacific/Auckland,,,0
14003803,3803,,SH 1 Horotui (near Horotiu Rd) (hail2ride),,-37.699021,175.196041,WKO00_2A,,0,,Pacific/Auckland,,,0
14003806,3806,,Opp 209 Dixon St (Summerset Village),Hamilton City,-37.8184275198411,175.303438084486,WKO00_1,,0,,Pacific/Auckland,,,0
14003816,3816,,73 Massey St,Hamilton City,-37.78983889,175.2581417,WKO00_1,,0,,Pacific/Auckland,,,0
14003828,3828,,300 Banks St (hail2ride),Thames,-37.146917,175.552449,WKO00_6B,,0,,Pacific/Auckland,,,0
14003832,3832,,502 Brown St (hail2ride),Thames,-37.132978,175.536551,WKO00_6B,,0,,Pacific/Auckland,,,0
14003835,3835,,48 Pelorus St,Hamilton City,-37.82370556,175.2933806,WKO00_1,,0,,Pacific/Auckland,,,0
14003843,3843,,77 Fifth Ave,Hamilton City,-37.76998889,175.2986306,WKO00_1,,0,,Pacific/Auckland,,,0
14003845,3845,,208 Clyde St,Hamilton City,-37.7901,175.30432,WKO00_1,,0,,Pacific/Auckland,,,0
14003847,3847,,Pihangi Rd (Proposed),Turangi,-38.9897987817514,175.810475011311,WKO00_10C,,0,,Pacific/Auckland,,,0
14003851,3851,,9 Waterford Rd,Hamilton City,-37.812749,175.301385,WKO00_1,,0,,Pacific/Auckland,,,0
14003858,3858,,19 Naylor St,Hamilton City,-37.799722,175.295385,WKO00_1,,0,,Pacific/Auckland,,,0
14003860,3860,,26 Odlin Cr,Hamilton City,-37.770443,175.23428,WKO00_1,,0,,Pacific/Auckland,,,0
14003868,3868,,40 Odette St,Hamilton City,-37.812207,175.288337,WKO00_1,,0,,Pacific/Auckland,,,0
14003872,3872,,16A Old Farm Rd,Hamilton City,-37.787525,175.3034444,WKO00_1,,0,,Pacific/Auckland,,,0
14003874,3874,,279 Kahikatea Dr ,Hamilton City,-37.80504,175.25851,WKO00_1,,0,,Pacific/Auckland,,,0
14003879,3879,,71 Bruce Ave,Hamilton City,-37.81567222,175.290925,WKO00_1,,0,,Pacific/Auckland,,,0
14003883,3883,,Opp 788 River Rd (Days Park),Hamilton City,-37.7586,175.2669583,WKO00_1,,0,,Pacific/Auckland,,,0
14003898,3898,,Riverview Rd - Huntly,Huntly,-37.569087,175.15245,WKO00_3A,,0,,Pacific/Auckland,,,0
14003904,3904,,Main Rd (near Manukau Rd),Raglan,-37.804096,174.879767,WKO00_4E,,0,,Pacific/Auckland,,,0
14003906,3906,,91 Barrington Dr,Hamilton City,-37.724769,175.282399,WKO00_1,,0,,Pacific/Auckland,,,0
14003907,3907,,55 Killarney Rd,Hamilton City,-37.794893,175.264052,WKO00_1,,0,,Pacific/Auckland,,,0
14003913,3913,,Opp 33 Magellan Rise,Hamilton City,-37.727719,175.24901,WKO00_1,,0,,Pacific/Auckland,,,0
14003914,3914,,27 Brymer Rd,Hamilton City,-37.78355,175.227386,WKO00_1,,0,,Pacific/Auckland,,,0
14003919,3919,,130 Roberts St,Taupo,-38.69148611,176.0781444,WKO00_9C,,0,,Pacific/Auckland,,,0
14003922,3922,,Richmond Villas (hail2ride),Thames,-37.144461974271,175.54170647549,WKO00_6B,,0,,Pacific/Auckland,,,0
14003925,3925,,Opp 103 Horsham Downs Rd,Hamilton City,-37.724257,175.275292,WKO00_1,,0,,Pacific/Auckland,,,0
14003926,3926,,342 Borman Rd (Opp Early Education Centre),Hamilton City,-37.722942,175.252077,WKO00_1,,0,,Pacific/Auckland,,,0
14003933,3933,,1161 Victoria St,Hamilton City,-37.776464,175.273371,WKO00_CBD,,0,,Pacific/Auckland,,,0
14003936,3936,,Cambridge Rd (opp Forrest Rd) (hail2ride),Cambridge,-37.880682,175.42358,WKO00_2C,,0,,Pacific/Auckland,,,0
14003940,3940,,92 Fifth Ave,Hamilton City,-37.769225,175.300352,WKO00_1,,0,,Pacific/Auckland,,,0
14003941,3941,,11 Tamihana Ave,Hamilton City,-37.773534,175.277188,WKO00_1,,0,,Pacific/Auckland,,,0
14003945,3945,,6244 Great South Rd,Hamilton City,-37.703171,175.201529,WKO00_2A,,0,,Pacific/Auckland,,,0
14003953,3953,,Opp 22 Bremwoth Ave,Hamilton City,-37.79835278,175.241625,WKO00_1,,0,,Pacific/Auckland,,,0
14003954,3954,,65 Avalon Dr (outside Mobile),Hamilton City,-37.774875,175.2447028,WKO00_1,,0,,Pacific/Auckland,,,0
14003956,3956,,15 Store Rd (opp Te Kowhai Golf Club),,-37.79693611,175.1558472,WKO00_2E,,0,,Pacific/Auckland,,,0
14003958,3958,,50 McKay Dr,Hamilton City,-37.81924167,175.2182806,WKO00_1,,0,,Pacific/Auckland,,,0
14003965,3965,,1243 Victoria St,Hamilton City,-37.773981,175.270631,WKO00_CBD,,0,,Pacific/Auckland,,,0
14003974,3974,,64 Avalon Dr,Hamilton City,-37.77523611,175.2453167,WKO00_1,,0,,Pacific/Auckland,,,0
14003976,3976,,18 Bremworth Ave,,-37.798263,175.241903,WKO00_1,,0,,Pacific/Auckland,,,0
14003978,3978,,14 Ruakura Rd (outside Hamilton City Holiday Park),Hamilton City,-37.780387,175.299762,WKO00_1,,0,,Pacific/Auckland,,,0
14003980,3980,,Opp 19 Radiata St,Hamilton City,-37.760288,175.301847,WKO00_1,,0,,Pacific/Auckland,,,0
14003985,3985,,97 Fairfield Rd,Hamilton City,-37.769042,175.278927,WKO00_1,,0,,Pacific/Auckland,,,0
14003988,3988,,60 Fitzroy Ave,Hamilton City,-37.815373,175.29684,WKO00_1,,0,,Pacific/Auckland,,,0
14003989,3989,,39 Holland Rd,Hamilton City,-37.769365,175.284661,WKO00_1,,0,,Pacific/Auckland,,,0
14003990,3990,,186 Cambridge Rd,Hamilton City,-37.800357,175.318183,WKO00_1,,0,,Pacific/Auckland,,,0
14003991,3991,,82 Shakespeare St (near Wordsworth St),Cambridge,-37.902802,175.47708,WKO00_3C,,0,,Pacific/Auckland,,,0
14003997,3997,,26 Poaka Ave,,-37.797699,175.244449,WKO00_1,,0,,Pacific/Auckland,,,0
14004007,4007,,216 Grandview Rd,Hamilton City,-37.785412,175.229619,WKO00_1,,0,,Pacific/Auckland,,,0
14004008,4008,,Opp 28 Hudson St,Hamilton City,-37.807248,175.324636,WKO00_1,,0,,Pacific/Auckland,,,0
14004009,4009,,166 Clyde St,Hamilton City,-37.78996,175.30141,WKO00_1,,0,,Pacific/Auckland,,,0
14004010,4010,,Pirongia (Proposed),Pirongia,-37.9885953732424,175.201078489775,WKO00_3D,,0,,Pacific/Auckland,,,0
14004017,4017,,45 Endeavour Ave,Hamilton City,-37.735518,175.256742,WKO00_1,,0,,Pacific/Auckland,,,0
14004020,4020,,82 McKay Dr,Hamilton City,-37.820378,175.220681,WKO00_1,,0,,Pacific/Auckland,,,0
14004022,4022,,7 Bow St (Raglan shops),Raglan,-37.799910414113,174.86825095858,WKO00_4E,,0,,Pacific/Auckland,,,0
14004024,4024,,133 Ellicot Rd,Hamilton City,-37.78706944,175.2395778,WKO00_1,,0,,Pacific/Auckland,,,0
14004037,4037,,Buckland Rd Pukekohe(near George Cres)(hail2ride),,-37.22819167,174.9271778,WKO00_6A,,0,,Pacific/Auckland,,,0
14004038,4038,,436 Morrinsville Rd (hail2ride),,-37.776995,175.36108,WKO00_1,,0,,Pacific/Auckland,,,0
14004044,4044,,52 Odlin Cr,Hamilton City,-37.772087,175.235609,WKO00_1,,0,,Pacific/Auckland,,,0
14004063,4063,,102 Fairfield Rd,Hamilton City,-37.769485,175.279308,WKO00_1,,0,,Pacific/Auckland,,,0
14004064,4064,,154 Duke St,Hamilton City,-37.80032,175.252462,WKO00_1,,0,,Pacific/Auckland,,,0
14004073,4073,,43 Te Aroha St,Hamilton City,-37.781363,175.292893,WKO00_1,,0,,Pacific/Auckland,,,0
14004080,4080,,20 Cameron Rd,Hamilton City,-37.788132,175.309396,WKO00_1,,0,,Pacific/Auckland,,,0
14004093,4093,,713 Tararu Rd (hail2ride),Thames,-37.115679,175.524066,WKO00_6B,,0,,Pacific/Auckland,,,0
14004101,4101,,5 Hudson St,Hamilton City,-37.807763,175.327206,WKO00_1,,0,,Pacific/Auckland,,,0
14004102,4102,,28 Weka St,Hamilton City,-37.789743,175.254009,WKO00_1,,0,,Pacific/Auckland,,,0
14004105,4105,,40 Chesham Ave,Taupo,-38.71089722,176.0971167,WKO00_9C,,0,,Pacific/Auckland,,,0
14004110,4110,,16 Government Rd (near Lily St),Raglan,-37.79744866595,174.87870841963,WKO00_4E,,0,,Pacific/Auckland,,,0
14004130,4130,,26B Brookfield St,Hamilton City,-37.80191,175.29606,WKO00_1,,0,,Pacific/Auckland,,,0
14004131,4131,,588 River Rd,Hamilton City,-37.768674,175.268785,WKO00_1,,0,,Pacific/Auckland,,,0
14004159,4159,,41 Lake Cr,Hamilton City,-37.804558,175.27839,WKO00_1,,0,,Pacific/Auckland,,,0
14004176,4176,,Cambridge Rd (Tamahere),Hamilton Surrounds,-37.827597,175.357562,WKO00_1,,0,,Pacific/Auckland,,,0
14004179,4179,,24 Rainbow Drive,Taupo,-38.71860833,176.0780111,WKO00_9C,,0,,Pacific/Auckland,,,0
14004180,4180,,441 Ulster St,Hamilton City,-37.77065833,175.2629694,WKO00_1,,0,,Pacific/Auckland,,,0
14004181,4181,,5 Callum Brae Dr,Hamilton City,-37.738732,175.272724,WKO00_1,,0,,Pacific/Auckland,,,0
14004188,4188,,Kihikihi Rd (near St Leger Rd) (hail2ride),Te Awamutu,-38.025314559335,175.33385805275,WKO00_3D,,0,,Pacific/Auckland,,,0
14004189,4189,,Cullimore St (near Cullimore Park),Hamilton City,-37.745139,175.245322,WKO00_1,,0,,Pacific/Auckland,,,0
14004191,4191,,Opp 20 Wellington St,Hamilton City,-37.7953,175.294579,WKO00_1,,0,,Pacific/Auckland,,,0
14004198,4198,,28 Raymond St,Hamilton City,-37.762214,175.305847,WKO00_1,,0,,Pacific/Auckland,,,0
14004200,4200,,8 Balmarino Cr,Hamilton City,-37.738152,175.232272,WKO00_1,,0,,Pacific/Auckland,,,0
14004202,4202,,371 Hukanui Rd,Hamilton City,-37.739383,175.273829,WKO00_1,,0,,Pacific/Auckland,,,0
14004206,4206,,47 Acacia Cr,Hamilton City,-37.82710278,175.2935222,WKO00_1,,0,,Pacific/Auckland,,,0
14004217,4217,,3 Bartholomew Dr,Hamilton City,-37.77798611,175.2319278,WKO00_1,,0,,Pacific/Auckland,,,0
14004219,4219,,65 Aberdeen Dr,Hamilton City,-37.789397,175.242535,WKO00_1,,0,,Pacific/Auckland,,,0
14004221,4221,,61 Bader St,Hamilton City,-37.808555,175.291928,WKO00_1,,0,,Pacific/Auckland,,,0
14004224,4224,,128 Beerescourt Rd,Hamilton City,-37.76255556,175.2612889,WKO00_1,,0,,Pacific/Auckland,,,0
14004225,4225,,115 Holland Rd,Hamilton City,-37.76707,175.288607,WKO00_1,,0,,Pacific/Auckland,,,0
14004227,4227,,118 Endeavour Ave,Hamilton City,-37.734126,175.249923,WKO00_1,,0,,Pacific/Auckland,,,0
14004228,4228,,191 Old Farm Rd,Hamilton City,-37.782853,175.309515,WKO00_1,,0,,Pacific/Auckland,,,0
14004233,4233,,49 Brookfield St,Hamilton City,-37.800347,175.302513,WKO00_1,,0,,Pacific/Auckland,,,0
14004237,4237,,19 Huamai St,,-38.372518,175.771922,WKO00_7C,,0,,Pacific/Auckland,,,0
14004243,4243,,10 Amanda Ave,Hamilton City,-37.800167,175.243515,WKO00_1,,0,,Pacific/Auckland,,,0
14004249,4249,,67 Hudson St,Hamilton City,-37.806156,175.322085,WKO00_1,,0,,Pacific/Auckland,,,0
14004258,4258,,Cambridge Rd (Eventide Village) (hail2ride),Hamilton Surrounds,-37.82056389,175.3482194,WKO00_1,,0,,Pacific/Auckland,,,0
14004264,4264,,108A Peachgrove Rd,Hamilton City,-37.781347,175.2984,WKO00_1,,0,,Pacific/Auckland,,,0
14004267,4267,,23 Manukau Rd (near Primrose St),Raglan,-37.802269,174.881238,WKO00_4E,,0,,Pacific/Auckland,,,0
14004268,4268,,The Base/ Rotokauri Railway Station,Hamilton City,-37.747978,175.228653,WKO00_1,,0,,Pacific/Auckland,,,0
14004270,4270,,Hamilton Park Cemetery (On demand only),,-37.777525,175.355369,WKO00_1,,0,,Pacific/Auckland,,,0
14004271,4271,,100 Higgins Rd,Hamilton City,-37.80373,175.254362,WKO00_1,,0,,Pacific/Auckland,,,0
14004287,4287,,440 Kahikatea Dr,Hamilton City,-37.803254,175.245882,WKO00_1,,0,,Pacific/Auckland,,,0
14004289,4289,,35 Lloyd Dr,Hamilton City,-37.775879,175.23082,WKO00_1,,0,,Pacific/Auckland,,,0
14004296,4296,,1 Norrie Ave (near Main Rd),Raglan,-37.803486,174.872952,WKO00_4E,,0,,Pacific/Auckland,,,0
14004308,4308,,4 Carrington Ave,Hamilton City,-37.794359,175.320801,WKO00_1,,0,,Pacific/Auckland,,,0
14004313,4313,,3 Garnett Ave,Hamilton City,-37.769704,175.255696,WKO00_1,,0,,Pacific/Auckland,,,0
14004317,4317,,9 Malcolm St,Hamilton City,-37.805273,175.319847,WKO00_1,,0,,Pacific/Auckland,,,0
14004318,4318,,27 Aberdeen Dr,Hamilton City,-37.789808,175.246606,WKO00_1,,0,,Pacific/Auckland,,,0
14004329,4329,,341 Borman Rd (Early Childhood Centre),Hamilton City,-37.723054,175.251978,WKO00_1,,0,,Pacific/Auckland,,,0
14004335,4335,,90 Forest Lake Rd (near Hamilton City Netball Centre),Hamilton City,-37.774888,175.255061,WKO00_1,,0,,Pacific/Auckland,,,0
14004346,4346,,6 Aberdeen Dr,Hamilton City,-37.790214,175.248881,WKO00_1,,0,,Pacific/Auckland,,,0
14004347,4347,,Opp 20 Riverlea Rd,Hamilton City,-37.80663611,175.3278056,WKO00_1,,0,,Pacific/Auckland,,,0
14004350,4350,,Tokoroa Club (hail2ride),Tokoroa,-38.214658,175.867621,WKO00_6C,,0,,Pacific/Auckland,,,0
14004353,4353,,Buckville Rd (Near 221) (hail2ride),Tuakau,-37.226945045215,174.95287213612,WKO00_6A,,0,,Pacific/Auckland,,,0
14004363,4363,,121 Bryant Rd,Hamilton City,-37.75346667,175.2530806,WKO00_1,,0,,Pacific/Auckland,,,0
14004367,4367,,15 Vardon Rd,Hamilton City,-37.763694,175.254461,WKO00_1,,0,,Pacific/Auckland,,,0
14004368,4368,,12 Pembroke St,Hamilton City,-37.79419444,175.2806139,WKO00_CBD,,0,,Pacific/Auckland,,,0
14004371,4371,,Turongo St (Proposed),Otorohanga,-38.1869352691344,175.209046349364,WKO00_4D,,0,,Pacific/Auckland,,,0
14004374,4374,,1 Holland Rd,Hamilton City,-37.769963,175.282586,WKO00_1,,0,,Pacific/Auckland,,,0
14004376,4376,,Shakespeare St (Leamington Medical Centre),Cambridge,-37.905993,175.475425,WKO00_3C,,0,,Pacific/Auckland,,,0
14004378,4378,,47 Callum Brae Dr,Hamilton City,-37.735335,175.267549,WKO00_1,,0,,Pacific/Auckland,,,0
14004383,4383,,Countdown (Tokoroa) (hail2ride),Tokoroa,-38.222046,175.873721,WKO00_6C,,0,,Pacific/Auckland,,,0
14004384,4384,,84 Snell Dr,Hamilton City,-37.761727,175.288609,WKO00_1,,0,,Pacific/Auckland,,,0
14004394,4394,,Opp Tristram St (Temporary for Diversion),Hamilton City,-37.787098,175.276121,WKO00_CBD,,0,,Pacific/Auckland,,,0
14004399,4399,,37 Prisk St,Hamilton City,-37.81740833,175.2757583,WKO00_1,,0,,Pacific/Auckland,,,0
14004400,4400,,44 Discovery Dr,Hamilton City,-37.732226,175.249454,WKO00_1,,0,,Pacific/Auckland,,,0
14004404,4404,,Southey St (near Moore St) (hail2ride),Cambridge,-37.910809,175.467741,WKO00_3C,,0,,Pacific/Auckland,,,0
14004410,4410,,157 Pukete Rd,Hamilton City,-37.741436,175.239099,WKO00_1,,0,,Pacific/Auckland,,,0
14004413,4413,,Lynden Court West (Burger King),Hamilton City,-37.750772,175.278109,WKO00_1,,0,,Pacific/Auckland,,,0
14004414,4414,,956 Heaphy Tce,Hamilton City,-37.772975,175.283846,WKO00_1,,0,,Pacific/Auckland,,,0
14004415,4415,,Pope Tce (hail2ride),Cambridge,-37.900644,175.46983,WKO00_3C,,0,,Pacific/Auckland,,,0
14004427,4427,,109 Duke St,Hamilton City,-37.80147,175.256792,WKO00_1,,0,,Pacific/Auckland,,,0
14004430,4430,,50 Church Rd,Hamilton City,-37.74014167,175.2318139,WKO00_1,,0,,Pacific/Auckland,,,0
14004431,4431,,Whakamaru Store (Northbound) (hail2ride),,-38.419446,175.796487,WKO00_7C,,0,,Pacific/Auckland,,,0
14004434,4434,,87 Bryant Rd,Hamilton City,-37.75460833,175.2510222,WKO00_1,,0,,Pacific/Auckland,,,0
14004437,4437,,61 Powells Rd,Hamilton City,-37.764537,175.306345,WKO00_1,,0,,Pacific/Auckland,,,0
14004444,4444,,9 Hare Puke Dr,Hamilton City,-37.72374722,175.2401083,WKO00_1,,0,,Pacific/Auckland,,,0
14004447,4447,,259 Fox St,Hamilton City,-37.790233,175.303799,WKO00_1,,0,,Pacific/Auckland,,,0
14004449,4449,,53 GoldSmith St,Cambridge,-37.905115,175.469364,WKO00_3C,,0,,Pacific/Auckland,,,0
14004458,4458,,83 Wiltshire Dr,Hamilton City,-37.737162,175.284101,WKO00_1,,0,,Pacific/Auckland,,,0
14004466,4466,,92 Hillpark Dr (hail2ride),Pokeno,-37.2358261939142,175.016740871842,WKO00_6A,,0,,Pacific/Auckland,,,0
14004469,4469,,67 Moonlight Drive,Hamilton City,-37.723526,175.265973,WKO00_1,,0,,Pacific/Auckland,,,0
14004483,4483,,48 Radiata St,Hamilton City,-37.75881389,175.3037361,WKO00_1,,0,,Pacific/Auckland,,,0
14004492,4492,,75-163 Te Kauwhata Rd (hail2ride),Te Kauwhata,-37.408826,175.138802,WKO00_4A,,0,,Pacific/Auckland,,,0
14004497,4497,,132 Fairview Rd,Hamilton City,-37.75613889,175.2977444,WKO00_1,,0,,Pacific/Auckland,,,0
14004555,4555,,202 Maeroa Rd,Hamilton City,-37.779064,175.258742,WKO00_1,,0,,Pacific/Auckland,,,0
14004568,4568,,40 Bankwood Rd,Hamilton City,-37.761022,175.276632,WKO00_1,,0,,Pacific/Auckland,,,0
14004571,4571,,Russell Rd (hail2ride),Huntly,-37.544404,175.16936,WKO00_3A,,0,,Pacific/Auckland,,,0
14004573,4573,,165 Killarney Rd,Hamilton City,-37.79519167,175.2547167,WKO00_1,,0,,Pacific/Auckland,,,0
14004578,4578,,125 Richmond Ave,Taupo,-38.71842778,176.0847361,WKO00_9C,,0,,Pacific/Auckland,,,0
14004586,4586,,17 Prisk St,Hamilton City,-37.81578611,175.2742361,WKO00_1,,0,,Pacific/Auckland,,,0
14004591,4591,,126 Grey St (Jetts fitness centre),Hamilton City,-37.799,175.296133,WKO00_1,,0,,Pacific/Auckland,,,0
14004653,4653,,Opp 6328-6322 Te Rapa Rd,Hamilton City,-37.711055,175.209516,WKO00_2A,,0,,Pacific/Auckland,,,0
14004679,4679,,29 Hillpark Dr (hail2ride),Pokeno,-37.2392322990601,175.016541851907,WKO00_6A,,0,,Pacific/Auckland,,,0
14004682,4682,,Cnr Tuhikaramea and Cowley,Hamilton City,-37.819852,175.226473,WKO00_1,,0,,Pacific/Auckland,,,0
14004697,4697,,303 Fergusson Dr (hail2ride),Thames,-37.12768199537,175.53016789929,WKO00_6B,,0,,Pacific/Auckland,,,0
14004699,4699,,174 Pukete Rd,Hamilton City,-37.739297,175.238637,WKO00_1,,0,,Pacific/Auckland,,,0
14004751,4751,,Fairfield Ave - Huntly,Huntly,-37.554982780247,175.15170181875,WKO00_3A,,0,,Pacific/Auckland,,,0
14004754,4754,,99 Sandwich Rd,Hamilton City,-37.749205,175.253502,WKO00_1,,0,,Pacific/Auckland,,,0
14004765,4765,,26 Hillpark Dr (hail2ride),Pokeno,-37.2395115616045,175.016554469996,WKO00_6A,,0,,Pacific/Auckland,,,0
14004768,4768,,507 Brown St (hail2ride),Thames,-37.132694,175.536231,WKO00_6B,,0,,Pacific/Auckland,,,0
14004772,4772,,87 Higgins Rd,Hamilton City,-37.803474,175.254638,WKO00_1,,0,,Pacific/Auckland,,,0
14004774,4774,,Ocean View Rd (Proposed),,-37.397291231758,174.7118522591,WKO00_5A,,0,,Pacific/Auckland,,,0
14004778,4778,,54 Cumberland Dr,Hamilton City,-37.72433,175.248515,WKO00_1,,0,,Pacific/Auckland,,,0
14004786,4786,,8 Glenshea St (hail2ride),Putaruru,-38.052809,175.777872,WKO00_5C,,0,,Pacific/Auckland,,,0
14004787,4787,,20 Urlich Ave,Hamilton City,-37.817283,175.283615,WKO00_1,,0,,Pacific/Auckland,,,0
14004790,4790,,11 Te Huia Dr,Hamilton City,-37.72732,175.235937,WKO00_1,,0,,Pacific/Auckland,,,0
14004792,4792,,Borman Rd (Outside Radius Glaisdale),Hamilton City,-37.720432,175.242284,WKO00_1,,0,,Pacific/Auckland,,,0
14004852,4852,,11 Anzac St (opp New World),Cambridge,-37.893754,175.472574,WKO00_3C,,0,,Pacific/Auckland,,,0
14004853,4853,,24 Hobson St,Hamilton City,-37.771151,175.262112,WKO00_1,,0,,Pacific/Auckland,,,0
14004862,4862,,12 Kereru St (hail2ride),Tokoroa,-38.238225,175.86252,WKO00_6C,,0,,Pacific/Auckland,,,0
14004863,4863,,56 Rifle Range Rd (near Beechtree Motel),Taupo,-38.69125833,176.0800556,WKO00_9C,,0,,Pacific/Auckland,,,0
14004866,4866,,19 Helenslee Rd (hail2ride),Pokeno,-37.241978,175.014634,WKO00_6A,,0,,Pacific/Auckland,,,0
14004873,4873,,182 George St (hail2ride),Tuakau,-37.272754043116,174.944730839601,WKO00_6A,,0,,Pacific/Auckland,,,0
14004876,4876,,65 MacDonald Rd,Hamilton City,-37.82395833,175.2894639,WKO00_1,,0,,Pacific/Auckland,,,0
14004879,4879,,64 Papanui St (hail2ride),Tokoroa,-38.21963,175.862259,WKO00_6C,,0,,Pacific/Auckland,,,0
14004882,4882,,35 Sandwich Rd,Hamilton City,-37.754724,175.257526,WKO00_1,,0,,Pacific/Auckland,,,0
14004891,4891,,46 Lake Cr,Hamilton City,-37.804462,175.278149,WKO00_1,,0,,Pacific/Auckland,,,0
14004898,4898,,65 Bartholomew Dr,Hamilton City,-37.78284,175.230914,WKO00_1,,0,,Pacific/Auckland,,,0
14004905,4905,,100b Dominion Rd,Hamilton City,-37.777494899716,175.23150912373,WKO00_1,,0,,Pacific/Auckland,,,0
14004908,4908,,SH 23 (opp Old Mountain Rd) (hail2ride),,-37.838347,175.023478,WKO00_3E,,0,,Pacific/Auckland,,,0
14004912,4912,,38 Alconbury Dr,Hamilton City,-37.726687,175.271134,WKO00_1,,0,,Pacific/Auckland,,,0
14004915,4915,,12 Kiddle Dr,Taupo,-38.695443429368,176.09928846628,WKO00_9C,,0,,Pacific/Auckland,,,0
14004918,4918,,Manukau Rd Pukekohe (near Subway Rd)(hail2ride),,-37.20664722,174.9094167,WKO00_6A,,0,,Pacific/Auckland,,,0
14004924,4924,,55 Farnborough Dr,Hamilton City,-37.777936,175.224866,WKO00_1,,0,,Pacific/Auckland,,,0
14004925,4925,,27 Odette St,Hamilton City,-37.812007,175.288208,WKO00_1,,0,,Pacific/Auckland,,,0
14004935,4935,,800 Victoria St (outside Fastlane Fitness),Hamilton City,-37.78147222,175.27785,WKO00_CBD,,0,,Pacific/Auckland,,,0
14004937,4937,,37 Pelorus St,Hamilton City,-37.82338,175.292927,WKO00_1,,0,,Pacific/Auckland,,,0
14004938,4938,,Opp 108 Tararu Rd (hail2ride),Thames,-37.129517,175.534291,WKO00_6B,,0,,Pacific/Auckland,,,0
14004939,4939,,Custom St (Pukekohe Train Station),,-37.203647690639,174.90946820901,WKO00_6A,,0,,Pacific/Auckland,,,0
14004964,4964,,76 Farnborough Dr,Hamilton City,-37.778358,175.222534,WKO00_1,,0,,Pacific/Auckland,,,0
14004965,4965,,868 River Rd (Swarbricks Landing),Hamilton City,-37.752789,175.267098,WKO00_1,,0,,Pacific/Auckland,,,0
14004970,4970,,65 Wentworth Dr,Hamilton City,-37.728904,175.258787,WKO00_1,,0,,Pacific/Auckland,,,0
14004973,4973,,61 Fairfield Rd (outside Woodstock School),Hamilton City,-37.769219,175.275417,WKO00_1,,0,,Pacific/Auckland,,,0
14004974,4974,,Kihikihi Rd (near Mandeno St)(hail2ride),Te Awamutu,-38.01579167,175.3251417,WKO00_3D,,0,,Pacific/Auckland,,,0
14004976,4976,,Airport Rd (near Newell Rd) (hail2ride),,-37.834223,175.353229,WKO00_1,,0,,Pacific/Auckland,,,0
14004977,4977,,Tristram St (Seddon Park),Hamilton City,-37.78731,175.276134,WKO00_CBD,,0,,Pacific/Auckland,,,0
14004986,4986,,Opp 281 Ohaupo Rd,Hamilton City,-37.82478611,175.2935278,WKO00_1,,0,,Pacific/Auckland,,,0
14004988,4988,,Cambridge Rd (near Hooker Rd) (hail2ride),Hamilton Surrounds,-37.873881,175.408849,WKO00_2C,,0,,Pacific/Auckland,,,0
14004989,4989,,293 Clarkin Rd,Hamilton City,-37.762977,175.286775,WKO00_1,,0,,Pacific/Auckland,,,0
14004990,4990,,Te Kuiti (Proposed),Te Kuiti,-38.3358937324066,175.165117896363,WKO00_5D,,0,,Pacific/Auckland,,,0
14005057,5057,,12 Foster Rd,Hamilton City,-37.821869,175.224324,WKO00_1,,0,,Pacific/Auckland,,,0
14005061,5061,,260 Borman Rd,Hamilton City,-37.722507,175.26314,WKO00_1,,0,,Pacific/Auckland,,,0
14005064,5064,,183 Brymer Rd (Zoo),,-37.7743,175.2172056,WKO00_1,,0,,Pacific/Auckland,,,0
14005065,5065,,17 Western Heights Dr,Hamilton City,-37.788333,175.233922,WKO00_1,,0,,Pacific/Auckland,,,0
14005066,5066,,27 Wall St,Hamilton City,-37.77449444,175.2407333,WKO00_1,,0,,Pacific/Auckland,,,0
14005068,5068,,190 Totara Dr,Hamilton City,-37.73844167,175.2396139,WKO00_1,,0,,Pacific/Auckland,,,0
14005083,5083,,1095 Heaphy Tce (Caro Park),Hamilton City,-37.768026,175.280938,WKO00_1,,0,,Pacific/Auckland,,,0
14005087,5087,,Opp 65 Waterford Rd,Hamilton City,-37.817013,175.301699,WKO00_1,,0,,Pacific/Auckland,,,0
14005099,5099,,Tainui Superette (hail2ride),Tokoroa,-38.239687,175.859257,WKO00_6C,,0,,Pacific/Auckland,,,0
14005173,5173,,131 Totara Dr,Hamilton City,-37.740116,175.245781,WKO00_1,,0,,Pacific/Auckland,,,0
14005179,5179,,Mercer Service Centre,,-37.278378,175.04706,WKO00_5A,,0,,Pacific/Auckland,,,0
14005180,5180,,116 Fairview St,Hamilton City,-37.757145,175.297599,WKO00_1,,0,,Pacific/Auckland,,,0
14005182,5182,,Opp 30 Weka St,Hamilton City,-37.789651,175.253891,WKO00_1,,0,,Pacific/Auckland,,,0
14005186,5186,,37 Manukau Rd (near Government Rd),Raglan,-37.8013,174.882512,WKO00_4E,,0,,Pacific/Auckland,,,0
14005198,5198,,Thames Hospital Entrance (hail2ride),Thames,-37.136566,175.543074,WKO00_6B,,0,,Pacific/Auckland,,,0
14005269,5269,,152 Brunton Cres (hail2ride),Thames,-37.145195,175.555445,WKO00_6B,,0,,Pacific/Auckland,,,0
14005271,5271,,6 Angus St,Hamilton City,-37.783131,175.2252,WKO00_1,,0,,Pacific/Auckland,,,0
14005277,5277,,94 Rimu St,Hamilton City,-37.780439,175.257666,WKO00_1,,0,,Pacific/Auckland,,,0
14005283,5283,,55 Wellington St,Hamilton City,-37.793708,175.301452,WKO00_1,,0,,Pacific/Auckland,,,0
14005296,5296,,1855 River Rd,Hamilton City,-37.72859,175.235222,WKO00_1,,0,,Pacific/Auckland,,,0
14005299,5299,,Frankton Railway Station,Hamilton City,-37.790886,175.265211,WKO00_1,,0,,Pacific/Auckland,,,0
14005352,5352,,842 River Rd (Donny Park),Hamilton City,-37.755303,175.267247,WKO00_1,,0,,Pacific/Auckland,,,0
14005355,5355,,45 Houchens Rd,Hamilton City,-37.82793611,175.2924361,WKO00_1,,0,,Pacific/Auckland,,,0
14005364,5364,,66 Hamilton Rd (hail2ride),Cambridge,-37.889242,175.46531,WKO00_3C,,0,,Pacific/Auckland,,,0
14005365,5365,,SH 26 (near Avenue Rd N) (hail2ride),Morrinsville,-37.661875,175.516969,WKO00_3B,,0,,Pacific/Auckland,,,0
14005373,5373,,Victoria Square (opp Town Hall),Cambridge,-37.89218,175.467474,WKO00_3C,,0,,Pacific/Auckland,,,0
14005376,5376,,714 River Rd (near Waikato Diocesan School For Girls),Hamilton City,-37.761958,175.267757,WKO00_1,,0,,Pacific/Auckland,,,0
14005377,5377,,Smith Avenue - Huntly,Huntly,-37.565142,175.147421,WKO00_3A,,0,,Pacific/Auckland,,,0
14005384,5384,,36 Rata St (Proposed),Taupo,-38.6203180897446,176.105065509455,WKO00_9C,,0,,Pacific/Auckland,,,0
14005389,5389,,266 Balmoral Dr,Tokoroa,-38.233303,175.855426,WKO00_6C,,0,,Pacific/Auckland,,,0
14005394,5394,,131 Papanui St (hail2ride),Tokoroa,-38.224615,175.865126,WKO00_6C,,0,,Pacific/Auckland,,,0
14005397,5397,,2 Mark Ball Dr (hail2ride),Pokeno,-37.23921,175.010834,WKO00_6A,,0,,Pacific/Auckland,,,0
14005451,5451,,57 Pelorus St,Hamilton City,-37.8237118855751,175.296724924034,WKO00_1,,0,,Pacific/Auckland,,,0
14005452,5452,,263 Te Rapa Rd (outside BJs Motor Inn),Hamilton City,-37.76681111,175.2576111,WKO00_1,,0,,Pacific/Auckland,,,0
14005456,5456,,SH 23 (opp Maori Point Rd) (hail2ride),,-37.80095,175.148054,WKO00_2E,,0,,Pacific/Auckland,,,0
14005459,5459,,56 Naylor St,Hamilton City,-37.79858,175.300723,WKO00_1,,0,,Pacific/Auckland,,,0
14005460,5460,,52 Heuheu St (outside BP),Taupo,-38.68817,176.07257,WKO00_9C,,0,,Pacific/Auckland,,,0
14005462,5462,,Waikaretu Rd (Proposed),,-37.389905541714,174.72875062593,WKO00_5A,,0,,Pacific/Auckland,,,0
14005472,5472,,116 Hakanoa St,Huntly,-37.544524,175.159465,WKO00_3A,,0,,Pacific/Auckland,,,0
14005482,5482,,150 Tuhikaramea Rd,Hamilton City,-37.803119,175.244177,WKO00_1,,0,,Pacific/Auckland,,,0
14005485,5485,,104 Tuhikaramea Rd,Hamilton City,-37.80074167,175.2465083,WKO00_1,,0,,Pacific/Auckland,,,0
14005493,5493,,528 Grey St,Hamilton City,-37.78905,175.2918833,WKO00_1,,0,,Pacific/Auckland,,,0
14005496,5496,,36 Wallis St (near Raglan Bowling Club),Raglan,-37.797898,174.871739,WKO00_4E,,0,,Pacific/Auckland,,,0
14005559,5559,,747 Victoria St (outside Les Mills),Hamilton City,-37.782418,175.278471,WKO00_CBD,,0,,Pacific/Auckland,,,0
14005570,5570,,58 Mark Ball Dr (hail2ride),Pokeno,-37.232952,175.012817,WKO00_6A,,0,,Pacific/Auckland,,,0
14005580,5580,,116 Grandview Rd,Hamilton City,-37.78045,175.236928,WKO00_1,,0,,Pacific/Auckland,,,0
14005586,5586,,129 Cumberland Dr,Hamilton City,-37.724669,175.241418,WKO00_1,,0,,Pacific/Auckland,,,0
14005587,5587,,2 Hamilton Rd (near Vogel St) (hail2ride),Cambridge,-37.889683,175.457123,WKO00_3C,,0,,Pacific/Auckland,,,0
14005591,5591,,205 Silverdale Rd (Uni Gate 3B),Hamilton City,-37.78299,175.31998,WKO00_1,,0,,Pacific/Auckland,,,0
14005597,5597,,43 Chesham Ave,Taupo,-38.711044,176.09722,WKO00_9C,,0,,Pacific/Auckland,,,0
14005599,5599,,454 Kahikatea Dr,Hamilton City,-37.803945,175.244133,WKO00_1,,0,,Pacific/Auckland,,,0
14005603,5603,,4 Deanwell Ave,Hamilton City,-37.82339167,175.2772028,WKO00_1,,0,,Pacific/Auckland,,,0
14005604,5604,,1125 River Rd,Hamilton City,-37.74295,175.256665,WKO00_1,,0,,Pacific/Auckland,,,0
14005609,5609,,194 Thomas Rd,Hamilton City,-37.730266,175.26986,WKO00_1,,0,,Pacific/Auckland,,,0
14005613,5613,,45 Western Heights Dr,Hamilton City,-37.787595,175.231099,WKO00_1,,0,,Pacific/Auckland,,,0
14005618,5618,,Opp 40 Newcastle Rd,Hamilton City,-37.79448,175.234363,WKO00_1,,0,,Pacific/Auckland,,,0
14005622,5622,,487 Anglesea St,Hamilton City,-37.783017020108,175.27557704135,WKO00_CBD,,0,,Pacific/Auckland,,,0
14005630,5630,,47 Clyde St (outside Marian Catholic School),Hamilton City,-37.791218,175.294216,WKO00_1,,0,,Pacific/Auckland,,,0
14005640,5640,,Opp 3293 Ohaupo Rd (Rukahia) (hail2ride),,-37.851826,175.305832,WKO00_1,,0,,Pacific/Auckland,,,0
14005642,5642,,Tainui Bridge Rd (near Riverview Rd),Huntly,-37.565856,175.151561,WKO00_3A,,0,,Pacific/Auckland,,,0
14005644,5644,,183 George St (hail2ride),Tuakau,-37.2724494034026,174.944980621631,WKO00_6A,,0,,Pacific/Auckland,,,0
14005645,5645,,131 Baverstock Rd,Hamilton City,-37.7736880399531,175.225871014436,WKO00_1,,0,,Pacific/Auckland,,,0
14005659,5659,,27 Bledisloe Tce,Hamilton City,-37.801244,175.291985,WKO00_1,,0,,Pacific/Auckland,,,0
14005664,5664,,SH 23 (near Okete Rd) (hail2ride),,-37.821906,174.903676,WKO00_4E,,0,,Pacific/Auckland,,,0
14005666,5666,,407 Kahikatea Dr,Hamilton City,-37.802584,175.248534,WKO00_1,,0,,Pacific/Auckland,,,0
14005669,5669,,84 Comries Rd,Hamilton City,-37.753065,175.274383,WKO00_1,,0,,Pacific/Auckland,,,0
14005681,5681,,70 Claude St,Hamilton City,-37.771872,175.291455,WKO00_1,,0,,Pacific/Auckland,,,0
14005695,5695,,23 Moonlight Dr,Hamilton City,-37.7246608784793,175.270841705523,WKO00_1,,0,,Pacific/Auckland,,,0
14005699,5699,,85A Mardon Rd,Hamilton City,-37.7659,175.295882,WKO00_1,,0,,Pacific/Auckland,,,0
14005704,5704,,123 Mardon Rd,Hamilton City,-37.765232,175.298304,WKO00_1,,0,,Pacific/Auckland,,,0
14005706,5706,,108 Tararu Rd (Early Childhood Centre),Thames,-37.129494,175.534433,WKO00_6B,,0,,Pacific/Auckland,,,0
14005707,5707,,4 Splitt Ave,Hamilton City,-37.81812222,175.2932806,WKO00_1,,0,,Pacific/Auckland,,,0
14005709,5709,,80 Grandview Rd,Hamilton City,-37.778903,175.239496,WKO00_1,,0,,Pacific/Auckland,,,0
14005711,5711,,SH 23 (near Old Mountain Rd) (hail2ride),,-37.838368,175.022865,WKO00_3E,,0,,Pacific/Auckland,,,0
14005715,5715,,194 Pukete Rd,Hamilton City,-37.738016,175.238286,WKO00_1,,0,,Pacific/Auckland,,,0
14005722,5722,,116 Harvey Cres (hail2ride),Thames,-37.142767,175.55482,WKO00_6B,,0,,Pacific/Auckland,,,0
14005723,5723,,524 Tararu Rd (hail2ride),Thames,-37.119778,175.528367,WKO00_6B,,0,,Pacific/Auckland,,,0
14005726,5726,,Taylor St (Cambridge High),Cambridge,-37.880464,175.469072,WKO00_3C,,0,,Pacific/Auckland,,,0
14005738,5738,,53 Maui St,Hamilton City,-37.736806,175.224963,WKO00_1,,0,,Pacific/Auckland,,,0
14005743,5743,,134 Maeroa Rd (opp Radius Kensington rest home),Hamilton City,-37.775593,175.259005,WKO00_1,,0,,Pacific/Auckland,,,0
14005748,5748,,8 St Stephens Ave,Tuakau,-37.258828824806,174.94748836385,WKO00_6A,,0,,Pacific/Auckland,,,0
14005751,5751,,Lichfield Bus Station (hail2ride),,-38.1092867664688,175.820665555329,WKO00_5C,,0,,Pacific/Auckland,,,0
14005752,5752,,Avantidrome Southbound (St. Peters School Rd),Cambridge,-37.88902778,175.4329917,WKO00_2C,,0,,Pacific/Auckland,,,0
14005753,5753,,8 Vercoe Rd,Hamilton City,-37.766462,175.25928,WKO00_1,,0,,Pacific/Auckland,,,0
14005756,5756,,38 Brookfield St,Hamilton City,-37.801433,175.298067,WKO00_1,,0,,Pacific/Auckland,,,0
14005765,5765,,61 Ulster St (near Briscoes),Hamilton City,-37.77907222,175.2745222,WKO00_CBD,,0,,Pacific/Auckland,,,0
14005775,5775,,Opp Kohanaga Rd (Proposed),,-37.314705904395,174.84644650941,WKO00_5A,,0,,Pacific/Auckland,,,0
14005776,5776,,Hamilton Gardens,Hamilton City,-37.80623889,175.3043139,WKO00_1,http://www.hamiltongardens.co.nz,0,,Pacific/Auckland,,,0
14005779,5779,,Opp 53 Mardon Rd (Enderley Park),Hamilton City,-37.766498,175.294032,WKO00_1,,0,,Pacific/Auckland,,,0
14005784,5784,,7 Mahoe St,Hamilton City,-37.81066944,175.2801333,WKO00_1,,0,,Pacific/Auckland,,,0
14005788,5788,,35 Grandview Rd,Hamilton City,-37.777105,175.242703,WKO00_1,,0,,Pacific/Auckland,,,0
14005792,5792,,Lyon St (hail2ride),Te Awamutu,-38.039796542078,175.3454544595,WKO00_3D,,0,,Pacific/Auckland,,,0
14005793,5793,,27 Grange Ave,Hamilton City,-37.77739,175.2356,WKO00_1,,0,,Pacific/Auckland,,,0
14005800,5800,,Opp 14 Borman Rd (Opp North City Rd),Hamilton City,-37.723033,175.258751,WKO00_1,,0,,Pacific/Auckland,,,0
14005803,5803,,25 Morrinsville Rd,Hamilton City,-37.800112,175.324851,WKO00_1,,0,,Pacific/Auckland,,,0
14005804,5804,,154 Totara Dr,Hamilton City,-37.738861,175.243973,WKO00_1,,0,,Pacific/Auckland,,,0
14005811,5811,,Rukuhia School,,-37.853898,175.299546,WKO00_1,,0,,Pacific/Auckland,,,0
14005817,5817,,470 Great South Rd (Huntly),Huntly,-37.575173,175.159518,WKO00_3A,,0,,Pacific/Auckland,,,0
14005825,5825,,189 Clarkin Rd,Hamilton City,-37.76455278,175.2805694,WKO00_1,,0,,Pacific/Auckland,,,0
14005828,5828,,22 Rotokauri Rd,Hamilton City,-37.769137,175.23696,WKO00_1,,0,,Pacific/Auckland,,,0
14005829,5829,,256 Maeroa Rd,Hamilton City,-37.782131,175.258189,WKO00_1,,0,,Pacific/Auckland,,,0
14005830,5830,,SH 23 (near Otonga Valley Rd) (hail2ride),,-37.832624,175.026184,WKO00_3E,,0,,Pacific/Auckland,,,0
14005838,5838,,448 Ulster St,Hamilton City,-37.770725,175.2632139,WKO00_1,,0,,Pacific/Auckland,,,0
14005843,5843,,36 McKay Dr,Hamilton City,-37.818643,175.220069,WKO00_1,,0,,Pacific/Auckland,,,0
14005845,5845,,6243 Great South Rd,Hamilton City,-37.703051,175.201827,WKO00_2A,,0,,Pacific/Auckland,,,0
14005852,5852,,100 Maui St (outside Prolife Foods Ltd),Hamilton City,-37.732571,175.222885,WKO00_1,,0,,Pacific/Auckland,,,0
14005868,5868,,Matangi (Proposed),,-37.8038807151647,175.395925494641,WKO00_2C,,0,,Pacific/Auckland,,,0
14005882,5882,,43 Lewis St,Hamilton City,-37.81905833,175.291325,WKO00_1,,0,,Pacific/Auckland,,,0
14005884,5884,,SH 26 (near Norfolk Rd) (hail2ride),,-37.691353,175.469998,WKO00_3B,,0,,Pacific/Auckland,,,0
14005886,5886,,37 Vardon Rd,Hamilton City,-37.762473,175.256026,WKO00_1,,0,,Pacific/Auckland,,,0
14005888,5888,,180 Ward St (Girls High),Hamilton City,-37.789041,175.276409,WKO00_CBD,,0,,Pacific/Auckland,,,0
14005896,5896,,248 Hukanui Rd (near Hukanui Primary School),Hamilton City,-37.74803056,175.27745,WKO00_1,,0,,Pacific/Auckland,,,0
14005907,5907,,54 Killarney Rd,Hamilton City,-37.79474722,175.2639833,WKO00_1,,0,,Pacific/Auckland,,,0
14005909,5909,,Te Puea Ave (Meremere Southbound) (hail2ride),,-37.321309,175.068586,WKO00_5A,,0,,Pacific/Auckland,,,0
14005913,5913,,11 Acacia Cr,Hamilton City,-37.83065278,175.2923972,WKO00_1,,0,,Pacific/Auckland,,,0
14005914,5914,,5 St Stephens Ave,Tuakau,-37.2587890062489,174.947588811462,WKO00_6A,,0,,Pacific/Auckland,,,0
14005915,5915,,98 Naylor St,Hamilton City,-37.797383,175.305975,WKO00_1,,0,,Pacific/Auckland,,,0
14005920,5920,,Opp 194 Great South Rd (Ngaruawahia),,-37.677398,175.162146,WKO00_2A,,0,,Pacific/Auckland,,,0
14005933,5933,,3 Willis St,Hamilton City,-37.81096,175.288148,WKO00_1,,0,,Pacific/Auckland,,,0
14005944,5944,,105 Great South Rd (Ohaupo),,-37.917748,175.306688,WKO00_2D,,0,,Pacific/Auckland,,,0
14005949,5949,,22 Saxbys Rd,Hamilton City,-37.822524137246,175.2817700751,WKO00_1,,0,,Pacific/Auckland,,,0
14005954,5954,,53 Mahoe St,Hamilton City,-37.81207,175.278065,WKO00_1,,0,,Pacific/Auckland,,,0
14005963,5963,,200 Peachgrove Rd,Hamilton City,-37.774976,175.296799,WKO00_1,,0,,Pacific/Auckland,,,0
14005969,5969,,188 Pembroke St,Hamilton City,-37.803077,175.280922,WKO00_CBD,,0,,Pacific/Auckland,,,0
14005980,5980,,125 Pembroke St,Hamilton City,-37.802503,175.281004,WKO00_CBD,,0,,Pacific/Auckland,,,0
14005981,5981,,10 Petersburg Dr,Hamilton City,-37.727415,175.239106,WKO00_1,,0,,Pacific/Auckland,,,0
14005983,5983,,67 Hyde Ave (Nawton Mall),Hamilton City,-37.78134167,175.2366278,WKO00_1,,0,,Pacific/Auckland,,,0
14005991,5991,,253 Tramway Rd,Hamilton City,-37.759597,175.296583,WKO00_1,,0,,Pacific/Auckland,,,0
14005992,5992,,1174 River Rd (opp Alandale Retirement Village) ,Hamilton City,-37.737129,175.250867,WKO00_1,,0,,Pacific/Auckland,,,0
14005994,5994,,69 Wellington St,Hamilton City,-37.79308,175.304155,WKO00_1,,0,,Pacific/Auckland,,,0
14005995,5995,,162 Old Farm Rd,Hamilton City,-37.782923,175.309528,WKO00_1,,0,,Pacific/Auckland,,,0
14005997,5997,,38 Peachgrove Rd (opp HBHS),Hamilton City,-37.78763056,175.2986722,WKO00_1,,0,,Pacific/Auckland,,,0
14006000,6000,,River Rd (opp Kay Rd) (hail2ride),,-37.719919,175.22778,WKO00_1,,0,,Pacific/Auckland,,,0
14006004,6004,,77 Comries Rd,Hamilton City,-37.753119,175.273698,WKO00_1,,0,,Pacific/Auckland,,,0
14006011,6011,,171 Victoria St,Hamilton City,-37.789295,175.284796,WKO00_CBD,,0,,Pacific/Auckland,,,0
14006020,6020,,SH 23 (opp Cogswell Rd) (hail2ride),,-37.830998,175.042751,WKO00_3E,,0,,Pacific/Auckland,,,0
14006022,6022,,99 London St,Hamilton City,-37.78427778,175.2775639,WKO00_CBD,,0,,Pacific/Auckland,,,0
14006032,6032,,River Rd (near Kay Rd) (hail2ride),,-37.719788,175.227705,WKO00_1,,0,,Pacific/Auckland,,,0
14006033,6033,,Whatawhata Rd (Liquorland),Hamilton City,-37.796837,175.239371,WKO00_1,,0,,Pacific/Auckland,,,0
14006034,6034,,199 Tuhikaramea Rd,Hamilton City,-37.80543056,175.24175,WKO00_1,,0,,Pacific/Auckland,,,0
14006037,6037,,1 Puriri St,Taupo,-38.696292,176.092451,WKO00_9C,,0,,Pacific/Auckland,,,0
14006046,6046,,19 Powells Rd,Hamilton City,-37.765775,175.3020389,WKO00_1,,0,,Pacific/Auckland,,,0
14006053,6053,,33 Knighton Rd,Hamilton City,-37.794207,175.310957,WKO00_1,,0,,Pacific/Auckland,,,0
14006062,6062,,SH 1 Horotiu (opp AFFCO),,-37.695553,175.192273,WKO00_2A,,0,,Pacific/Auckland,,,0
14006064,6064,,123 Grey St,Hamilton City,-37.799144,175.296114,WKO00_1,,0,,Pacific/Auckland,,,0
14006068,6068,,28 Hawick St (hail2ride),Tokoroa,-38.231616,175.867119,WKO00_6C,,0,,Pacific/Auckland,,,0
14006071,6071,,141 Clarkin Rd,Hamilton City,-37.765279,175.277445,WKO00_1,,0,,Pacific/Auckland,,,0
14006072,6072,,3293 Ohaupo Rd (Rukuhia) (hail2ride),,-37.852022,175.306015,WKO00_1,,0,,Pacific/Auckland,,,0
14006077,6077,,Cambridge Rd (opp Oderings Garden Centre) (hail2ride),Cambridge,-37.885937,175.429795,WKO00_2C,,0,,Pacific/Auckland,,,0
14006081,6081,,Kihikihi Rd (opp Bridgman Rd) (hail2ride),Te Awamutu,-38.020236792912,175.32585762247,WKO00_3D,,0,,Pacific/Auckland,,,0
14006092,6092,,106 Masters Ave,Hamilton City,-37.794525,175.3232972,WKO00_1,,0,,Pacific/Auckland,,,0
14006096,6096,,15 Morris Rd,Hamilton City,-37.797604,175.325929,WKO00_1,,0,,Pacific/Auckland,,,0
14006097,6097,,Opp Russell Rd (Proposed),Huntly,-37.53762198672,175.16634899689,WKO00_3A,,0,,Pacific/Auckland,,,0
14006105,6105,,2618 SH 26 (near Avenue Rd S) (hail2ride),Morrinsville,-37.661937,175.51719,WKO00_3B,,0,,Pacific/Auckland,,,0
14006112,6112,,SH 23 (opp Okete Rd) (hail2ride),,-37.821096,174.902682,WKO00_4E,,0,,Pacific/Auckland,,,0
14006117,6117,,27 Brookfield St,Hamilton City,-37.801569,175.297187,WKO00_1,,0,,Pacific/Auckland,,,0
14006127,6127,,85 Shakespeare St (near Wordsworth St),Cambridge,-37.902891,175.476874,WKO00_3C,,0,,Pacific/Auckland,,,0
14006128,6128,,Docherty Dr (Proposed),Taupo,-38.6841012453821,176.051596411874,WKO00_9C,,0,,Pacific/Auckland,,,0
14006130,6130,,112 Grafton Rd (hail2ride),Thames,-37.150776,175.559336,WKO00_6B,,0,,Pacific/Auckland,,,0
14006131,6131,,1154 Heaphy Tce,Hamilton City,-37.765382,175.279597,WKO00_1,,0,,Pacific/Auckland,,,0
14006133,6133,,65A Claude St,Hamilton City,-37.77190556,175.2910806,WKO00_1,,0,,Pacific/Auckland,,,0
14006136,6136,,424 Ulster St (near Labour Office),Hamilton City,-37.77181667,175.2636028,WKO00_1,,0,,Pacific/Auckland,,,0
14006138,6138,,22 Lake Rd (Mangakino),,-38.36493056,175.7750333,WKO00_7C,,0,,Pacific/Auckland,,,0
14006147,6147,,15 Maui St ,Hamilton City,-37.740308,175.227569,WKO00_1,,0,,Pacific/Auckland,,,0
14006149,6149,,Thames Paknsave (hail2ride),Thames,-37.138819,175.53936,WKO00_6B,,0,,Pacific/Auckland,,,0
14006154,6154,,17 Endeavour Ave,Hamilton City,-37.737899,175.256441,WKO00_1,,0,,Pacific/Auckland,,,0
14006157,6157,,Kiddle Dr (opp Birch St),Taupo,-38.70192778,176.0977083,WKO00_9C,,0,,Pacific/Auckland,,,0
14006160,6160,,57 Rifle Range Rd (near Swarbrick Park),Hamilton City,-37.789501,175.250129,WKO00_1,,0,,Pacific/Auckland,,,0
14006164,6164,,53 Urlich Ave,Hamilton City,-37.814585,175.285078,WKO00_1,,0,,Pacific/Auckland,,,0
14006174,6174,,206 Victoria St,Hamilton City,-37.78888056,175.2846528,WKO00_CBD,,0,,Pacific/Auckland,,,0
14006181,6181,,SH 23 (Te Uku shops) (hail2ride),,-37.828996,174.957084,WKO00_3E,,0,,Pacific/Auckland,,,0
14006182,6182,,209 Anglesea St,Hamilton City,-37.79034,175.28219,WKO00_CBD,,0,,Pacific/Auckland,,,0
14006191,6191,,Opp 228 Thomas Rd (Grosvenor Park),Hamilton City,-37.730926,175.265229,WKO00_1,,0,,Pacific/Auckland,,,0
14006200,6200,,97 Maui St,Hamilton City,-37.732845,175.222885,WKO00_1,,0,,Pacific/Auckland,,,0
14006201,6201,,7 Kent St (hail2ride),Tokoroa,-38.226907,175.856932,WKO00_6C,,0,,Pacific/Auckland,,,0
14006206,6206,,42 Newcastle Rd,Hamilton City,-37.794299,175.234465,WKO00_1,,0,,Pacific/Auckland,,,0
14006211,6211,,7 Vesty Ave,Hamilton City,-37.791192,175.320647,WKO00_1,,0,,Pacific/Auckland,,,0
14006221,6221,,Opp 842 River Rd,Hamilton City,-37.75524,175.267079,WKO00_1,,0,,Pacific/Auckland,,,0
14006224,6224,,124 Totara Dr,Hamilton City,-37.740196,175.246052,WKO00_1,,0,,Pacific/Auckland,,,0
14006231,6231,,Opp 303 Fergusson Dr (hail2ride),Thames,-37.127431,175.530336,WKO00_6B,,0,,Pacific/Auckland,,,0
14006233,6233,,14 Borman Rd (before North City Rd),Hamilton City,-37.7229,175.258715,WKO00_1,,0,,Pacific/Auckland,,,0
14006254,6254,,49A Wallis St,Raglan,-37.796419,174.875697,WKO00_4E,,0,,Pacific/Auckland,,,0
14006256,6256,,98 Crosby Rd (near Porritt Stadium),Hamilton City,-37.753846,175.291195,WKO00_1,,0,,Pacific/Auckland,,,0
14006257,6257,,109 Rotokauri Rd,Hamilton City,-37.768254,175.230478,WKO00_1,,0,,Pacific/Auckland,,,0
14006260,6260,,20 Wall St,Hamilton City,-37.775477,175.241799,WKO00_1,,0,,Pacific/Auckland,,,0
14006261,6261,,2 Claude St,Hamilton City,-37.773389,175.284898,WKO00_1,,0,,Pacific/Auckland,,,0
14006264,6264,,Semple St - Huntly,Huntly,-37.562785,175.149814,WKO00_3A,,0,,Pacific/Auckland,,,0
14006267,6267,,46 Forest Lake Rd,Hamilton City,-37.772188,175.258886,WKO00_1,,0,,Pacific/Auckland,,,0
14006273,6273,,Devine Rd (Tamahere),Hamilton Surrounds,-37.828188,175.356686,WKO00_1,,0,,Pacific/Auckland,,,0
14006274,6274,,92 Hyde Ave,Taupo,-38.71603056,176.0982417,WKO00_9C,,0,,Pacific/Auckland,,,0
14006280,6280,,Main Rd (Hills Rd),,-37.806064,174.887552,WKO00_4E,,0,,Pacific/Auckland,,,0
14006285,6285,,89 Massey St,Hamilton City,-37.79016389,175.2573222,WKO00_1,,0,,Pacific/Auckland,,,0
14006289,6289,,14 Strathmore Dr (hail2ride),Tokoroa,-38.232757,175.869948,WKO00_6C,,0,,Pacific/Auckland,,,0
14006293,6293,,35 Naylor St,Hamilton City,-37.798928,175.298645,WKO00_1,,0,,Pacific/Auckland,,,0
14006299,6299,,154 Rifle Range Rd,Taupo,-38.68633,176.09031,WKO00_9C,,0,,Pacific/Auckland,,,0
14006309,6309,,83 Farnborough Dr,Hamilton City,-37.778481,175.222555,WKO00_1,,0,,Pacific/Auckland,,,0
14006310,6310,,Ohaupo Rd (near Douch Rd) (hail2ride),,-37.902359,175.315571,WKO00_2D,,0,,Pacific/Auckland,,,0
14006320,6320,,Opp 373 Hukanui Rd,Hamilton City,-37.739174,175.273891,WKO00_1,,0,,Pacific/Auckland,,,0
14006321,6321,,37 Maui St,Hamilton City,-37.738172,175.226069,WKO00_1,,0,,Pacific/Auckland,,,0
14006335,6335,,48 Waimarie St,Hamilton City,-37.780441,175.241503,WKO00_1,,0,,Pacific/Auckland,,,0
14006336,6336,,Opp 50 Church Rd (Ashurst Park),Hamilton City,-37.740131,175.231919,WKO00_1,,0,,Pacific/Auckland,,,0
14006342,6342,,3 Nikau St (Wairakei Village),Taupo,-38.618775,176.1052278,WKO00_9C,,0,,Pacific/Auckland,,,0
14006343,6343,,15 MacDonald Rd,Hamilton City,-37.82199722,175.2839167,WKO00_1,,0,,Pacific/Auckland,,,0
14006347,6347,,Opp 38 Wellington St (Steele Park),Hamilton City,-37.794997,175.295894,WKO00_1,,0,,Pacific/Auckland,,,0
14006350,6350,,117 Heuheu St,Taupo,-38.68920833,176.0764611,WKO00_9C,,0,,Pacific/Auckland,,,0
14006357,6357,,122 Bryant Rd,Hamilton City,-37.753675,175.2529278,WKO00_1,,0,,Pacific/Auckland,,,0
14006359,6359,,17 Sandwich Rd,Hamilton City,-37.756077,175.258672,WKO00_1,,0,,Pacific/Auckland,,,0
14006363,6363,,55 Rifle Range Rd,Taupo,-38.69129167,176.0801806,WKO00_9C,,0,,Pacific/Auckland,,,0
14006366,6366,,175 Seddon Rd,Hamilton City,-37.780339,175.262745,WKO00_1,,0,,Pacific/Auckland,,,0
14006377,6377,,Cambridge Rd (near Kelly Rd) (hail2ride),Cambridge,-37.889514,175.452123,WKO00_3C,,0,,Pacific/Auckland,,,0
14006385,6385,,14 Barrington Dr,Hamilton City,-37.730808,175.285658,WKO00_1,,0,,Pacific/Auckland,,,0
14006388,6388,,3 Rata Street (Waiarakei Village),Taupo,-38.61936111,176.1019278,WKO00_9C,,0,,Pacific/Auckland,,,0
14006397,6397,,128 Dinsdale Rd,Hamilton City,-37.793215,175.239508,WKO00_1,,0,,Pacific/Auckland,,,0
14006402,6402,,875 Heaphy Tce,Hamilton City,-37.77728889,175.2861472,WKO00_1,,0,,Pacific/Auckland,,,0
14006404,6404,,14 Bader St,Hamilton City,-37.808345,175.288238,WKO00_1,,0,,Pacific/Auckland,,,0
14006405,6405,,Opp 28 Foreman Rd,Hamilton City,-37.759496,175.236103,WKO00_1,,0,,Pacific/Auckland,,,0
14006414,6414,,Opp 91 Discovery Dr (Discovery Park),Hamilton City,-37.728815,175.252481,WKO00_1,,0,,Pacific/Auckland,,,0
14006424,6424,,97 Queens Ave,Hamilton City,-37.794184,175.267507,WKO00_1,,0,,Pacific/Auckland,,,0
14006427,6427,,6 Lethborg St,Hamilton City,-37.80096,175.251386,WKO00_1,,0,,Pacific/Auckland,,,0
14006432,6432,,22 Hillpark Dr (hail2ride),Pokeno,-37.2417077447721,175.014640252066,WKO00_6A,,0,,Pacific/Auckland,,,0
14006435,6435,,35 Waterford Rd (opp Fitzroy Ave),Hamilton City,-37.814648,175.301126,WKO00_1,,0,,Pacific/Auckland,,,0
14006438,6438,,78 Rotokauri Rd,Hamilton City,-37.76893889,175.2321778,WKO00_1,,0,,Pacific/Auckland,,,0
14006439,6439,,187 Knighton Rd,Hamilton City,-37.782736,175.31503,WKO00_1,,0,,Pacific/Auckland,,,0
14006440,6440,,56 Rotokauri Rd,Hamilton City,-37.76866,175.234048,WKO00_1,,0,,Pacific/Auckland,,,0
14006450,6450,,32 Moonlight Dr,Hamilton City,-37.724512,175.270667,WKO00_1,,0,,Pacific/Auckland,,,0
14006459,6459,,75 Pembroke St,Hamilton City,-37.79871667,175.2812,WKO00_CBD,,0,,Pacific/Auckland,,,0
14006460,6460,,42 Fergusson St (hail2ride),Tokoroa,-38.226643,175.85341,WKO00_6C,,0,,Pacific/Auckland,,,0
14006461,6461,,Roberts St (opp Fletcher St),Taupo,-38.691541,176.077878,WKO00_9C,,0,,Pacific/Auckland,,,0
14006466,6466,,Te Huia Dr (opp Amberley Pl),Hamilton City,-37.73057778,175.2407694,WKO00_1,,0,,Pacific/Auckland,,,0
14006472,6472,,Mangakino Town Centre (near 56 Rangatira Dr),,-38.370072,175.77429,WKO00_7C,,0,,Pacific/Auckland,,,0
14006475,6475,,Opp 32 Hukanui Rd,Hamilton City,-37.760937,175.286086,WKO00_1,,0,,Pacific/Auckland,,,0
14006476,6476,,12 Anzac Parade (outside Police Station),Hamilton City,-37.792714,175.287541,WKO00_CBD,,0,,Pacific/Auckland,,,0
14006478,6478,,38 Vardon Rd,Hamilton City,-37.76222222,175.2564833,WKO00_1,,0,,Pacific/Auckland,,,0
14006481,6481,,713 River Rd (near Waikato Diocesan School For Girls),Hamilton City,-37.762034,175.267628,WKO00_1,,0,,Pacific/Auckland,,,0
14006485,6485,,56 ST. James St,Taupo,-38.71561944,176.096325,WKO00_9C,,0,,Pacific/Auckland,,,0
14006487,6487,,Cnr Mt View Rd and Cora Place (hail2ride),Thames,-37.148293,175.559074,WKO00_6B,,0,,Pacific/Auckland,,,0
14006493,6493,,Great South Rd (Pokeno Northbound) (hail2ride),Pokeno,-37.245559,175.021485,WKO00_6A,,0,,Pacific/Auckland,,,0
14006504,6504,,84 Amanda Ave,Hamilton City,-37.801519,175.238299,WKO00_1,,0,,Pacific/Auckland,,,0
14006506,6506,,33A Lethborg St,Hamilton City,-37.802437,175.250507,WKO00_1,,0,,Pacific/Auckland,,,0
14006509,6509,,44 Higgins Rd,Hamilton City,-37.798795,175.257065,WKO00_1,,0,,Pacific/Auckland,,,0
14006511,6511,,28 Caernarvon St,Hamilton City,-37.794717,175.238891,WKO00_1,,0,,Pacific/Auckland,,,0
14006520,6520,,406 Brown St (hail2ride),Thames,-37.134431,175.537276,WKO00_6B,,0,,Pacific/Auckland,,,0
14006521,6521,,36 Bader St,Hamilton City,-37.808325,175.290217,WKO00_1,,0,,Pacific/Auckland,,,0
14006524,6524,,110 Brookfield St,Hamilton City,-37.799673,175.305749,WKO00_1,,0,,Pacific/Auckland,,,0
14006525,6525,,669 River Rd (Dio),Hamilton City,-37.764202,175.267355,WKO00_1,,0,,Pacific/Auckland,,,0
14006529,6529,,80 Te Huia Dr,Hamilton City,-37.73058,175.240508,WKO00_1,,0,,Pacific/Auckland,,,0
14006531,6531,,222 Baverstock,Hamilton City,-37.775994,175.221072,WKO00_1,,0,,Pacific/Auckland,,,0
14006532,6532,,259 Clarkin Rd (Fairfield Intermediate School),Hamilton City,-37.763636,175.284605,WKO00_1,,0,,Pacific/Auckland,,,0
14006541,6541,,3 Aberdeen Dr,Hamilton City,-37.790336,175.249186,WKO00_1,,0,,Pacific/Auckland,,,0
14006545,6545,,5 Angus St,Hamilton City,-37.783213,175.225251,WKO00_1,,0,,Pacific/Auckland,,,0
14006549,6549,,82 Fox St,Hamilton City,-37.797964,175.306735,WKO00_1,,0,,Pacific/Auckland,,,0
14006552,6552,,14 Brymer Rd,Hamilton City,-37.78427,175.22888,WKO00_1,,0,,Pacific/Auckland,,,0
14006562,6562,,2 Chedworth Ave,Hamilton City,-37.752595,175.281903,WKO00_1,,0,,Pacific/Auckland,,,0
14006563,6563,,34 Naylor St,Hamilton City,-37.799169,175.298172,WKO00_1,,0,,Pacific/Auckland,,,0
14006567,6567,,32 Wentworth Dr,Hamilton City,-37.729725,175.260798,WKO00_1,,0,,Pacific/Auckland,,,0
14006573,6573,,44 Carrington Ave,Hamilton City,-37.792059,175.321856,WKO00_1,,0,,Pacific/Auckland,,,0
14006576,6576,,118 Heuheu St (Institute of Technology),Taupo,-38.68908889,176.0768889,WKO00_9C,,0,,Pacific/Auckland,,,0
14006593,6593,,76 Bruce Ave (Glenview Primary School),Hamilton City,-37.815577,175.291146,WKO00_1,,0,,Pacific/Auckland,,,0
14006604,6604,,23 Bader St (Shops),Hamilton City,-37.808256,175.288025,WKO00_1,,0,,Pacific/Auckland,,,0
14006607,6607,,3 Fitzroy Ave,Hamilton City,-37.814833,175.300559,WKO00_1,,0,,Pacific/Auckland,,,0
14006610,6610,,203 Fergusson Dr (hail2ride),Thames,-37.12672,175.531279,WKO00_6B,,0,,Pacific/Auckland,,,0
14006611,6611,,Cambridge Rd (near Peake Rd) (hail2ride),Cambridge,-37.888206,175.438455,WKO00_3C,,0,,Pacific/Auckland,,,0
14006617,6617,,3 Williams St,Huntly,-37.561427,175.161586,WKO00_3A,,0,,Pacific/Auckland,,,0
14006621,6621,,Te Korowai Health (hail2ride),Thames,-37.141509,175.544712,WKO00_6B,,0,,Pacific/Auckland,,,0
14006624,6624,,23 Matai St,Hamilton City,-37.777845,175.256317,WKO00_1,,0,,Pacific/Auckland,,,0
14006626,6626,,199 Peachgrove Rd (opp Southwell School),Hamilton City,-37.775128,175.296965,WKO00_1,,0,,Pacific/Auckland,,,0
14006631,6631,,400 Te Rapa Rd (outside Metro Motors),Hamilton City,-37.76398889,175.252525,WKO00_1,,0,,Pacific/Auckland,,,0
14006643,6643,,5 Glenview Tce,Hamilton City,-37.81955556,175.2848028,WKO00_1,,0,,Pacific/Auckland,,,0
14006648,6648,,Silverdale Normal School (62 Silverdale Rd),Hamilton City,-37.793336,175.329234,WKO00_1,,0,,Pacific/Auckland,,,0
14006651,6651,,185 Thomas Rd (Villa's D'este),Hamilton City,-37.73056111,175.271325,WKO00_1,,0,,Pacific/Auckland,,,0
14006661,6661,,100 St. James Dr,Hamilton City,-37.737322,175.282829,WKO00_1,,0,,Pacific/Auckland,,,0
14006662,6662,,5 Matai St,Hamilton City,-37.778795,175.258436,WKO00_1,,0,,Pacific/Auckland,,,0
14006664,6664,,Cnr Sealey St and The Terrace (hail2ride),Thames,-37.137454,175.550417,WKO00_6B,,0,,Pacific/Auckland,,,0
14006665,6665,,Papakura Station,Papakura Train Station,-37.2034549709151,174.910548753158,,,0,,Pacific/Auckland,,,0
14006669,6669,,1050B River Rd,Hamilton City,-37.745718,175.260427,WKO00_1,,0,,Pacific/Auckland,,,0
14006671,6671,,51 Queens Ave,Hamilton City,-37.792111,175.268433,WKO00_1,,0,,Pacific/Auckland,,,0
14006677,6677,,164 Peachgrove Rd (Rail Crossing),Hamilton City,-37.77766,175.298857,WKO00_1,,0,,Pacific/Auckland,,,0
14006686,6686,,1291 SH 26 (near Eureka Rd),,-37.742779,175.425705,WKO00_2B,,0,,Pacific/Auckland,,,0
14006691,6691,,93 Maeroa Rd,Hamilton City,-37.773829,175.260489,WKO00_1,,0,,Pacific/Auckland,,,0
14006692,6692,,2 Radiata St,Hamilton City,-37.761016,175.300136,WKO00_1,,0,,Pacific/Auckland,,,0
14006693,6693,,196 Dinsdale Rd,Hamilton City,-37.792624,175.235344,WKO00_1,,0,,Pacific/Auckland,,,0
14006704,6704,,Alexandra St,Hamilton City,-37.789401,175.283161,WKO00_CBD,,0,,Pacific/Auckland,,,0
14006705,6705,,11 Norrie St,Hamilton City,-37.809605,175.296872,WKO00_1,,0,,Pacific/Auckland,,,0
14006716,6716,,SH 23 (near Maori Point Rd) (hail2ride),,-37.801115,175.147751,WKO00_2E,,0,,Pacific/Auckland,,,0
14006720,6720,,45 Matai St,Hamilton City,-37.776922,175.254249,WKO00_1,,0,,Pacific/Auckland,,,0
14006725,6725,,75 Fairview St,Hamilton City,-37.75975,175.298716,WKO00_1,,0,,Pacific/Auckland,,,0
14006741,6741,,70 Ulster St (outside BP Whitiora),Hamilton City,-37.77898889,175.2747917,WKO00_CBD,,0,,Pacific/Auckland,,,0
14006742,6742,,198 Te Rapa Rd,Hamilton City,-37.767575,175.2609056,WKO00_1,,0,,Pacific/Auckland,,,0
14006743,6743,,Norton Rd (Founders Theatre),Hamilton City,-37.785539,175.273698,WKO00_CBD,,0,,Pacific/Auckland,,,0
14006745,6745,,Papakura Station (Proposed),,-37.064682391599,174.9456785917,WKO00_7A,,0,,Pacific/Auckland,,,0
14006749,6749,,51 Glen Lynne Ave,Hamilton City,-37.746538,175.270626,WKO00_1,,0,,Pacific/Auckland,,,0
14006750,6750,,141 Beerescourt Rd,Hamilton City,-37.76050556,175.2601972,WKO00_1,,0,,Pacific/Auckland,,,0
14006759,6759,,52 Farnborough Dr,Hamilton City,-37.777843,175.225082,WKO00_1,,0,,Pacific/Auckland,,,0
14006762,6762,,172 Taharepa Rd,Taupo,-38.68956,176.09861,WKO00_9C,,0,,Pacific/Auckland,,,0
14006764,6764,,1010 Victoria St,Hamilton City,-37.77899722,175.2755694,WKO00_CBD,,0,,Pacific/Auckland,,,0
14006772,6772,,404 Kahikatea Dr,Hamilton City,-37.802422,175.248337,WKO00_1,,0,,Pacific/Auckland,,,0
14006774,6774,,34 Cambridge Rd,Hamilton City,-37.79762778,175.3103944,WKO00_1,,0,,Pacific/Auckland,,,0
14006777,6777,,Opp Maretai Rd (Proposed),Tokoroa,-38.2269259858591,175.874166116026,WKO00_6C,,0,,Pacific/Auckland,,,0
14006781,6781,,Opp 36 Huntington Dr,Hamilton City,-37.741609,175.279503,WKO00_1,,0,,Pacific/Auckland,,,0
14006783,6783,,147 Totara Dr,Hamilton City,-37.73901,175.24411,WKO00_1,,0,,Pacific/Auckland,,,0
14006786,6786,,30 Nevada Rd,Hamilton City,-37.788457,175.32955,WKO00_1,,0,,Pacific/Auckland,,,0
14006787,6787,,70 Fifth Ave,Hamilton City,-37.77010278,175.2986472,WKO00_1,,0,,Pacific/Auckland,,,0
14006788,6788,,73 Ayrshire Dr,Hamilton City,-37.781894,175.22169,WKO00_1,,0,,Pacific/Auckland,,,0
14006790,6790,,10 Callum Brae Dr,Hamilton City,-37.738663,175.272586,WKO00_1,,0,,Pacific/Auckland,,,0
14006793,6793,,Great South Rd (Hopuhopu)(opp Fox Rd),,-37.63541389,175.1734667,WKO00_3A,,0,,Pacific/Auckland,,,0
14006797,6797,,SH 23 (opp Otonga Valley Rd) (hail2ride),,-37.832917,175.026044,WKO00_3E,,0,,Pacific/Auckland,,,0
14006803,6803,,Kinloch Esplanade (Proposed),,-38.665235400354,175.922459169055,WKO00_9C,,0,,Pacific/Auckland,,,0
14006804,6804,,6 Thackeray St,Hamilton City,-37.792034,175.282271,WKO00_CBD,,0,,Pacific/Auckland,,,0
14006805,6805,,Anzac St (New World),Cambridge,-37.893438,175.472412,WKO00_3C,,0,,Pacific/Auckland,,,0
14006808,6808,,54 Breckons Ave,Hamilton City,-37.77392222,175.2351667,WKO00_1,,0,,Pacific/Auckland,,,0
14006809,6809,,Opp 403 Hukanui Rd,Hamilton City,-37.736477,175.273313,WKO00_1,,0,,Pacific/Auckland,,,0
14006816,6816,,Knox St (Resene Paints),Hamilton City,-37.791882,175.284327,WKO00_CBD,,0,,Pacific/Auckland,,,0
14006818,6818,,25 Farnborough Dr,Hamilton City,-37.776127,175.227415,WKO00_1,,0,,Pacific/Auckland,,,0
14006825,6825,,827 Heaphy Tce (near Claudelands),Hamilton City,-37.780119,175.287848,WKO00_1,,0,,Pacific/Auckland,,,0
14006828,6828,,27 Te Kowhai Rd (Wingers),Hamilton City,-37.744698,175.226897,WKO00_1,,0,,Pacific/Auckland,,,0
14006833,6833,,6 Roulston St (Pukekohe Shops),,-37.201397,174.905773,WKO00_6A,,0,,Pacific/Auckland,,,0
14006836,6836,,58 Anglesea St (near Countdown),Hamilton City,-37.794585,175.28643,WKO00_CBD,,0,,Pacific/Auckland,,,0
14006842,6842,,Russell Rd (hail2ride),Huntly,-37.537767,175.166265,WKO00_3A,,0,,Pacific/Auckland,,,0
14006843,6843,,Opp 825 Heaphy Tce,Hamilton City,-37.78024167,175.2880361,WKO00_1,,0,,Pacific/Auckland,,,0
14006847,6847,,Shakespeare St (near Kingsley St) (hail2ride),Cambridge,-37.898642,175.479497,WKO00_3C,,0,,Pacific/Auckland,,,0
14006848,6848,,197 Sandwich Rd,Hamilton City,-37.74841667,175.2492056,WKO00_1,,0,,Pacific/Auckland,,,0
14006852,6852,,57 Comries Rd,Hamilton City,-37.753536,175.271823,WKO00_1,,0,,Pacific/Auckland,,,0
14006853,6853,,22 Bartholomew Dr,Hamilton City,-37.779226,175.230358,WKO00_1,,0,,Pacific/Auckland,,,0
14006857,6857,,34 Bruce Ave,Hamilton City,-37.81813333,175.2881889,WKO00_1,,0,,Pacific/Auckland,,,0
14006858,6858,,Huntly Station,Huntly train station,-37.5576972524465,175.159739550646,,,0,,Pacific/Auckland,,,0
14006861,6861,,712 Tararu Rd (hail2ride),Thames,-37.115793,175.524326,WKO00_6B,,0,,Pacific/Auckland,,,0
14006866,6866,,Opp 3 Rainbow Dr (Rainbow Drive Shops),Taupo,-38.71900833,176.0806472,WKO00_9C,,0,,Pacific/Auckland,,,0
14006875,6875,,60 Silverdale Rd,Hamilton City,-37.794115,175.330006,WKO00_1,,0,,Pacific/Auckland,,,0
14006881,6881,,43 Odlin Cr,Hamilton City,-37.772229,175.235898,WKO00_1,,0,,Pacific/Auckland,,,0
14006891,6891,,51 Victoria St (Celebrating Age Centre),Hamilton City,-37.79151944,175.2869389,WKO00_CBD,,0,,Pacific/Auckland,,,0
14006902,6902,,117 Bankwood Rd,Hamilton City,-37.757768,175.276814,WKO00_1,,0,,Pacific/Auckland,,,0
14006905,6905,,30 Claude St,Hamilton City,-37.772661,175.288079,WKO00_1,,0,,Pacific/Auckland,,,0
14006906,6906,,1 Taylor Tce,Hamilton City,-37.759128,175.259489,WKO00_1,,0,,Pacific/Auckland,,,0
14006909,6909,,103 Horsham Downs Rd,Hamilton City,-37.72423,175.275156,WKO00_1,,0,,Pacific/Auckland,,,0
14006911,6911,,220 Peachgrove Rd,Hamilton City,-37.77406,175.29506,WKO00_1,,0,,Pacific/Auckland,,,0
14006913,6913,,45 Norton Rd,Hamilton City,-37.784395,175.26556,WKO00_1,,0,,Pacific/Auckland,,,0
14006921,6921,,36 Fitzroy Ave,Hamilton City,-37.815856,175.298796,WKO00_1,,0,,Pacific/Auckland,,,0
14006926,6926,,Thames Centennial Pool (hail2ride),Thames,-37.146032,175.547228,WKO00_6B,,0,,Pacific/Auckland,,,0
14006927,6927,,Opp 424 Tararu Rd (hail2ride),Thames,-37.124046,175.531523,WKO00_6B,,0,,Pacific/Auckland,,,0
14006929,6929,,116 Ayrshire Dr,Hamilton City,-37.781475,175.220532,WKO00_1,,0,,Pacific/Auckland,,,0
14006933,6933,,16 Bledisloe Tce,Hamilton City,-37.801051,175.292045,WKO00_1,,0,,Pacific/Auckland,,,0
14006939,6939,,55 St. James St,Taupo,-38.71552222,176.0965361,WKO00_9C,,0,,Pacific/Auckland,,,0
14006942,6942,,SH 1 Horotiu (Splashy),,-37.699001,175.19625,WKO00_2A,,0,,Pacific/Auckland,,,0
14006950,6950,,55 Hillpark Dr (hail2ride),Pokeno,-37.2331840909309,175.012913451249,WKO00_6A,,0,,Pacific/Auckland,,,0
14006952,6952,,35 Herbert Rd,Hamilton City,-37.750173,175.269784,WKO00_1,,0,,Pacific/Auckland,,,0
14006961,6961,,2A Jellicoe Dr,Hamilton City,-37.798799,175.289343,WKO00_1,,0,,Pacific/Auckland,,,0
14006964,6964,,115 Herewaka St (hail2ride),Thames,-37.149734,175.557478,WKO00_6B,,0,,Pacific/Auckland,,,0
14006977,6977,,166 Killarney Rd,Hamilton City,-37.795115,175.254548,WKO00_1,,0,,Pacific/Auckland,,,0
14007000,7000,,Opp 6 Glenshea St (hail2ride),Putaruru,-38.053045163253,175.778248408974,WKO00_5C,,0,,Pacific/Auckland,,,0
14007007,7007,,398 Great South Rd (McDonald's) (hail2ride),Huntly,-37.56793,175.158459,WKO00_3A,,0,,Pacific/Auckland,,,0
14007009,7009,,Kenrick St (Te Aroha),Te Aroha,-37.543578,175.711873,WKO00_4B,,0,,Pacific/Auckland,,,0
14007021,7021,,34 Wilson St,Hamilton City,-37.787012,175.303105,WKO00_1,,0,,Pacific/Auckland,,,0
14007023,7023,,3 Glen Lynne Ave,Hamilton City,-37.748289,175.265187,WKO00_1,,0,,Pacific/Auckland,,,0
14007025,7025,,191 Rifle Range Rd (Paetiki Shops),Taupo,-38.68462222,176.0946556,WKO00_9C,,0,,Pacific/Auckland,,,0
14007039,7039,,26 McDaimid Cres - Huntly (Rakaumanga school),Huntly,-37.555955,175.145971,WKO00_3A,,0,,Pacific/Auckland,,,0
14007040,7040,,564 Te Rapa Rd (outside Tui Medical Centre),Hamilton City,-37.758144,175.246633,WKO00_1,,0,,Pacific/Auckland,,,0
14007041,7041,,Rosser St (Kimihia Resthome and Hospital),Huntly,-37.542675,175.165284,WKO00_3A,,0,,Pacific/Auckland,,,0
14007043,7043,,11 Jeanette Pl,Hamilton City,-37.81641944,175.2929778,WKO00_1,,0,,Pacific/Auckland,,,0
14007047,7047,,59 Pine Ave ,Hamilton City,-37.813146,175.287755,WKO00_1,,0,,Pacific/Auckland,,,0
14007052,7052,,22 Lancaster St,Hamilton City,-37.79991389,175.2377778,WKO00_1,,0,,Pacific/Auckland,,,0
14007053,7053,,185 Whatawhata Rd,Hamilton City,-37.797391,175.236026,WKO00_1,,0,,Pacific/Auckland,,,0
14007055,7055,,930 River Rd,Hamilton City,-37.74997,175.26654,WKO00_1,,0,,Pacific/Auckland,,,0
14007061,7061,,161 Maui St (hail2ride),Hamilton City,-37.72789444,175.2203306,WKO00_1,,0,,Pacific/Auckland,,,0
14007063,7063,,48 Clarkin Rd,Hamilton City,-37.76679,175.271453,WKO00_1,,0,,Pacific/Auckland,,,0
14007070,7070,,Paki St - Huntly,Huntly,-37.560981,175.146854,WKO00_3A,,0,,Pacific/Auckland,,,0
14007073,7073,,Caro St,Hamilton City,-37.788525,175.281125,WKO00_CBD,,0,,Pacific/Auckland,,,0
14007083,7083,,5 Prisk St,Hamilton City,-37.81408,175.273606,WKO00_1,,0,,Pacific/Auckland,,,0
14007089,7089,,127 Peachgrove Rd,Hamilton City,-37.78134722,175.2982556,WKO00_1,,0,,Pacific/Auckland,,,0
14007091,7091,,1149 Heaphy Tce,Hamilton City,-37.76565,175.279611,WKO00_1,,0,,Pacific/Auckland,,,0
14007100,7100,,32 Te Aroha St,Hamilton City,-37.782255,175.290518,WKO00_1,,0,,Pacific/Auckland,,,0
14007115,7115,,Opp 318 Parawai Rd (hail2ride),Thames,-37.150679,175.556226,WKO00_6B,,0,,Pacific/Auckland,,,0
14007116,7116,,55 Vercoe Rd,Hamilton City,-37.764282,175.261414,WKO00_1,,0,,Pacific/Auckland,,,0
14007118,7118,,99A Whatawhata Rd,Hamilton City,-37.796137,175.242539,WKO00_1,,0,,Pacific/Auckland,,,0
14007120,7120,,102 Bader St,Hamilton City,-37.808933,175.295917,WKO00_1,,0,,Pacific/Auckland,,,0
14007121,7121,,10 Vesty Ave,Hamilton City,-37.7913,175.3207889,WKO00_1,,0,,Pacific/Auckland,,,0
14007123,7123,,Herbert St (hail2ride),Te Awamutu,-38.033553878623,175.34708060938,WKO00_3D,,0,,Pacific/Auckland,,,0
14007141,7141,,Opp 83 Bankwood Rd,Hamilton City,-37.759248,175.27707,WKO00_1,,0,,Pacific/Auckland,,,0
14007154,7154,,10 Mardon Rd,Hamilton City,-37.767271,175.291266,WKO00_1,,0,,Pacific/Auckland,,,0
14007155,7155,,Opp 14 Russell Rd (Proposed),Huntly,-37.544642523031,175.16952362222,WKO00_3A,,0,,Pacific/Auckland,,,0
14007159,7159,,61 Sandwich Rd,Hamilton City,-37.752836,175.255926,WKO00_1,,0,,Pacific/Auckland,,,0
14007168,7168,,Opp 60 Silverdale Rd,Hamilton City,-37.794156,175.329901,WKO00_1,,0,,Pacific/Auckland,,,0
14007175,7175,,107 Newcastle Rd,Hamilton City,-37.789716,175.235239,WKO00_1,,0,,Pacific/Auckland,,,0
14007177,7177,,Opp 119 Hauraki Tce (hail2ride),Thames,-37.143633,175.556443,WKO00_6B,,0,,Pacific/Auckland,,,0
14007181,7181,,Alison St (Gower Park),Hamilton City,-37.807416,175.271455,WKO00_1,,0,,Pacific/Auckland,,,0
14007187,7187,,127 Comries Rd,Hamilton City,-37.752203,175.277583,WKO00_1,,0,,Pacific/Auckland,,,0
14007189,7189,,12 James St,Raglan,-37.799347,174.871554,WKO00_4E,,0,,Pacific/Auckland,,,0
14007194,7194,,Otorohanga (Proposed),Otorohanga,-38.1815558862475,175.210973717077,WKO00_4D,,0,,Pacific/Auckland,,,0
14007263,7263,,76 Totara Dr,Hamilton City,-37.743506,175.247738,WKO00_1,,0,,Pacific/Auckland,,,0
14007264,7264,,50 Avalon Dr,Hamilton City,-37.77631,175.24618,WKO00_1,,0,,Pacific/Auckland,,,0
14007279,7279,,Opp Kimihia Rd (Proposed),Huntly,-37.548451169749,175.16260973164,WKO00_3A,,0,,Pacific/Auckland,,,0
14007283,7283,,1 Ranfurly Ave,Hamilton City,-37.769978,175.274728,WKO00_1,,0,,Pacific/Auckland,,,0
14007285,7285,,Great South Rd (Pokeno Southbound) (hail2ride),Pokeno,-37.245415,175.021576,WKO00_6A,,0,,Pacific/Auckland,,,0
14007289,7289,,21 Norris Ave,Hamilton City,-37.756675,175.249928,WKO00_1,,0,,Pacific/Auckland,,,0
14007297,7297,,Borman Rd (Opp Radius Glaisdale),Hamilton City,-37.72028,175.242132,WKO00_1,,0,,Pacific/Auckland,,,0
14007298,7298,,123 Maeroa Rd,Hamilton City,-37.77507,175.25926,WKO00_1,,0,,Pacific/Auckland,,,0
14007299,7299,,212A Taharepa Rd,Taupo,-38.6857,176.09613,WKO00_9C,,0,,Pacific/Auckland,,,0
14007355,7355,,New World Tokoroa (hail2ride),Tokoroa,-38.219114596578,175.86721806715,WKO00_6C,,0,,Pacific/Auckland,,,0
14007357,7357,,156 Main St (Huntly Shops),Huntly,-37.559849,175.15873,WKO00_3A,,0,,Pacific/Auckland,,,0
14007360,7360,,76 Higgins Rd,Hamilton City,-37.801546,175.255535,WKO00_1,,0,,Pacific/Auckland,,,0
14007375,7375,,296 Clarkin Rd,Hamilton City,-37.762937,175.287141,WKO00_1,,0,,Pacific/Auckland,,,0
14007384,7384,,83 Huntington Dr,Hamilton City,-37.743057,175.285268,WKO00_1,,0,,Pacific/Auckland,,,0
14007385,7385,,Kimihia Rd (hail2ride),Huntly,-37.548116,175.163105,WKO00_3A,,0,,Pacific/Auckland,,,0
14007392,7392,,49 Old Farm Rd,Hamilton City,-37.787978,175.303021,WKO00_1,,0,,Pacific/Auckland,,,0
14007453,7453,,SH 26 (opp Platt Rd) (hail2ride),,-37.778679,175.401239,WKO00_2B,,0,,Pacific/Auckland,,,0
14007455,7455,,742 Tararu Rd (hail2ride),Thames,-37.114002,175.522885,WKO00_6B,,0,,Pacific/Auckland,,,0
14007464,7464,,MacDonald Rd (Glenview Mall),Hamilton City,-37.82327222,175.2879306,WKO00_1,,0,,Pacific/Auckland,,,0
14007466,7466,,Shakespeare St (opp Addison St) (hail2ride),Cambridge,-37.896418,175.479907,WKO00_3C,,0,,Pacific/Auckland,,,0
14007467,7467,,Opp Tirau i-Site,,-37.977177,175.7562,WKO00_4C,,0,,Pacific/Auckland,,,0
14007470,7470,,58 Vercoe Rd,Hamilton City,-37.764229,175.261658,WKO00_1,,0,,Pacific/Auckland,,,0
14007471,7471,,90 Rangatira Dr (Mangakino),,-38.372033,175.774938,WKO00_7C,,0,,Pacific/Auckland,,,0
14007473,7473,,3 Rainbow Dr (Rainbow Dr Shops),Taupo,-38.71894444,176.0807028,WKO00_9C,,0,,Pacific/Auckland,,,0
14007483,7483,,185 Cambridge Rd,Hamilton City,-37.800157,175.318019,WKO00_1,,0,,Pacific/Auckland,,,0
14007485,7485,,Opp 35 Baverstock Rd,Hamilton City,-37.771385,175.229797,WKO00_1,,0,,Pacific/Auckland,,,0
14007493,7493,,8 Rangatira Dr (Mangakino),,-38.365535,175.77389,WKO00_7C,,0,,Pacific/Auckland,,,0
14007494,7494,,23 Odlin Cr,Hamilton City,-37.770528,175.234472,WKO00_1,,0,,Pacific/Auckland,,,0
14007497,7497,,274 Kahikatea Dr (near Admark Visual Imaging),Hamilton City,-37.80488889,175.258375,WKO00_1,,0,,Pacific/Auckland,,,0
14007551,7551,,131 Dinsdale Rd,Hamilton City,-37.79276,175.239079,WKO00_1,,0,,Pacific/Auckland,,,0
14007555,7555,,113 Crosby Rd,Hamilton City,-37.751956,175.292199,WKO00_1,,0,,Pacific/Auckland,,,0
14007557,7557,,10 Waipoua Street (Mangakino),,-38.363242,175.776341,WKO00_7C,,0,,Pacific/Auckland,,,0
14007561,7561,,41 Pembroke St,Hamilton City,-37.79646667,175.2809278,WKO00_CBD,,0,,Pacific/Auckland,,,0
14007566,7566,,Rotokauri Rd (near Kawariki Dr),Hamilton City,-37.764826,175.224888,WKO00_1,,0,,Pacific/Auckland,,,0
14007568,7568,,74 Naylor St,Hamilton City,-37.798079,175.302916,WKO00_1,,0,,Pacific/Auckland,,,0
14007578,7578,,5 Cate Rd,Hamilton City,-37.732686,175.267773,WKO00_1,,0,,Pacific/Auckland,,,0
14007588,7588,,921 River Rd,Hamilton City,-37.750292,175.266544,WKO00_1,,0,,Pacific/Auckland,,,0
14007598,7598,,9 Barrington Dr,Hamilton City,-37.730928358946,175.285541586,WKO00_1,,0,,Pacific/Auckland,,,0
14007606,7606,,4 Waimarie St,Hamilton City,-37.78332222,175.2456306,WKO00_1,,0,,Pacific/Auckland,,,0
14007609,7609,,227 Baverstock Rd,Hamilton City,-37.776058,175.221074,WKO00_1,,0,,Pacific/Auckland,,,0
14007612,7612,,735 Tararu Rd (hail2ride),Thames,-37.114227,175.52288,WKO00_6B,,0,,Pacific/Auckland,,,0
14007618,7618,,122 Masters Ave (opp Hillcrest High School),Hamilton City,-37.793984,175.32516,WKO00_1,,0,,Pacific/Auckland,,,0
14007622,7622,,3 St. James St (opp St. James St shops),Taupo,-38.714949,176.091485,WKO00_9C,,0,,Pacific/Auckland,,,0
14007626,7626,,Ohaupo Rd (near Kaipaki Rd) (hail2ride),,-37.902388,175.315756,WKO00_2D,,0,,Pacific/Auckland,,,0
14007627,7627,,267 Borman Rd (Learning Links),Hamilton City,-37.72272,175.262186,WKO00_1,,0,,Pacific/Auckland,,,0
14007628,7628,,475 Te Rapa Rd (Fairview Motors),Hamilton City,-37.760542,175.248747,WKO00_1,,0,,Pacific/Auckland,,,0
14007635,7635,,245 Ulster St,Hamilton City,-37.77716667,175.2691694,WKO00_CBD,,0,,Pacific/Auckland,,,0
14007637,7637,,46 Casey Ave,Hamilton City,-37.772464,175.277011,WKO00_1,,0,,Pacific/Auckland,,,0
14007651,7651,,30A Foster Rd,Hamilton City,-37.821495,175.221722,WKO00_1,,0,,Pacific/Auckland,,,0
14007654,7654,,14 Stewart St (near Gilmour St),Raglan,-37.802867,174.870151,WKO00_4E,,0,,Pacific/Auckland,,,0
14007661,7661,,202 Clarkin Rd,Hamilton City,-37.764394,175.281877,WKO00_1,,0,,Pacific/Auckland,,,0
14007679,7679,,125 Whatawhata Rd,Hamilton City,-37.79681389,175.2398444,WKO00_1,,0,,Pacific/Auckland,,,0
14007680,7680,,155 Rifle Range Rd,Taupo,-38.68645,176.09037,WKO00_9C,,0,,Pacific/Auckland,,,0
14007684,7684,,13 Victoria Pl (hail2ride),Tokoroa,-38.229206,175.858192,WKO00_6C,,0,,Pacific/Auckland,,,0
14007686,7686,,38 Powells Rd,Hamilton City,-37.76545,175.3034639,WKO00_1,,0,,Pacific/Auckland,,,0
14007688,7688,,27 Snell Dr,Hamilton City,-37.759286,175.293384,WKO00_1,,0,,Pacific/Auckland,,,0
14007693,7693,,669 Grey St,Hamilton City,-37.783504,175.289757,WKO00_1,,0,,Pacific/Auckland,,,0
14007695,7695,,13 Wharewaka Rd,Taupo,-38.72883056,176.0719639,WKO00_9C,,0,,Pacific/Auckland,,,0
14007711,7711,,9 Totara Dr,Hamilton City,-37.747467,175.248411,WKO00_1,,0,,Pacific/Auckland,,,0
14007725,7725,,136 Sandwich Rd,Hamilton City,-37.74976,175.254511,WKO00_1,,0,,Pacific/Auckland,,,0
14007729,7729,,391 Victoria St,Hamilton City,-37.786524,175.282334,WKO00_CBD,,0,,Pacific/Auckland,,,0
14007735,7735,,253 Maeroa Rd,Hamilton City,-37.782108,175.258346,WKO00_1,,0,,Pacific/Auckland,,,0
14007736,7736,,Opp New World (Tokoroa) (hail2ride),Tokoroa,-38.219236,175.867582,WKO00_6C,,0,,Pacific/Auckland,,,0
14007738,7738,,40 Sandwich Rd,Hamilton City,-37.75449,175.257442,WKO00_1,,0,,Pacific/Auckland,,,0
14007748,7748,,463 Kahikatea Dr,Hamilton City,-37.804186,175.2446,WKO00_1,,0,,Pacific/Auckland,,,0
14007749,7749,,17 Lloyd Dr,Hamilton City,-37.77378,175.23045,WKO00_1,,0,,Pacific/Auckland,,,0
14007752,7752,,55 Snell Dr,Hamilton City,-37.760336,175.290756,WKO00_1,,0,,Pacific/Auckland,,,0
14007753,7753,,56 Rainbow Drive,Taupo,-38.72131667,176.0759861,WKO00_9C,,0,,Pacific/Auckland,,,0
14007759,7759,,Opp 127 Seddon Rd,Hamilton City,-37.782071,175.268342,WKO00_CBD,,0,,Pacific/Auckland,,,0
14007760,7760,,63 Dixon Rd,Hamilton City,-37.822675,175.2977556,WKO00_1,,0,,Pacific/Auckland,,,0
14007762,7762,,105 Farnborough Dr,Hamilton City,-37.7799220854608,175.220586450786,WKO00_1,,0,,Pacific/Auckland,,,0
14007764,7764,,90 Massey St,Hamilton City,-37.790169,175.257138,WKO00_1,,0,,Pacific/Auckland,,,0
14007768,7768,,29 Powells Rd,Hamilton City,-37.765482,175.303017,WKO00_1,,0,,Pacific/Auckland,,,0
14007771,7771,,Opp 9 Hare Puke Dr,Hamilton City,-37.72367778,175.2402667,WKO00_1,,0,,Pacific/Auckland,,,0
14007773,7773,,Hall St (hail2ride),Te Awamutu,-38.037546993726,175.3522892485,WKO00_3D,,0,,Pacific/Auckland,,,0
14007774,7774,,26 Manukau Rd,Raglan,-37.801939,174.881633,WKO00_4E,,0,,Pacific/Auckland,,,0
14007777,7777,,23 Ruakura Rd (near Vision College),Hamilton City,-37.78042,175.30077,WKO00_1,,0,,Pacific/Auckland,,,0
14007779,7779,,116 Newcastle Rd,Hamilton City,-37.789115,175.235503,WKO00_1,,0,,Pacific/Auckland,,,0
14007784,7784,,4359 SH 26 (Waihou) (hail2ride),,-37.573233,175.675088,WKO00_4B,,0,,Pacific/Auckland,,,0
14007796,7796,,17 Urlich Ave,Hamilton City,-37.816639,175.28468,WKO00_1,,0,,Pacific/Auckland,,,0
14007800,7800,,Te Puea Ave (Meremere Northbound) (hail2ride),,-37.321298,175.068479,WKO00_5A,,0,,Pacific/Auckland,,,0
14007802,7802,,Thames Medical Centre (hail2ride),Thames,-37.137819158495,175.545198413,WKO00_6B,,0,,Pacific/Auckland,,,0
14007806,7806,,Morrinsville Rd (Jansen Park),Hamilton City,-37.798956,175.328535,WKO00_1,,0,,Pacific/Auckland,,,0
14007814,7814,,Marshall St (Paeroa),Paeroa,-37.377048,175.667446,WKO00_5B,,0,,Pacific/Auckland,,,0
14007815,7815,,66 Morris Rd,Hamilton City,-37.794991,175.324978,WKO00_1,,0,,Pacific/Auckland,,,0
14007816,7816,,87 Jellicoe Dr,Hamilton City,-37.802258,175.290512,WKO00_1,,0,,Pacific/Auckland,,,0
14007820,7820,,61 Moana Cres (Mangakino),,-38.36625278,175.7745278,WKO00_7C,,0,,Pacific/Auckland,,,0
14007833,7833,,21 Brookfield St,Hamilton City,-37.801989,175.295253,WKO00_1,,0,,Pacific/Auckland,,,0
14007839,7839,,1158 River Rd (Flagstaff Shops),Hamilton City,-37.738566,175.252484,WKO00_1,,0,,Pacific/Auckland,,,0
14007844,7844,,102 Brunton Cres (hail2ride),Thames,-37.147307,175.554407,WKO00_6B,,0,,Pacific/Auckland,,,0
14007845,7845,,211 Peachgrove Rd,Hamilton City,-37.774221,175.295063,WKO00_1,,0,,Pacific/Auckland,,,0
14007849,7849,,149 Ohaupo Rd,Hamilton City,-37.817865,175.282218,WKO00_1,,0,,Pacific/Auckland,,,0
14007853,7853,,81 Masters Ave,Hamilton City,-37.794405,175.323471,WKO00_1,,0,,Pacific/Auckland,,,0
14007854,7854,,48 Pembroke St,Hamilton City,-37.79633889,175.2807806,WKO00_CBD,,0,,Pacific/Auckland,,,0
14007858,7858,,1086 Heaphy Tce (Fairfield Park),Hamilton City,-37.767984,175.281102,WKO00_1,,0,,Pacific/Auckland,,,0
14007872,7872,,49 Discovery Dr,Hamilton City,-37.732125,175.249341,WKO00_1,,0,,Pacific/Auckland,,,0
14007874,7874,,104 Bailey St (opp Four Square),Huntly,-37.536368,175.161359,WKO00_3A,,0,,Pacific/Auckland,,,0
14007877,7877,,31 Cameron Rd,Hamilton City,-37.788353,175.309403,WKO00_1,,0,,Pacific/Auckland,,,0
14007880,7880,,Opp 46 Raymond St,Hamilton City,-37.76099,175.305225,WKO00_1,,0,,Pacific/Auckland,,,0
14007888,7888,,Carey St (hail2ride),Te Awamutu,-38.040701577966,175.3477035287,WKO00_3D,,0,,Pacific/Auckland,,,0
14007895,7895,,Kihikihi Rd (near Golf Rd) (hail2ride),Te Awamutu,-38.025507726334,175.33429710723,WKO00_3D,,0,,Pacific/Auckland,,,0
14007899,7899,,40 Cate Rd,Hamilton City,-37.728991,175.265584,WKO00_1,,0,,Pacific/Auckland,,,0
14007905,7905,,65 Richmond Ave,Taupo,-38.718105,176.089758,WKO00_9C,,0,,Pacific/Auckland,,,0
14007909,7909,,1 Wellington St,Hamilton City,-37.796008,175.291641,WKO00_1,,0,,Pacific/Auckland,,,0
14007915,7915,,39 Pulham Cr,Hamilton City,-37.747718,175.269659,WKO00_1,,0,,Pacific/Auckland,,,0
14007920,7920,,42 Cameron Rd,Hamilton City,-37.786418,175.308834,WKO00_1,,0,,Pacific/Auckland,,,0
14007921,7921,,248 Grey St,Hamilton City,-37.795797,175.29432,WKO00_1,,0,,Pacific/Auckland,,,0
14007926,7926,,421 Parawai Rd (Opp Kauaeranaga Store) (hail2ride),Thames,-37.154041,175.560467,WKO00_6B,,0,,Pacific/Auckland,,,0
14007928,7928,,Garnett Ave (opp Te Rapa shops),Hamilton City,-37.765241,175.252515,WKO00_1,,0,,Pacific/Auckland,,,0
14007931,7931,,33 Jellicoe Dr,Hamilton City,-37.798937,175.289322,WKO00_1,,0,,Pacific/Auckland,,,0
14007933,7933,,85 Snell Dr,Hamilton City,-37.76176111,175.2887639,WKO00_1,,0,,Pacific/Auckland,,,0
14007935,7935,,65 Brookfield St,Hamilton City,-37.799702,175.305327,WKO00_1,,0,,Pacific/Auckland,,,0
14007938,7938,,Tauwhare Pa (Proposed),,-37.7829720580258,175.423737720807,WKO00_2B,,0,,Pacific/Auckland,,,0
14007946,7946,,181 Pukete Rd,Hamilton City,-37.739824,175.238691,WKO00_1,,0,,Pacific/Auckland,,,0
14007948,7948,,Opp 36 Te Huia Dr,Hamilton City,-37.727418,175.238361,WKO00_1,,0,,Pacific/Auckland,,,0
14007952,7952,,Opp 917 Heaphy Tce,Hamilton City,-37.775146,175.28506,WKO00_1,,0,,Pacific/Auckland,,,0
14007959,7959,,220 Balmoral Dr,Tokoroa,-38.235834,175.858688,WKO00_6C,,0,,Pacific/Auckland,,,0
14007961,7961,,23 Lewis St,Hamilton City,-37.82004167,175.29005,WKO00_1,,0,,Pacific/Auckland,,,0
14007965,7965,,39 Wilson St,Hamilton City,-37.786896,175.303308,WKO00_1,,0,,Pacific/Auckland,,,0
14007966,7966,,486 Anglesea St,Hamilton City,-37.783044,175.275755,WKO00_CBD,,0,,Pacific/Auckland,,,0
14007987,7987,,541 Grey St,Hamilton City,-37.7883699303464,175.291417846558,WKO00_1,,0,,Pacific/Auckland,,,0
14007988,7988,,6 Knighton Rd (near Cambridge Rd),Hamilton City,-37.796833,175.311998,WKO00_1,,0,,Pacific/Auckland,,,0
14007993,7993,,158 Maui St,Hamilton City,-37.72818,175.220593,WKO00_1,,0,,Pacific/Auckland,,,0
14007996,7996,,194 Ulster St (Settlers Motor Lodge),Hamilton City,-37.77770278,175.2712222,WKO00_CBD,,0,,Pacific/Auckland,,,0
14008000,8000,,60 Prisk St,Hamilton City,-37.81753,175.27579,WKO00_1,,0,,Pacific/Auckland,,,0
14008002,8002,,Mary St - Huntly,Huntly,-37.57177,175.151292,WKO00_3A,,0,,Pacific/Auckland,,,0
14008004,8004,,Bupa Tararu (hail2ride),Thames,-37.111557468278,175.51933228829,WKO00_6B,,0,,Pacific/Auckland,,,0
14008006,8006,,7 Holmes St,Hamilton City,-37.780424,175.240094,WKO00_1,,0,,Pacific/Auckland,,,0
14008009,8009,,117 Beerescourt Rd,Hamilton City,-37.762558,175.261215,WKO00_1,,0,,Pacific/Auckland,,,0
14008010,8010,,403 Hukanui Rd,Hamilton City,-37.736665,175.273233,WKO00_1,,0,,Pacific/Auckland,,,0
14008013,8013,,4 Gibson Rd,Hamilton City,-37.803011,175.243458,WKO00_1,,0,,Pacific/Auckland,,,0
14008017,8017,,47 Radiata St,Hamilton City,-37.75862778,175.3039861,WKO00_1,,0,,Pacific/Auckland,,,0
14008018,8018,,5 Acacia Cr,Hamilton City,-37.8307,175.2916111,WKO00_1,,0,,Pacific/Auckland,,,0
14008019,8019,,Opp 21 Taniwha St (Finlay Jacks Backpackers),Taupo,-38.683798,176.074717,WKO00_9C,,0,,Pacific/Auckland,,,0
14008025,8025,,29 Hyde Ave,Hamilton City,-37.78427222,175.23835,WKO00_1,,0,,Pacific/Auckland,,,0
14008026,8026,,79 Church Rd (Opp FlexFitness),Hamilton City,-37.74123889,175.2309583,WKO00_1,,0,,Pacific/Auckland,,,0
14008031,8031,,424 Tararu Rd (hail2ride),Thames,-37.123958,175.531666,WKO00_6B,,0,,Pacific/Auckland,,,0
14008032,8032,,65 Stanley St,Taupo,-38.73243333,176.0679056,WKO00_9C,,0,,Pacific/Auckland,,,0
14008042,8042,,164 Beerescourt Rd,Hamilton City,-37.760563,175.2603,WKO00_1,,0,,Pacific/Auckland,,,0
14008046,8046,,821 Victoria St,Hamilton City,-37.78138056,175.2775167,WKO00_CBD,,0,,Pacific/Auckland,,,0
14008063,8063,,17 Edward St (hail2ride),Tokoroa,-38.223135,175.854171,WKO00_6C,,0,,Pacific/Auckland,,,0
14008070,8070,,75 Totara Dr,Hamilton City,-37.744287,175.24816,WKO00_1,,0,,Pacific/Auckland,,,0
14008071,8071,,2 Holland Rd,Hamilton City,-37.769956,175.282909,WKO00_1,,0,,Pacific/Auckland,,,0
14008072,8072,,1 Mansell Rd,Taupo,-38.681515,176.060634,WKO00_9C,,0,,Pacific/Auckland,,,0
14008074,8074,,Te Rapa Rd (Fonterra),Hamilton City,-37.718841,175.214245,WKO00_2A,,0,,Pacific/Auckland,,,0
14008082,8082,,4358 SH 26 (Waihou) (hail2ride),,-37.573371,175.67517,WKO00_4B,,0,,Pacific/Auckland,,,0
14008083,8083,,Bupa The Booms (hail2ride),Thames,-37.156276,175.562245,WKO00_6B,,0,,Pacific/Auckland,,,0
14008089,8089,,SH 23 (near Glentui Ln) (hail2ride),,-37.807180983003,175.08802248246,WKO00_2E,,0,,Pacific/Auckland,,,0
14008090,8090,,266 Tramway Rd,Hamilton City,-37.759257,175.296576,WKO00_1,,0,,Pacific/Auckland,,,0
14008092,8092,,Kihikiha Rd (opp Mandeno St)(hail2ride),Te Awamutu,-38.01583056,175.3250472,WKO00_3D,,0,,Pacific/Auckland,,,0
14008093,8093,,32 Norris Ave ,Hamilton City,-37.758569,175.251703,WKO00_1,,0,,Pacific/Auckland,,,0
14008098,8098,,Maretai Rd (hail2ride),Tokoroa,-38.226936,175.873534,WKO00_6C,,0,,Pacific/Auckland,,,0
14008102,8102,,2 Cowley Dr,Hamilton City,-37.819484,175.225438,WKO00_1,,0,,Pacific/Auckland,,,0
14008105,8105,,50 Nevada Rd,Hamilton City,-37.787106,175.330864,WKO00_1,,0,,Pacific/Auckland,,,0
14008107,8107,,28 McMeekan Ave,Hamilton City,-37.752871,175.289223,WKO00_1,,0,,Pacific/Auckland,,,0
14008112,8112,,29 Te Aroha St,Hamilton City,-37.782192,175.290518,WKO00_1,,0,,Pacific/Auckland,,,0
14008114,8114,,73 Higgins Rd,Hamilton City,-37.801375,175.25575,WKO00_1,,0,,Pacific/Auckland,,,0
14008115,8115,,9 Caernarvon St,Hamilton City,-37.796622,175.238436,WKO00_1,,0,,Pacific/Auckland,,,0
14008121,8121,,127 Seddon Rd (opp FMG stadium),Hamilton City,-37.78224,175.268424,WKO00_CBD,,0,,Pacific/Auckland,,,0
14008123,8123,,160 Bankwood Rd,Hamilton City,-37.754483,175.275734,WKO00_1,,0,,Pacific/Auckland,,,0
14008124,8124,,58 Herbert Rd,Hamilton City,-37.748559,175.269235,WKO00_1,,0,,Pacific/Auckland,,,0
14008126,8126,,126 Crosby Rd,Hamilton City,-37.751415,175.292522,WKO00_1,,0,,Pacific/Auckland,,,0
14008127,8127,,50 Edinburgh Rd,Hamilton City,-37.793434,175.315765,WKO00_1,,0,,Pacific/Auckland,,,0
14008130,8130,,97 Naylor St,Hamilton City,-37.797201,175.306736,WKO00_1,,0,,Pacific/Auckland,,,0
14008133,8133,,165 Maeroa Rd,Hamilton City,-37.777205,175.259227,WKO00_1,,0,,Pacific/Auckland,,,0
14008138,8138,,1 Mark Ball Dr (hail2ride),Pokeno,-37.239388727927,175.011100599719,WKO00_6A,,0,,Pacific/Auckland,,,0
14008140,8140,,103 Endeavour Ave,Hamilton City,-37.733523,175.251686,WKO00_1,,0,,Pacific/Auckland,,,0
14008141,8141,,Whakamaru Store (Tihoi Rd),,-38.419606,175.796513,WKO00_7C,,0,,Pacific/Auckland,,,0
14008142,8142,,10 Queens Ave,Hamilton City,-37.790458,175.27024,WKO00_1,,0,,Pacific/Auckland,,,0
14008148,8148,,Whatawhata Rd (Wallace Rd) (hail2ride),Hamilton City,-37.796989,175.229264,WKO00_1,,0,,Pacific/Auckland,,,0
14008152,8152,,1 Tomin Rd,Hamilton City,-37.81956111,175.2830639,WKO00_1,,0,,Pacific/Auckland,,,0
14008155,8155,,15 Galloway St,Hamilton City,-37.80107222,175.3048306,WKO00_1,,0,,Pacific/Auckland,,,0
14008157,8157,,474 Te Rapa Rd (outside Te Wananga O Aotearoa),Hamilton City,-37.761429,175.249943,WKO00_1,,0,,Pacific/Auckland,,,0
14008159,8159,,Opp 131 Baverstock Rd,Hamilton City,-37.7735481121895,175.225943434079,WKO00_1,,0,,Pacific/Auckland,,,0
14008167,8167,,303 Ensor St (hail2ride),Thames,-37.128832,175.530548,WKO00_6B,,0,,Pacific/Auckland,,,0
14008169,8169,,91 Silverdale Rd,Hamilton City,-37.791668,175.327395,WKO00_1,,0,,Pacific/Auckland,,,0
14008174,8174,,15 Store Rd (near Te Kowhai Golf Club),,-37.79646667,175.1548111,WKO00_2E,,0,,Pacific/Auckland,,,0
14008187,8187,,26 Ellicott Rd,Hamilton City,-37.78159,175.248159,WKO00_1,,0,,Pacific/Auckland,,,0
14008218,8218,,33 Wentworth Dr,Hamilton City,-37.729792,175.260838,WKO00_1,,0,,Pacific/Auckland,,,0
14008220,8220,,Cambridge Rd (near Racecourse Rd) (hail2ride),Hamilton Surrounds,-37.873804,175.408905,WKO00_2C,,0,,Pacific/Auckland,,,0
14008221,8221,,63 Ohaupo Rd,Hamilton City,-37.810582,175.281454,WKO00_1,,0,,Pacific/Auckland,,,0
14008223,8223,,109 Mahoe St,Hamilton City,-37.813498552147,175.27509358711,WKO00_1,,0,,Pacific/Auckland,,,0
14008225,8225,,119 Killarney Rd,Hamilton City,-37.795055,175.258488,WKO00_1,,0,,Pacific/Auckland,,,0
14008226,8226,,133 Pukete Rd,Hamilton City,-37.743005723825,175.239478531321,WKO00_1,,0,,Pacific/Auckland,,,0
14008230,8230,,60 Wallis St,Raglan,-37.796182,174.875801,WKO00_4E,,0,,Pacific/Auckland,,,0
14008233,8233,,22 Bow St (Raglan shops) (hail2ride),Raglan,-37.799961,174.86992,WKO00_4E,,0,,Pacific/Auckland,,,0
14008236,8236,,Opp 1 Norrie Ave (near Upper Bow St),Raglan,-37.803355,174.873011,WKO00_4E,,0,,Pacific/Auckland,,,0
14008237,8237,,Southey St (near Browning St) (hail2ride),Cambridge,-37.908855,175.468677,WKO00_3C,,0,,Pacific/Auckland,,,0
14008243,8243,,48 Bartholomew Dr,Hamilton City,-37.780996,175.229448,WKO00_1,,0,,Pacific/Auckland,,,0
14008244,8244,,10 Mitcham Ave,Hamilton City,-37.772699,175.254871,WKO00_1,,0,,Pacific/Auckland,,,0
14008246,8246,,668 Grey St,Hamilton City,-37.783285,175.289758,WKO00_1,,0,,Pacific/Auckland,,,0
14008249,8249,,25 Rangatira Dr (Mangakino),,-38.366814,175.773453,WKO00_7C,,0,,Pacific/Auckland,,,0
14008251,8251,,48 Glenview Tce,Hamilton City,-37.821374,175.288837,WKO00_1,,0,,Pacific/Auckland,,,0
14008255,8255,,207 Rolleston St (hail2ride),Thames,-37.146622,175.550301,WKO00_6B,,0,,Pacific/Auckland,,,0
14008258,8258,,193 Dinsdale Rd,Hamilton City,-37.792562,175.235185,WKO00_1,,0,,Pacific/Auckland,,,0
14008265,8265,,160 Rimu St,Hamilton City,-37.779404,175.252328,WKO00_1,,0,,Pacific/Auckland,,,0
14008270,8270,,89 Rifle Range Rd,Taupo,-38.68969167,176.0838583,WKO00_9C,,0,,Pacific/Auckland,,,0
14008280,8280,,21 Forsyth St,Hamilton City,-37.76033611,175.2548917,WKO00_1,,0,,Pacific/Auckland,,,0
14008300,8300,,60 Pohutakawa Dr (hail2ride),Tokoroa,-38.211828,175.854441,WKO00_6C,,0,,Pacific/Auckland,,,0
14008301,8301,,20 Herbert Rd (Chartwell Park),Hamilton City,-37.751733,175.270539,WKO00_1,,0,,Pacific/Auckland,,,0
14008302,8302,,16 Sandwich Rd,Hamilton City,-37.75569,175.258464,WKO00_1,,0,,Pacific/Auckland,,,0
14008303,8303,,3 Alison St,Hamilton City,-37.802119,175.271871,WKO00_1,,0,,Pacific/Auckland,,,0
14008305,8305,,55 Rotokauri Rd,Hamilton City,-37.768734,175.234249,WKO00_1,,0,,Pacific/Auckland,,,0
14008311,8311,,256 Clarkin Rd (Fairfield Primary School),Hamilton City,-37.763804,175.284253,WKO00_1,,0,,Pacific/Auckland,,,0
14008312,8312,,429 Morrinsville Rd (Newstead Model Country School) (hail2ride),,-37.777304,175.360279,WKO00_1,,0,,Pacific/Auckland,,,0
14008321,8321,,13 Hakanoa St,Huntly,-37.554807,175.159932,WKO00_3A,,0,,Pacific/Auckland,,,0
14008323,8323,,1B Radiata St,Hamilton City,-37.760972,175.299881,WKO00_1,,0,,Pacific/Auckland,,,0
14008326,8326,,99 Bader St,Hamilton City,-37.808814,175.296036,WKO00_1,,0,,Pacific/Auckland,,,0
14008329,8329,,Kohanga Rd (Proposed),,-37.314548611727,174.84656674798,WKO00_5A,,0,,Pacific/Auckland,,,0
14008345,8345,,16 MacDonald Rd,Hamilton City,-37.822121,175.284286,WKO00_1,,0,,Pacific/Auckland,,,0
14008351,8351,,76 Great South Rd (Ngaruawahia),,-37.666951,175.148661,WKO00_2A,,0,,Pacific/Auckland,,,0
14008358,8358,,12 Challinor St,Hamilton City,-37.741564,175.240721,WKO00_1,,0,,Pacific/Auckland,,,0
14008360,8360,,195 Totara Dr,Hamilton City,-37.738537,175.239975,WKO00_1,,0,,Pacific/Auckland,,,0
14008361,8361,,55 Cameron Rd,Hamilton City,-37.786627,175.308771,WKO00_1,,0,,Pacific/Auckland,,,0
14008370,8370,,63 Kiddle Dr,Taupo,-38.69796944,176.1018222,WKO00_9C,,0,,Pacific/Auckland,,,0
14008371,8371,,Ohinewai Town Hall,,-37.489389,175.157264,WKO00_4A,,0,,Pacific/Auckland,,,0
14008377,8377,,Te Rapa Rd (opp McKee St),Hamilton City,-37.727168,175.218679,WKO00_1,,0,,Pacific/Auckland,,,0
14008388,8388,,74 Powells Rd,Hamilton City,-37.764539,175.306663,WKO00_1,,0,,Pacific/Auckland,,,0
14008389,8389,,745 Te Rapa Rd (near New World Supermarket),Hamilton City,-37.753236,175.241302,WKO00_1,,0,,Pacific/Auckland,,,0
14008390,8390,,181 Grey St (Albert Court Motor Lodge),Hamilton City,-37.797383,175.294807,WKO00_1,,0,,Pacific/Auckland,,,0
14008396,8396,,71 Rainbow Dr,Taupo,-38.72135278,176.0758639,WKO00_9C,,0,,Pacific/Auckland,,,0
14008400,8400,,74 Holland Rd,Hamilton City,-37.768066,175.286769,WKO00_1,,0,,Pacific/Auckland,,,0
14008404,8404,,84 Bryant Rd,Hamilton City,-37.75493333,175.2506917,WKO00_1,,0,,Pacific/Auckland,,,0
14008406,8406,,Westfield Train Yard,"Westfield Train yard, start and end location of H2A link",-36.936887,174.831476,,,0,,Pacific/Auckland,,,0
14008409,8409,,299 Ulster St,Hamilton City,-37.77613056,175.2662917,WKO00_CBD,,0,,Pacific/Auckland,,,0
14008410,8410,,61 Jellicoe Dr,Hamilton City,-37.800927,175.288539,WKO00_1,,0,,Pacific/Auckland,,,0
14008413,8413,,69 Foreman Rd (Mainfreight),Hamilton City,-37.755259,175.233834,WKO00_1,,0,,Pacific/Auckland,,,0
14008423,8423,,55 Magellan Rise,Hamilton City,-37.726459,175.246461,WKO00_1,,0,,Pacific/Auckland,,,0
14008427,8427,,Boilerhouse Brewery (hail2ride),Thames,-37.134697,175.538981,WKO00_6B,,0,,Pacific/Auckland,,,0
14008441,8441,,Matamata (Proposed),Matamata,-37.8116845483521,175.766424333681,WKO00_4B,,0,,Pacific/Auckland,,,0
14008444,8444,,7 Hillcrest Rd,Hamilton City,-37.796853,175.315192,WKO00_1,,0,,Pacific/Auckland,,,0
14008447,8447,,20 Wellington St,Hamilton City,-37.795376,175.294774,WKO00_1,,0,,Pacific/Auckland,,,0
14008449,8449,,57 Naylor St,Hamilton City,-37.798267,175.301511,WKO00_1,,0,,Pacific/Auckland,,,0
14008452,8452,,Opp 90 Totara Dr,Hamilton City,-37.742191,175.246943,WKO00_1,,0,,Pacific/Auckland,,,0
14008453,8453,,44 Herbert Rd,Hamilton City,-37.749879,175.26978,WKO00_1,,0,,Pacific/Auckland,,,0
14008455,8455,,3 Hamilton Rd (near Vogel St) (hail2ride),Cambridge,-37.889804,175.456984,WKO00_3C,,0,,Pacific/Auckland,,,0
14008459,8459,,Huka Falls,Taupo,-38.649528,176.089027,WKO00_9C,,0,,Pacific/Auckland,,,0
14008461,8461,,122 Mardon Rd,Hamilton City,-37.765225,175.298627,WKO00_1,,0,,Pacific/Auckland,,,0
14008462,8462,,298 Ulster St ,Hamilton City,-37.77603889,175.2666139,WKO00_CBD,,0,,Pacific/Auckland,,,0
14008465,8465,,SH 26 (near Eureka Hall) (hail2ride),,-37.742628,175.426107,WKO00_2B,,0,,Pacific/Auckland,,,0
14008469,8469,,Thames Library (hail2ride),Thames,-37.139071,175.545059,WKO00_6B,,0,,Pacific/Auckland,,,0
14008470,8470,,SH 23 (near Highbrook Way) (hail2ride),,-37.803638,175.126372,WKO00_2E,,0,,Pacific/Auckland,,,0
14008475,8475,,120 Richmond Ave,Taupo,-38.71851667,176.0846306,WKO00_9C,,0,,Pacific/Auckland,,,0
14008480,8480,,123 Fairfield Rd,Hamilton City,-37.769152,175.280811,WKO00_1,,0,,Pacific/Auckland,,,0
14008482,8482,,Baker St - Huntly,Huntly,-37.560297,175.146141,WKO00_3A,,0,,Pacific/Auckland,,,0
14008483,8483,,5 Jellicoe Dr,Hamilton City,-37.797268,175.290431,WKO00_1,,0,,Pacific/Auckland,,,0
14008494,8494,,University (Inside Gate 1),Hamilton City,-37.787841,175.316027,WKO00_1,,0,,Pacific/Auckland,,,0
14008495,8495,,20 Maui St,Hamilton City,-37.739688,175.227332,WKO00_1,,0,,Pacific/Auckland,,,0
14008499,8499,,150 Cambridge Rd (opp Hillcrest Medical Centre),Hamilton City,-37.79923611,175.316,WKO00_1,,0,,Pacific/Auckland,,,0
14008524,8524,,301 Cochrane St (hail2ride),Thames,-37.134535,175.539055,WKO00_6B,,0,,Pacific/Auckland,,,0
14008567,8567,,29 Claude St,Hamilton City,-37.77267,175.287788,WKO00_1,,0,,Pacific/Auckland,,,0
14008576,8576,,Opp 877 Heaphy Tce,Hamilton City,-37.77714,175.286215,WKO00_1,,0,,Pacific/Auckland,,,0
14008581,8581,,56 Magellan Rise,Hamilton City,-37.726355,175.246404,WKO00_1,,0,,Pacific/Auckland,,,0
14008587,8587,,Opp 103 Ensor St (hail2ride),Thames,-37.128315,175.533167,WKO00_6B,,0,,Pacific/Auckland,,,0
14008588,8588,,76 Fairview St,Hamilton City,-37.759534,175.298677,WKO00_1,,0,,Pacific/Auckland,,,0
14008589,8589,,18 Western Heights Dr,Hamilton City,-37.788079,175.233732,WKO00_1,,0,,Pacific/Auckland,,,0
14008654,8654,,90 Fitzroy Ave,Hamilton City,-37.813982,175.298128,WKO00_1,,0,,Pacific/Auckland,,,0
14008655,8655,,113 Fairview St,Hamilton City,-37.75741667,175.2976222,WKO00_1,,0,,Pacific/Auckland,,,0
14008658,8658,,52 St. James Dr,Hamilton City,-37.735141,175.281316,WKO00_1,,0,,Pacific/Auckland,,,0
14008659,8659,,20 Wilson St,Hamilton City,-37.78743,175.301322,WKO00_1,,0,,Pacific/Auckland,,,0
14008662,8662,,22 Liverpool St (Opp Harwood St),Hamilton City,-37.7804997225479,175.274675349118,WKO00_1,,0,,Pacific/Auckland,,,0
14008665,8665,,103 Dickson St (hail2ride),Thames,-37.127417,175.532743,WKO00_6B,,0,,Pacific/Auckland,,,0
14008670,8670,,28 Lethborg St,Hamilton City,-37.802578,175.250342,WKO00_1,,0,,Pacific/Auckland,,,0
14008671,8671,,Shakespeare St (near Addison St) (hail2ride),Cambridge,-37.896046,175.480021,WKO00_3C,,0,,Pacific/Auckland,,,0
14008683,8683,,3 Vercoe Rd,Hamilton City,-37.766669,175.259034,WKO00_1,,0,,Pacific/Auckland,,,0
14008684,8684,,105 Ohaupo Rd (Melville Primary),Hamilton City,-37.814569,175.283071,WKO00_1,,0,,Pacific/Auckland,,,0
14008693,8693,,38 Wellington St,Hamilton City,-37.795054,175.296139,WKO00_1,,0,,Pacific/Auckland,,,0
14008694,8694,,13 Pembroke St (outside Placemakers),Hamilton City,-37.79419444,175.2807444,WKO00_CBD,,0,,Pacific/Auckland,,,0
14008695,8695,,Taupo i-Site,Taupo,-38.686638,176.069533,WKO00_9C,,0,,Pacific/Auckland,,,0
14008696,8696,,95 Glen Lynne Ave,Hamilton City,-37.7456,175.27452,WKO00_1,,0,,Pacific/Auckland,,,0
14008697,8697,,70 Knighton Rd,Hamilton City,-37.791865,175.31029,WKO00_1,,0,,Pacific/Auckland,,,0
14008699,8699,,Farnborough Dr (Sandhurst Pl Reserve),Hamilton City,-37.774953,175.227481,WKO00_1,,0,,Pacific/Auckland,,,0
14008761,8761,,124 Great South Rd (near Galileo St),,-37.672267,175.153633,WKO00_2A,,0,,Pacific/Auckland,,,0
14008763,8763,,90 Totara Dr,Hamilton City,-37.742063,175.247128,WKO00_1,,0,,Pacific/Auckland,,,0
14008767,8767,,11 McMeekan Ave,Hamilton City,-37.75255,175.289095,WKO00_1,,0,,Pacific/Auckland,,,0
14008772,8772,,Opp 146 Masters Ave,Hamilton City,-37.79311389,175.327575,WKO00_1,,0,,Pacific/Auckland,,,0
14008783,8783,,37 Alison St,Hamilton City,-37.80524,175.271514,WKO00_1,,0,,Pacific/Auckland,,,0
14008789,8789,,429-501 Ruakura Rd (near Vaile Rd),Hamilton City,-37.776612,175.345249,WKO00_1,,0,,Pacific/Auckland,,,0
14008854,8854,,36 Hyde Ave,Hamilton City,-37.78395,175.23849,WKO00_1,,0,,Pacific/Auckland,,,0
14008860,8860,,56 Kiddle Dr (near Lake Taupo Christian School),Taupo,-38.697875,176.1019278,WKO00_9C,,0,,Pacific/Auckland,,,0
14008862,8862,,602 Cochrane St (hail2ride),Thames,-37.134083,175.540975,WKO00_6B,,0,,Pacific/Auckland,,,0
14008864,8864,,16 Jeanette Pl,Hamilton City,-37.816518,175.292989,WKO00_1,,0,,Pacific/Auckland,,,0
14008866,8866,,138 Rifle Range Rd,Taupo,-38.687413,176.088087,WKO00_9C,,0,,Pacific/Auckland,,,0
14008868,8868,,27 Glen Lynne Ave,Hamilton City,-37.747234,175.267942,WKO00_1,,0,,Pacific/Auckland,,,0
14008869,8869,,Opp 219 Borman Rd,Hamilton City,-37.7217643517693,175.268043755566,WKO00_1,,0,,Pacific/Auckland,,,0
14008879,8879,,Opp Onewhero (Proposed),,-37.331216198145,174.90914195428,WKO00_5A,,0,,Pacific/Auckland,,,0
14008880,8880,,50 Brookfield St,Hamilton City,-37.800981,175.300109,WKO00_1,,0,,Pacific/Auckland,,,0
14008882,8882,,59 Cumberland Dr,Hamilton City,-37.724613,175.247642,WKO00_1,,0,,Pacific/Auckland,,,0
14008883,8883,,3 Grange Ave,Hamilton City,-37.779449,175.237572,WKO00_1,,0,,Pacific/Auckland,,,0
14008887,8887,,38 Snell Dr,Hamilton City,-37.759372,175.293171,WKO00_1,,0,,Pacific/Auckland,,,0
14008888,8888,,435 Kahikatea Dr,Hamilton City,-37.803122,175.246117,WKO00_1,,0,,Pacific/Auckland,,,0
14008891,8891,,Opp 205 Silverdale Rd (opp Uni Gate 3B),Hamilton City,-37.782955,175.320144,WKO00_1,,0,,Pacific/Auckland,,,0
14008893,8893,,52 Endeavour Ave,Hamilton City,-37.735149,175.256592,WKO00_1,,0,,Pacific/Auckland,,,0
14008955,8955,,Opp 164 Peachgrove Rd (Rail Crossing),Hamilton City,-37.777883,175.298707,WKO00_1,,0,,Pacific/Auckland,,,0
14008959,8959,,Cook St (hail2ride),Cambridge,-37.900343,175.476417,WKO00_3C,,0,,Pacific/Auckland,,,0
14008962,8962,,15 Government Rd (near Lily St),Raglan,-37.797559,174.877971,WKO00_4E,,0,,Pacific/Auckland,,,0
14008967,8967,,Te Rapa Rd (opp Harvey Norman),Hamilton City,-37.742267,175.227996,WKO00_1,,0,,Pacific/Auckland,,,0
14008969,8969,,16 Naylor St,Hamilton City,-37.79979,175.295439,WKO00_1,,0,,Pacific/Auckland,,,0
14008970,8970,,AC Baths and Thermal Hot Pools,Taupo,-38.67783333,176.0942472,WKO00_9C,,0,,Pacific/Auckland,,,0
14008975,8975,,5 Wallis St,Raglan,-37.799121,174.868901,WKO00_4E,,0,,Pacific/Auckland,,,0
14008979,8979,,6 Taniwha St (Pak n Save),Taupo,-38.685633,176.07406,WKO00_9C,,0,,Pacific/Auckland,,,0
14008982,8982,,64 Galloway St,Hamilton City,-37.798561,175.30403,WKO00_1,,0,,Pacific/Auckland,,,0
14008985,8985,,62 Morrinsville Rd,Hamilton City,-37.799478,175.327572,WKO00_1,,0,,Pacific/Auckland,,,0
14008986,8986,,Clem Newby Rd (Diversion Temp Stop),Hamilton City,-37.7484678854523,175.226468988127,WKO00_1,,0,,Pacific/Auckland,,,0
14008989,8989,,1 Claude St,Hamilton City,-37.77341,175.284605,WKO00_1,,0,,Pacific/Auckland,,,0
14008991,8991,,54 Snell Dr,Hamilton City,-37.760262,175.290605,WKO00_1,,0,,Pacific/Auckland,,,0
14008996,8996,,Opp Custom St (Proposed),,-37.2037554548,174.90949967722,WKO00_6A,,0,,Pacific/Auckland,,,0
1704,,,Mangaharakeke Dr,,-37.756035,175.230474,,,0,,Pacific/Auckland,,,0
3251,,,Wintec,,-37.757029,175.23036,,,0,,Pacific/Auckland,,,0
