stop_id,stop_name,stop_desc,zone_id,stop_url,stop_lon,stop_lat
1,Turku,,,,22.268116,60.457006
2,Parainen (keskusta),,,,22.30131,60.306671
3,Lillmälö (Parainen),,,,22.112741,60.2356
4,Prostvik (Nauvo),,,,22.09791,60.2225
5,Nauvo (keskusta),,,,21.909252,60.192696
6,Retais (Korppoo),,,,21.69128,60.165932
7,Galtby (Korppoo),,,,21.585506,60.185459
8,Kittuis (Houtskari),,,,21.438494,60.186813
9,Roslax (Houtskari),,,,21.334612,60.233414
10,Kivimo (Houtskari),,,,21.335678,60.235104
11,Mossala sund (Houtskari),,,,21.40597,60.268883
12,Dalen (Iniö),,,,21.371466,60.381573
13,Norrby (Iniö),,,,21.38699,60.396778
14,Jumo (Iniö),,,,21.369955,60.411625
15,Heponiemi (Kustavi),,,,21.435049,60.485214
16,Taivassalo,,,,21.603249,60.564495
17,Merimasku,,,,21.913502,60.458736
18,Naantali,,,,22.030373,60.463799
19,Seili,,,,21.955162,60.23642
20,Hanka (Rymättylä),,,,21.968849,60.285774
21,Hämmärönsalmi (Aasla),,,,21.961533,60.313774
22,Hämmärönsalmi (Airismaa),,,,21.963299,60.316238
23,Rymättylä,,,,21.947077,60.373505
24,Korppoo (keskusta),,,,21.562193,60.162815
25,Korpoström (Korppoo),,,,21.600191,60.111019
26,Galtby tienhaara (Korppoo),,,,21.593702,60.179066
27,Träsk (Houtskari),,,,21.342758,60.213593
28,Näsby (Houtskari),,,,21.372257,60.222858
29,Pärnäs (Nauvo),,,,21.704924,60.163769
30,Björkö (Houtskari),,,,21.405907,60.265533
31,Mossala (Houtskari),,,,21.439211,60.288834
32,Skagen (Iniö),,,,21.368523,60.406006
33,Kannvik (Iniö),,,,21.396416,60.439201
34,Hakkenpää,,,,21.613609,60.499218
35,Teersalo,,,,21.693819,60.467415
36,Mietoinen,,,,21.916021,60.617271
37,Lieranta,,,,21.865244,60.507347
572,Åva (Brändö),,,,21.0559844971,60.5028921287
573,Vuosnainen (Kustavi),,,,21.2471311167,60.50724871
574,Jurmo,,,,21.0743200779,60.5161383332
575,Lappo I,,,,20.9957313538,60.3174497374
576,Asterholma,,,,21.0348272324,60.3043137156
577,Björkö,,,,20.9413576126,60.3110311763
578,Kumlinge,,,,20.7893943787,60.2905130799
579,Enklinge,,,,20.751285553,60.3182360307
580,Snäckö,,,,20.7263946533,60.2193549362
581,Seglinge,,,,20.7097434998,60.2153047928
582,Sottunga,,,,20.6821060181,60.1100392117
583,Husö,,,,20.8074188232,60.0650117844
584,Kyrkogårdsö,,,,20.8250999451,60.030429078
585,Kökar,,,,20.8930778503,59.9465863469
586,Överö P,,,,20.5106592178,60.1114506742
587,Bergö,,,,20.3929424286,60.162735502
588,Svinö,,,,20.2653551102,60.0668748792
589,Degerby (Föglö),,,,20.3865480423,60.0317367659
590,Hummelvik (Vårdö),,,,20.4132843018,60.2245980628
591,Lappo L,,,,20.9523010254,60.3113500088
592,Överö E,,,,20.52713871,60.0766169371
593,Embarsund,,,,20.5263233185,60.0743047969
594,Ängö,,,,20.2945804596,60.1540227211
595,Långnäs P,,,,20.2891731262,60.1531256861
596,Sandö,,,,20.3735876083,60.3207860407
597,Simskäla,,,,20.3652191162,60.3316213622
598,Prästö,,,,20.2720928192,60.2081412095
599,Töftö,,,,20.2778434753,60.2059235928
600,Torsholma L,,,,21.0377883911,60.3571869556
601,Maarianhamina,,,,19.9279975891,60.0924550185
602,Hammarland,,,,19.7399425507,60.2165412054
603,Eckerö,,,,19.5364379883,60.225493147
604,Godby,,,,19.99047,60.231662
605,Geta,,,,19.846209,60.377435
606,Saltvik,,,,20.061962,60.275738
607,Sund,,,,20.0831794739,60.2381069715
608,Lemland,,,,20.0873851776,60.069101889
609,Vartsala (Kustavi),,,,21.3192296378,60.5409557363
610,Långnäs E,,,,20.2998161316,60.1169248656
611,Risteys Svinövägen,,,,20.2572011947632,60.0859066804419
612,Risteys Stickvägen,,,,20.2722215652466,60.1091837504638
613,Risteys Vårdö,,,,20.3735446929932,60.2424951029111
617,Risteys Sund,,,,20.0414228439331,60.2460733380818
618,Risteys Maarianhamina,,,,19.9338340759277,60.1139098962199
619,Kivimaa (Kustavi),,,,21.3366079330444,60.542698920157
620,Risteys Kustavintie,,,,21.3923120498657,60.5465608470324
621,Risteys Iniöntie,,,,21.4571571350098,60.5363880040719
9216,Vaala,,,,26.8982449465,64.3407788293
9217,Rääkkylä,,,,29.5666584934,62.3905758774
9214,Tirmo,,,,25.8990606281,60.2465199569
9215,Huikku (Hailuoto),,,,25.0679665398,65.0374795465
9212,Kuparonvirta,,,,27.8497901265,61.554855163
9213,Puutossalmi,,,,27.755784209,62.7223475666
9210,Puumala,,,,28.1708362588,61.4529346099
9211,Kortesalmi,,,,27.8400668639,62.9056066242
9264,Maisaari,,,,21.8939608453,60.3321887693
9265,Grönvik,,,,22.5916984227,59.9578239445
9218,Lamposaari,,,,28.3166988394,61.0963200412
9219,Ruokolahti,,,,28.3421752767,61.330018331
9133,Pensar I,,,,22.1369610228,60.1480145232
9132,Ramsholm,,,,22.184108502,60.1699888989
9131,Kuggö,,,,22.1613315761,60.1480132875
9130,Heisala,,,,22.2590089697,60.1771890628
9137,Samsaari,,,,21.826956342,60.3184274448
9136,Ruotsalainen,,,,21.764703119,60.3678579757
9135,Pakinainen,,,,21.6877390749,60.3551295763
9134,Korvenmaa,,,,21.6810804908,60.3652835232
995,Brunskär,,,,21.5011496821,60.0419955635
9139,Munninmaa,,,,21.6812997959,60.4204078323
9138,Lailuoto,,,,21.6665400359,60.454913766
9225,Högsåra,,,,22.3692049171,59.9546268517
924,Teersalo,,,,21.6939273413,60.4672592813
9250,Esthamn,,,,25.5367613357,60.239588308
992,Åselholm,,,,21.2201099002,60.4155120814
920,Pärnäs (Nauvo),,,,21.7051539869,60.1640706729
922,Roslax (Houtskari),,,,21.3351611364,60.2333965705
9526,Kongonsaari I,,,,29.0676342699,61.6835689482
9223,Svartnäs,,,,22.3952306228,59.9491288921
928,Kalkkiranta,,,,25.391655202,60.252764544
929,Spjutsund,,,,25.5105650172,60.2726680835
9222,Olofsnäs (Norrskata),,,,21.558698041,60.2165290229
9289,Gumbostrand,,,,25.2940978629,60.2555641659
9221,Hirvisalmi (saari),,,,29.3256332363,63.278332436
9401,Espoo,,,,24.7709077777116,60.1551848933061
9400,Helsinki,,,,24.954743,60.167176
9281,Granö,,,,25.2383677699,60.2335132155
9280,Kamsholmen,,,,25.2627583542,60.2209415277
9283,Opanholmen,,,,25.2914870206,60.2436754839
9220,Enonkoski,,,,28.973944087,62.1480806214
9285,Box-Hangelby strand,,,,25.3820025607,60.2688560673
9284,Majholmen,,,,25.381492906,60.2665422954
9287,Mattesö,,,,25.3230351227,60.2593578556
9286,Eriksnäs,,,,25.3463540139,60.2690454893
966,Stora Ängesö,,,,22.5062568285,59.9496938035
9227,Dalen (Iniö),,,,21.3716699172,60.3814858054
9522,Pietolansaari,,,,28.950095556,61.668466429
9120,Peno,,,,22.1018953973,60.1454813526
9121,Pensar L,,,,22.1098377486,60.1511488209
9122,Rockelholm,,,,21.8884088074,60.0998472145
9123,Sandholm,,,,21.8093197046,59.9040317549
9124,Stenskär,,,,22.0489418297,60.0712975757
9125,Seili,,,,21.9550924291,60.2364527623
9126,Trunsö,,,,21.7726161762,59.8823883137
9127,Träskholm,,,,21.7423746682,59.9134328186
9128,Ängsö,,,,21.7236501539,60.1042064848
9129,Björkholm,,,,22.236042415,60.1852031167
9269,Östra Norrkullalandet,,,,25.3687642979,60.2354295807
9268,Majholmen,,,,25.5366738316,60.2488236929
969,Vänoxa,,,,22.608835243,59.970197683
991,Ytterstö,,,,21.2643686344,60.3159432835
959,Kannvik (Iniö),,,,21.3965861689,60.4392095558
9534,Ulkoluoto (Särkisalo),,,,22.914567,60.041371
9276,Björkholmen,,,,25.3150642055,60.2357402045
993,Åvensor,,,,21.5787185571,60.2982253603
9537,Mietinsaari,,,,28.599061,61.243704
9536,Sandö,,,,22.068775,60.181128
9535,Lillandet E (Nauvo),,,,22.064178,60.179994
963,Biskopsö,,,,22.5597012904,59.9710965495
9533,Pettu,,,,22.923144,60.038432
9532,Lillandet P (Nauvo),,,,21.96964,60.198998
9531,Käldö,,,,21.968148,60.204383
9530,Kokonsaari,,,,28.7393817964,61.7820234031
990,Perkala P,,,,21.4767006975,60.3794582827
9538,Äitsaari,,,,28.610516,61.248426
9201,Bergö,,,,21.177114932,62.943923943
9199,Barölandet,,,,23.8763024579,59.9772019483
9198,Långnäs (Hiittinen),,,,22.4489303118,59.8727049409
9200,Heponiemi (Kustavi),,,,21.4347479951,60.4853216328
9195,Hämmärönsalmi (Airismaa),,,,21.963363851,60.316246647
9194,Kivimo (Houtskari),,,,21.3357640619,60.2350936721
9197,Lillmälö (Parainen),,,,22.1124118893,60.2353741181
9196,Retais (Korppoo),,,,21.691412087,60.1659144911
9191,Palva I,,,,21.675684938,60.4678779629
9190,Näsby I (Houtskari),,,,21.3957615899,60.2174389557
9193,Kokkila,,,,22.9434213602,60.3180919992
9192,Mossala E (Houtskari),,,,21.4059284723,60.268793858
9115,Knivskär,,,,21.9756369569,60.0114670452
9114,Innamo,,,,21.7524866362,60.2495422485
9117,Lökholm,,,,21.8826336909,59.9123996392
9116,Kopparholm,,,,21.9040648585,59.9679804129
9111,Grötö,,,,22.0154698886,60.079930847
9110,Byskär,,,,21.9702949688,60.0842646435
9113,Hummelholm,,,,21.7966357135,60.1008213412
9112,Gullkrona,,,,22.0831300432,60.0883120159
9278,Sandholmen (Rösö),,,,25.3247868142,60.2256398193
9205,Kesamonsaari P,,,,28.7285030053,61.8138028297
980,Södrö,,,,21.2910237995,60.2830947734
981,Södö,,,,21.1975351079,60.3259785993
9119,Nötö,,,,21.7559049426,59.9538120848
9118,Nauvo,,,,21.9118937594,60.1941244594
984,Keistiö,,,,21.3494963887,60.3722746242
985,Kolko,,,,21.4097498376,60.4186522688
9251,Simsalö,,,,25.2905539529,60.2372328879
9207,Kervinen,,,,27.9145080397,66.5802673946
9256,Tveskiftsholm,,,,21.7499735443,60.1056991448
9206,Tappuniemi,,,,28.4664971275,62.2007714133
9226,Kittuis (Houtskari),,,,21.4384526768,60.1868320892
9257,Östra Tallholmen,,,,22.1642825749,60.1602212922
9524,Laukansaari E,,,,28.8279553227,61.8087091035
9525,Kongonsaari L,,,,29.0649849495,61.6833490797
93,Hakkenpää,,,,21.6135609823,60.4992332231
9527,Ahvionsaari,,,,28.7513891453,61.7088302196
9520,Tappisaari,,,,28.5988770213,61.7430010551
9254,Fagerholm,,,,21.698386368,60.1120815988
97,Houtsala (Norrskata),,,,21.5988778207,60.2570573639
9523,Laukansaari P,,,,28.8339058892,61.8295888573
9509,Haukkasalo L,,,,25.3694282963,61.7047641723
9255,Lånholm,,,,21.7416973443,60.1213684815
9528,Ahvionniemi,,,,28.7519692616,61.7066761032
9529,Kesamonsaari E,,,,28.727528941,61.7971604872
9245,Norra Bodö,,,,25.4580574183,60.1843698916
9244,Bodö,,,,25.4411655465,60.1808281807
9108,Borstö,,,,21.9696805362,59.8620141361
9109,Brännskär,,,,21.9754313845,60.0861409912
9241,Haapasaari,,,,27.1864048519,60.2860075713
9240,Kaunissaari,,,,26.7764662136,60.3446014382
9243,Pirttisaari,,,,25.424067903,60.164658003
9242,Kirkonmaa,,,,27.0141511445,60.404726506
9102,Lillpensar,,,,21.5514119194,60.2467037429
9103,Maskinnamo,,,,21.6371702799,60.2833152839
9100,Käldersö,,,,21.4963698974,60.1647747573
9101,Kälö,,,,21.3533236293,60.0764936957
9106,Aspholm,,,,22.1754066328,60.1656302374
9107,Berghamn,,,,21.802051073,60.0541228402
9104,Utö,,,,21.3681720361,59.7865148075
9105,Österskär,,,,21.2917221311,59.9789425562
933,Skåldö,,,,23.4702944455,59.8931539418
9270,Norra norrkullalandet,,,,25.3451974804,60.2404403092
9247,Hamnholmen,,,,25.4200900468,60.1620829617
9519,Tuohisaari,,,,28.613529833,61.747806513
9518,Ritosaari I,,,,28.9841200088,61.7781031511
9246,Pirttisaari Ångbåtsbrygga,,,,25.4190219973,60.167913691
9539,Haverö,,,,22.073024,60.230834
988,Norrby (Iniö),,,,21.3901025261,60.3971885752
9511,Kevätsalmi L,,,,25.1685837119,62.7124033986
9510,Haukkasalo I,,,,25.3896774669,61.7099260596
9513,Sorpo,,,,22.282161389,60.1509843715
9512,Kevätsalmi I,,,,25.1721817746,62.7107822697
9515,Jussilansalmi,,,,28.1187122909,61.2226087665
9282,Björnsö,,,,25.2383439093,60.2500675614
9252,Björkö,,,,21.6918735214,59.9139251765
9516,Jänkäsalo,,,,28.1289312841,61.2259894861
970,Vänö,,,,22.1966947973,59.8680529921
960,Haapala (Rymättylä),,,,21.8091972816,60.3946825236
961,Pärnäs (Nauvo),,,,21.7054255707,60.1643491571
9258,Torsholma,,,,21.0710675294,60.3636880282
9259,Lempmo,,,,21.2667522976,60.3193817407
964,Bolax,,,,22.7102055021,59.9458279668
965,Holma,,,,22.3667157807,59.907921478
9179,Sävi,,,,28.497736766,61.7383918564
9178,Uittoniemi,,,,28.4662426048,62.2036540165
9177,Lappeenranta,,,,28.3235756651,61.0965474621
9176,Anttola,,,,27.8457633414,61.5542959057
9175,Koivukanta,,,,28.7276970054,61.8201712198
9174,Hätinvirta,,,,28.1673502322,61.4519740443
9173,Liperi,,,,29.5712215851,62.3942113263
9172,Hanhivirta,,,,28.9721125046,62.1495777788
9171,Vaajasalo,,,,27.836371962,62.905751279
9170,Soisalo,,,,27.7640522356,62.7204100484
9203,Ruokoniemi,,,,28.5032050912,61.7382028287
9249,Skyttenskär,,,,25.3892229083,60.2160131615
9508,Paanalansalmi P,,,,26.3066924308,62.3541196009
9253,Krok,,,,21.7355990384,60.1273822274
9248,Tredjeholmen,,,,25.4543242048,60.1872643052
9182,Taipalsaari,,,,28.3426384963,61.3259529717
9183,Ängholm,,,,21.8802489167,60.1670758308
9180,Lieviskä,,,,28.586483586,61.551642868
9181,Viljakansaari,,,,28.3854238695,61.604278504
9186,Skåldö (saari),,,,23.5111905063,59.9270772807
9187,Dalen (Iniö),,,,21.3712879136,60.3815488123
9184,Mielisholm,,,,22.3065509956,60.2153002663
9185,Palva L,,,,21.6483072178,60.4612174655
9506,Kellolampi P,,,,27.7786690496,65.3719693621
9507,Paanalansalmi E,,,,26.3098317554,62.352019542
9188,Vartsala (Kustavi),,,,21.3192296378,60.5409557363
9189,Jumo E (Iniö),,,,21.3700068013,60.4115029603
9502,Pängätsalo E,,,,26.2122133134,62.8591550604
9503,Pikkarala,,,,25.7935003052,64.9218886647
9202,Bredskar,,,,21.1868728905,62.9345325279
94,Hanka (Rymättylä),,,,21.9690973411,60.2858117581
9521,Saukonsaari,,,,28.9573857765,61.6684836463
997,Finnö,,,,21.5093680745,60.1808230365
983,Jumo I,,,,21.3936706009,60.4211070852
994,Aspö,,,,21.6142304249,59.9515455984
9402,Ahvenanmaa,,,,20.300104,60.117075
999,Järvsor,,,,21.6959059917,60.2612765088
998,Jurmo,,,,21.5847988361,59.8270971214
9168,Manamansalo,,,,26.9112003911,64.3440114895
9169,Hirvisalmi (manner),,,,29.31744252,63.2774027713
9229,Djupö,,,,22.5602774401,59.9565521455
9228,Mossala P (Houtskari),,,,21.4395417927,60.2888016653
9164,Pellinki,,,,25.9025843259,60.2450111151
9165,Kaskinen,,,,21.2195801727,62.3830611679
9166,Räisälä,,,,27.9226453285,66.5787411706
9224,Galtby (Korppoo),,,,21.5857909597,60.1854992756
9160,Kasnäs (Kemiönsaari),,,,22.4122256937,59.9210300634
9161,Kannvik (Iniö),,,,21.3961574594,60.4394313248
9162,Orslandet (Barösund),,,,23.8799115283,59.9758798886
9163,Skåldö (manner),,,,23.5074651382,59.9306418753
911,Kirjais (Nauvo),,,,22.0183492735,60.1213790297
910,Kasnäs,,,,22.4114855596,59.921239646
912,Kittuis (Houtskari),,,,21.4382221404,60.1867494196
917,Mattnäs (Nauvo),,,,21.8113360636,60.1377770248
9271,Västra norrkullalandet,,,,25.3257473345,60.2377377167
9505,Kellolampi E,,,,27.7790757819,65.3712290526
9272,Komsalö,,,,25.3529897588,60.2411883436
9273,Bärgarholmen,,,,25.3557774053,60.2544269357
9274,Sandholmen,,,,25.359638194,60.2598376918
9501,Pängätsalo P,,,,26.2369109866,62.8649681662
9275,Östra söderkullalandet,,,,25.3269816712,60.2478089647
9151,Prostvik (Nauvo),,,,22.0979547476,60.2225206005
9150,Angelniemi,,,,22.9439539048,60.3128248109
9153,Teersalo,,,,21.6938079179,60.4674190365
9152,Björkö (Houtskari),,,,21.4058980545,60.2657560131
9155,Saverkeit,,,,21.4031190442,60.2168030164
9154,Pärnäs (Nauvo),,,,21.7047231899,60.1638088243
9157,Kivimaa (Kustavi),,,,21.3362035151,60.5425903734
9156,Skagen (Iniö),,,,21.3685618335,60.4062988779
9159,Våno,,,,22.3038814779,60.2168965419
9158,Velkuanmaa,,,,21.6365762939,60.4550533523
962,Bergö,,,,22.6081068935,59.9647313999
9277,Stora svedjeholmen,,,,25.3281921236,60.2275422807
982,Äpplö,,,,21.2193652027,60.3100666128
9238,Kuusinen (Kotka),,,,26.9645880597,60.4614834904
9239,Kuutsalo,,,,27.0088354022,60.4409474081
9279,Rösö,,,,25.303884321,60.2236001481
9237,Södö ramppi,,,,21.1972912795,60.3269510423
9230,Prostvik (Nauvo),,,,22.0982753584,60.222363753
9231,Lillmälö (Parainen),,,,22.1126174114,60.2353340443
9232,Galtby (Korppoo),,,,21.5856110153,60.1853768135
9233,Riuttu (Oulunsalo),,,,25.1962288047,65.0089452033
986,Kvarnholm,,,,21.1981095222,60.3922079453
987,Lammholm,,,,21.3145069949,60.3377360097
9322,Ytterstholm,,,,21.926575,60.119589
95,Havträsk (Norrskata),,,,21.5637691254,60.2353425462
9328,Turku,,,,22.268803,60.456853
9329,Korpoström (Korppoo),,,,21.600145,60.110967
9146,Keistiö,,,,21.3493045002,60.3724642756
9147,Aasla,,,,21.9615449556,60.313820083
9144,Liettinen,,,,21.7544042239,60.4238221972
9145,Verkan (Korppoo),,,,21.5565646209,60.1745758698
9142,Talosmeri,,,,21.6816337346,60.4570264505
9204,Eskilsö,,,,21.2159599785,62.3830495938
9140,Rauhala,,,,21.6977549317,60.4488496347
9141,Salavainen,,,,21.7086916542,60.431522881
9209,Rongonsalmi,,,,28.5797869541,61.5515219473
9208,Kietävälä,,,,28.3861030484,61.6090813551
9148,Grännäs,,,,21.8788444639,60.1697266631
9149,Roslax (Houtskari),,,,21.3348254853,60.2337846016
977,Näsby (Houtskari),,,,21.3677240829,60.2243562103
976,Nåtö,,,,21.1571862799,60.3412120751
975,Luk,,,,21.3202908057,60.151492254
974,Lempnäs,,,,21.294565927,60.3021851901
973,Härklot,,,,21.1787614695,60.3558862678
972,Bockholm,,,,21.1908815401,60.3145699486
971,Berghamn,,,,21.303361359,60.1488823044
968,Tunnhamn,,,,22.183475723,59.9282607808
996,Elvsö,,,,21.480438762,60.1385130211
979,Storpensar,,,,21.5085872213,60.2324713726
978,Själö,,,,21.1734905005,60.3748578232
92,Granvik (Parainen),,,,22.2616246199,60.1965199948
9263,Pähkinäinen,,,,21.6950410416,60.3302094617
9504,Lapinkangas,,,,25.7969469038,64.9230057825
9262,Tammisluoto,,,,21.7377924785,60.4107768508
9261,Kettumaa,,,,21.6903364276,60.4034281775
9514,Attu,,,,22.2854583042,60.1504573035
989,Perkala E,,,,21.474109136,60.3672750273
9260,Salmis,,,,21.2866518935,60.3205590603
9517,Ritosaari L,,,,28.982365579,61.7769735348
9267,Helsingholm,,,,22.2823671467,60.0307119538
967,Taalintehdas (Kemiönsaari),,,,22.5062013671,60.0190809782
9266,Bötesö,,,,22.6102335836,59.9448739387
38,Läntinen Rantakatu 37,,,,22.250588089228,60.443045165928
9540,Kauppatori (Korkeasaaren laituri),,,,24.9548262919752,60.1670541143016
9541,Korkeasaari,,,,24.979329,60.174952
9542,Hakaniemi (Saaristoliikennelaituri),,,,24.954964,60.177732
9543,Haukilahden saaristovenelaituri,,,,24.7709117312781,60.1551908236559
9544,Kivenlahden saaristovenelaituri,,,,24.621322,60.156648
9545,Matinkylän saaristovenelaituri,,,,24.7553570828167,60.1482944858266
9546,Otaniemen saaristovenelaituri,,,,24.838728,60.185695
9547,Pentalan saaristovenelaituri,,,,24.674558,60.107143
9548,Ristiniemen saaristovenelaituri,,,,24.643861,60.137037
9549,Suomenojan saaristovenelaituri,,,,24.720015,60.145733
9550,Suinonsalmen saaristovenelaituri,,,,24.696276,60.128059
9551,Soukan saaristovenelaituri,,,,24.648134,60.135081
9552,Iso Vasikkasaari,,,,24.761862,60.143126
9553,Stora Herrö,,,,24.6655085879607,60.0888266579426
9554,Rövaren,,,,24.682748,60.085686
9555,Gåsgrundet,,,,24.748759,60.094362
9556,Kauppatori (Isosaaren laituri),,,,24.955411,60.167121
9557,Isosaari,,,,25.062375,60.105793
9558,Herttoniemen saaristovenelaituri,,,,25.0324437586787,60.1849221070348
9559,Laajasalon saaristovenelaituri,,,,25.0673602217387,60.1791648957009
9560,Vartiosaari,,,,25.068688,60.180172
9561,Kivisaari,,,,25.11855,60.174602
9562,Iiluoto,,,,25.1292224103159,60.1816236048071
9563,Satamasaari,,,,25.118749,60.179262
9564,Leikosaari,,,,25.152635,60.171138
9565,Vuosaaren saaristovenelaituri,,,,25.146652,60.199743
9566,Hakaniemen laituri,,,,24.954964,60.177732
9567,Vasikkasaari,,,,25.0159403366236,60.1524298134269
9568,Lonna,,,,24.9903145540685,60.154981995038
9569,Tykistölahti,,,,24.987642,60.145117
9570,Kuninkaanportti,,,,24.989867,60.139956
9571,Kauppatori (Kolera-allas),,,,24.95325,60.167408
9572,Kaunissaari (Sipoo),,,,25.345412,60.173671
9573,Kalkkihiekantorin laivalaituri,,,,25.140902,60.199305
9574,Ehrenströmintie (Klippanin laituri),,,,24.961358,60.159533
9575,Klippan,,,,24.963852,60.15962
9576,Merisatama,,,,24.941933,60.153577
9577,Sirpalesaari,,,,24.9410772693149,60.1519844812255
9578,Ehrenströmintie (Valkosaaren laituri),,,,24.961103,60.159796
9579,Valkosaari,,,,24.963112,60.161179
9581,Pihlajasaari,,,,24.916212,60.140197
9582,Ruoholahti (Kellosaaren laituri),,,,24.91165,60.161528
9583,Kauppatori (Laituripaikka 4),,,,24.953576,60.166847
9584,Stansvik,,,,25.028461,60.162773
9585,Jollas (Villinginsalmenpolku),,,,25.091739,60.159603
9586,Kompassitorin laituri,,,,24.9503,60.15521
9587,Uunisaari,,,,24.952248,60.153606
9588,Liuskasaari,,,,24.947067,60.151857
9589,Liuskaluoto,,,,24.946512,60.15301
9590,Meripuiston laituri,,,,24.946372,60.154522
9591,Vallisaari,,,,25.006997,60.140344
