stop_id,stop_code,stop_name,stop_lat,stop_lon,zone_id,stop_url,location_type,parent_station
0005AMB,,Ambassadeur,-1.285963,36.826048,,,1, 
0006BSS,,Bus Station,-1.287191,36.828881,,,1, 
0007COM,,Commercial,-1.284282,36.826188,,,1, 
0512BST,,Bus Station,-1.287281,36.828863,,, ,0006BSS
0512BSN,,Bus Station,-1.287635,36.829215,,, ,0006BSS
0512BSL,,Bus Station,-1.287229,36.829477,,, ,0006BSS
0512CML,,Commercial Imara,-1.284306,36.826257,,, ,0007COM
0512CMC,,Commercial,-1.283947,36.826437,,, ,0007COM
0512AMU,,Ambassadeur,-1.285315,36.825615,,, , 
0512ESC,,Easy Coach/Uchumi,-1.289218,36.828251,,, , 
0512EAS,,Easy Coach/Uchumi,-1.288854,36.828734,,, , 
0001RLW,,Railways Terminus,-1.290884,36.828242,,,1, 
0512RLW,,Railways,-1.290352,36.828268,,, ,0001RLW
0513KWR,,Kware,-1.396812,36.75024,,, , 
0412KNC,,Kencom,-1.28589,36.82429,,, , 
6050GPO,,GPO,-1.28604,36.818211,,, , 
0502AMB,,Ambassadeur,-1.2854,36.825803,,, , 
0501KPU,,Kenya Polytechnic Bus Stop,-1.292001,36.822352,,, , 
0501KBL,,Kobil Haile Selassie,-1.29335,36.820878,,, , 
0501KAB,,Makaburini,-1.29955,36.824716,,, , 
0511NYS,,Nyayo Stadium/Nairobi West Stage,-1.305554,36.825028,,, , 
0501WEB,,West End Bar/Barclays,-1.30734,36.82366,,, , 
0511NWT,,Nairobi West Stage,-1.307386,36.822896,,, , 
0501DSC,,Discount,-1.307496,36.822293,,, , 
0501WEM,,West Mall,-1.30939,36.82225,,, , 
0501MIL,,Miller Estate,-1.31174,36.82004,,, , 
0501CIV,,Civil Servants,-1.31213,36.81927,,, , 
0501MOE,,Moi Educational Centre,-1.31337,36.81898,,, , 
0501KSB,,Kenya Society For The Blind,-1.31425,36.81831,,, , 
0501SPR,,Space Apartments,-1.31397,36.81782,,, , 
0501MAG,,Magharibi/Kogo Star,-1.3137,36.81747,,, , 
0503TMO,,T-Mall,-1.31297,36.81666,,, , 
0501KDO,,Kodi I,-1.307651,36.821316,,, , 
0501KDT,,Kodi Ii,-1.307474,36.820249,,, , 
0501MKS,,Madaraka Shopping Centre,-1.30682,36.81779,,, , 
0501NMD,,Nhc Flats/Madaraka Primary School,-1.30685,36.81659,,, , 
0511SUP,,7Up,-1.30738,36.81491,,, , 
0503STS,,Strathmore/Siwaka,-1.30875,36.81233,,, , 
0500STR,,Strathmore University/Siwaka,-1.30874,36.81251,,, , 
0500SUP,,7Up,-1.30742,36.81474,,, , 
0500MPS,,Madaraka Primary School,-1.30691,36.81627,,, , 
0500MSC,,Madaraka Shopping Centre,-1.30683,36.81867,,, , 
0511MAD,,Madaraka Flyover Stage,-1.307736,36.819463,,, , 
0501TML,,Shell/T-Mall,-1.311067,36.817232,,, , 
0501WIL,,Wilson Airport/Shell,-1.316647,36.813418,,, , 
0501AMR,,Amref,-1.319163,36.810873,,, , 
0501DME,,Dam Estate,-1.322802,36.804624,,, , 
0501UCH,,Carnivore/Uchumi Hyper,-1.323222,36.802134,,, , 
0511LGT,,Lang'Ata,-1.328457,36.789744,,, , 
0511BRK,,Barracks,-1.331919,36.78354,,, , 
0500LGS,,Lang'Ata Road Stage/St. Mary'S H,-1.332642,36.78224,,, , 
0500PCA,,Pcea Junction,-1.33063,36.7805,,, , 
0511OPR,,Nairobi National Park/Orphanage,-1.334299,36.779501,,, , 
0501LGC,,Lang'Ata Cemetery,-1.334967,36.778186,,, , 
0501WCK,,Wck,-1.338157,36.773563,,, , 
0501BMS,,Bomas/Ongata Rongai Junction,-1.343149,36.766709,,, , 
0501NNP,,Nairobi National Park Gate,-1.348156,36.764887,,, , 
0511CUE,,Cuea,-1.352203,36.762892,,, , 
0511TOL,,Acacia/Total,-1.355979,36.762093,,, , 
0501MRG,,Maro Gardens,-1.358862,36.762636,,, , 
0501BDS,,Banda School,-1.365629,36.766651,,, , 
0501MKR,,Mukoma Road,-1.372141,36.76862,,, , 
0511MMU,,Multimedia University,-1.381962,36.770612,,, , 
0501HCC,,Hashi/Visions Of Glory Church,-1.390667,36.766832,,, , 
0501NIB,,Nibs/Ongata Rongai,-1.391825,36.76594,,, , 
0511MSL,,Uchumi/Masai Mall/Ongata Rongai,-1.394366,36.764355,,, , 
0501RNG,,Tumaini/Ongata Rongai,-1.395227,36.763723,,, , 
0511KOB,,Kobil,-1.395939,36.762455,,, , 
0501STM,,St.Mary'S Ccatholic Church,-1.3963,36.761664,,, , 
0501ONM,,Tyme Arcade/Ongata Mall,-1.397174,36.759599,,, , 
0501RNP,,Ongata Police Station/Nyotu,-1.397304,36.756748,,, , 
0501KNL,,Kenol,-1.3972,36.755415,,, , 
0511TUS,,Legend/Tuskys,-1.397014,36.753156,,, , 
0501WMN,,Nairobi Womens,-1.396517,36.746185,,, , 
0501OLR,,Olerai,-1.396351,36.744019,,, , 
0501LSR,,Laiser Hill,-1.39564,36.734614,,, , 
0501EXC,,Exciting,-1.395455,36.731754,,, , 
0501ACA,,Acacia,-1.398809,36.725319,,, , 
0501ADV,,Adventist University,-1.401103,36.722692,,, , 
0501NKO,,Nkoroi White House,-1.404555,36.7175,,, , 
0501PCE,,Kanisani/Pcea,-1.407454,36.714424,,, , 
0501RIM,,Rimpa,-1.418404,36.708186,,, , 
0501NLP,,Nalepo,-1.420524,36.703624,,, , 
0501KSG,,Kiserian Girls/Kwa Maji,-1.423356,36.696028,,, , 
0501KMT,,Kiserian Market,-1.429587,36.685779,,, , 
0501KIS,,Kiserian,-1.429062,36.686887,,, , 
0513TER,,Kiserian Terminus,-1.42964,36.685808,,, , 
0510KSM,,Kiserain Nairobi Bus Stop,-1.429533,36.685794,,, , 
0500KSR,,Kiserian,-1.42973,36.687204,,, , 
0500TRN,,Triangle,-1.426975,36.691508,,, , 
0500KJI,,Kwa Maji,-1.423343,36.695863,,, , 
0500GCG,,Gichagi,-1.425355,36.693466,,, , 
0500KHN,,Kahungo,-1.422616,36.697947,,, , 
0500HSM,,Horse Man,-1.421689,36.700664,,, , 
0500NYT,,Nyati,-1.420839,36.702737,,, , 
0500NLP,,Nalepo,-1.420443,36.703693,,, , 
0500KRT,,Kwa Ratio,-1.420068,36.704601,,, , 
0500MSR,,Mashuria,-1.41932,36.70625,,, , 
0500RMP,,Rimpa,-1.417618,36.709066,,, , 
0500NGA,,Kwa Njenga,-1.414989,36.711049,,, , 
0500KMR,,Kamura,-1.41005,36.712277,,, , 
0500KAN,,Kanisani,-1.407446,36.714446,,, , 
0500FLT,,Flats,-1.405433,36.716555,,, , 
0500WTH,,White House,-1.403785,36.718293,,, , 
0500BRM,,Barabara Mpya,-1.401294,36.72223,,, , 
0500ACA,,Acacia,-1.398926,36.725188,,, , 
0500MGC,,Magacia,-1.395882,36.729181,,, , 
0500EXC,,Exciting,-1.395422,36.731633,,, , 
0500KKM,,Kwa Kimani/Laiser,-1.395561,36.73389,,, , 
0500BPS,,Baptist,-1.39569,36.735542,,, , 
0500CLX,,Caltex,-1.39586,36.737801,,, , 
0500MLN,,Millenium,-1.395977,36.739571,,, , 
0500PLC,,Places,-1.396056,36.740775,,, , 
0500OLR,,Olerai,-1.396309,36.743885,,, , 
0500FTM,,Fatima,-1.396363,36.744656,,, , 
0500NBW,,Nairobi Women,-1.396461,36.74589,,, , 
0510KWR,,Kware,-1.396708,36.74965,,, , 
0510TKY,,Tuskys,-1.396979,36.753322,,, , 
0500NTU,,Nyotu,-1.397259,36.756804,,, , 
0510NST,,Naston,-1.397324,36.758091,,, , 
0500BAR,,Barclays,-1.397279,36.759171,,, , 
0500MGT,,Mbagathi,-1.396507,36.761035,,, , 
0510KOB,,Kobil,-1.395972,36.762187,,, , 
0500RNG,,Rongai,-1.395231,36.763465,,, , 
0510MSL,,Masai Lodge,-1.390278,36.766859,,, , 
0500MMU,,Mmu/Posta,-1.382143,36.770575,,, , 
0510BKM,,Mukoma Road,-1.371589,36.768246,,, , 
0510SBR,,Sembe Road,-1.36835,36.767615,,, , 
0500BDS,,Banda School,-1.365823,36.766645,,, , 
0500CAM,,Cambridge,-1.363635,36.765271,,, , 
0500SWR,,Swara,-1.35927,36.762587,,, , 
0510PKP,,Park Place,-1.356103,36.76206,,, , 
0500CUE,,Cuea/Bogani,-1.352263,36.76287,,, , 
0500CON,,Consolata,-1.346721,36.765356,,, , 
0500BMS,,Bomas,-1.343352,36.766513,,, , 
0500HST,,Hostel,-1.338413,36.773181,,, , 
0500ORP,,Orphanage,-1.33317,36.781317,,, , 
0510BRC,,Lang'Ata Barracks,-1.331629,36.783604,,, , 
0510LGT,,Langata/Mobil,-1.328715,36.788743,,, , 
0501PCA,,Pcea Junction,-1.33044,36.7804,,, , 
0501CHF,,Chiefs,-1.32656,36.78027,,, , 
0511OTD,,Otiende,-1.32339,36.77992,,, , 
0501KND,,Kanga Road,-1.32344,36.77866,,, , 
0501MSQ,,Mosque,-1.32325,36.77734,,, , 
0513LNT,,Terminal,-1.32191,36.77438,,, , 
0510OTD,,Otiende,-1.32347,36.77994,,, , 
0500LNP,,Langata Primary,-1.32497,36.77997,,, , 
0500MBK,,Maboko Road,-1.3299,36.78175,,, , 
0500SPM,,St.Peters Methodist,-1.32759,36.7851,,, , 
0500MUG,,Mugumoini Market,-1.32541,36.78534,,, , 
0500TAC,,Talent Academy,-1.32455,36.78566,,, , 
0510CIV,,Civil Servant Stage,-1.324073,36.785992,,, , 
0500SLE,,Southland Estate,-1.32307,36.78683,,, , 
0500MAS,,Malezi School,-1.32254,36.78869,,, , 
0500PHG,,Phase 4 Gate,-1.32384,36.79001,,, , 
0500EQT,,Equity Bank,-1.32677,36.78961,,, , 
0500OIL,,Oilibya Petrol Station,-1.32719,36.78908,,, , 
0500LHP,,Lang'Ata Hospital,-1.32774,36.78908,,, , 
0510HQS,,Hq/Headquaters,-1.324143,36.797008,,, , 
0510KAS,,Deliverance Church/Kanisani,-1.323677,36.798897,,, , 
0510CAN,,Carnivore/Rafikiz,-1.323061,36.802046,,, , 
0500DMS,,Dam Estate,-1.32263,36.804756,,, , 
0510AMR,,Amref,-1.319403,36.81053,,, , 
0510LGP,,Langata Road Primary School,-1.317562,36.812316,,, , 
0510WIL,,Wilson,-1.315626,36.814272,,, , 
0510TML,,T-Mall,-1.311276,36.816904,,, , 
0510MFL,,Madaraka Flyover,-1.307844,36.819182,,, , 
0510NYS,,Nyayo Stadium,-1.305411,36.824418,,, , 
0511IND,,Industrial Area,-1.298461,36.828025,,, , 
0501INR,,Industrial Area Round About,-1.297876,36.829255,,, , 
0511MCH,,Dunga Road/ Machakos,-1.299774,36.830073,,, , 
0511CNG,,Car & General,-1.303313,36.831886,,, , 
0501BAN,,Bandari,-1.304526,36.832493,,, , 
0501DAR,,Dar-Es-Salaam,-1.305716,36.833025,,, , 
0511MAT,,Mater Hospital,-1.307218,36.833505,,, , 
0511MAK,,Makueni,-1.308527,36.833775,,, , 
0511MER,,Meridian,-1.310739,36.834026,,, , 
0501MKN,,Mariakani,-1.310703,36.835427,,, , 
0501SGC,,South Gate Centre,-1.310699,36.836801,,, , 
0501MQE,,Mosque,-1.311314,36.838391,,, , 
0501RIA,,Kariba Estate,-1.311496,36.840821,,, , 
0501SVK,,St.Veronica Ack,-1.312392,36.842398,,, , 
0501RTI,,Railway Training Institute,-1.313674,36.842114,,, , 
0501SBD,,South B Dispensary,-1.316795,36.84286,,, , 
0501BAL,,Balozi,-1.318073,36.846677,,, , 
0501BLZ,,Balozi,-1.319831,36.848046,,, , 
0501PVW,,Parkview/Winners,-1.320817,36.849409,,, , 
0501DPE,,Diamond Park Estate,-1.319745,36.851265,,, , 
0500DPE,,Diamond Park Estate,-1.319895,36.851233,,, , 
0500WNN,,Winners,-1.320817,36.84928,,, , 
0500BLZ,,Balozi,-1.319938,36.848003,,, , 
0500JCC,,JCC Church,-1.318206,36.846642,,, , 
0501KPT,,Kapiti Junction,-1.310729,36.837755,,, , 
0501MCU,,Mchumbi Road,-1.311592,36.838334,,, , 
0511MCU,,Mchumbi Road,-1.311857,36.838319,,, , 
0511KRU,,Karuku,-1.313484,36.838284,,, , 
0511PLV,,Plains View Primary,-1.315158,36.838304,,, , 
0501GTH,,Githeri Rise,-1.316523,36.838543,,, , 
0501SRI,,Sori,-1.317606,36.83873,,, , 
0501MSA,,Mombasa Road,-1.318342,36.83873,,, , 
0501SNA,,Sana Sana,-1.318786,36.84101,,, , 
0501OLS,,Our Lady Secondary,-1.317707,36.847369,,, , 
0501HAZ,,Hazina Estate,-1.31603,36.848409,,, , 
0503HZM,,South B Mwisho,-1.315186,36.848477,,, , 
0500HZS,,South B Stage,-1.315634,36.848468,,, , 
0500HAZ,,Hazina Estate,-1.316141,36.848465,,, , 
0500OLS,,Our Lady Secondary,-1.31782,36.847343,,, , 
0500BAL,,Balozi,-1.318126,36.846641,,, , 
0500PLV,,Plainsview Phase 5,-1.318531,36.845042,,, , 
0500PVE,,Plainsview Education Point,-1.319592,36.841317,,, , 
0500SNA,,Sana Sana,-1.31882,36.840906,,, , 
0510MSA,,Mombasa Road,-1.318227,36.838593,,, , 
0510KPT,,Kapiti Crescent,-1.313471,36.83826,,, , 
0510MCU,,Mchumbi Road,-1.311661,36.838182,,, , 
0510SMC,,South B Mchumbi Road,-1.311709,36.836589,,, , 
0500VUM,,Vumira House,-1.311478,36.8353,,, , 
0500TAB,,Kanisa Mabati,-1.310757,36.835206,,, , 
0500MAR,,Marmanet House,-1.310343,36.833681,,, , 
0510ARK,,Ark Junction,-1.309252,36.833673,,, , 
0500KOB,,Kobil,-1.307247,36.833344,,, , 
0510VCT,,Mary Immaculate Vct Centre,-1.306512,36.833055,,, , 
0510CNG,,Car & General,-1.303541,36.831838,,, , 
0500MCH,,Machakos Road,-1.300146,36.830092,,, , 
0510NWT,,Nairobi Water,-1.298922,36.829458,,, , 
0500MAT,,Mater Hospital,-1.299133,36.826856,,, , 
0501NYY,,Nyayo,-1.305844,36.827054,,, , 
0511IFC,,The Office,-1.309533,36.828803,,, , 
0511CPC,,Capital Centre,-1.316765,36.833987,,, , 
0511BLV,,Belleview,-1.319354,36.838339,,, , 
0501MRT,,Mombasa Road Turnoff,-1.321916,36.842236,,, , 
0501OIN,,Oilibya/Nema,-1.319809,36.837822,,, , 
0501NEK,,Nema/Mavuno,-1.320611,36.837315,,, , 
0501RCK,,Redcross/Kipi,-1.322266,36.833311,,, , 
0501KRD,,Kirdi/Southend Estate,-1.322499,36.831532,,, , 
0501RCR,,Red Cross,-1.3237,36.833732,,, , 
0501BMH,,Boma Hotel,-1.324381,36.83385,,, , 
0501COI,,College Of Insurance,-1.32574,36.834027,,, , 
0501MDN,,Madina Estate,-1.325505,36.835461,,, , 
0501KAD,,Kenya Assemblies Of God/Dafam Hotel,-1.325595,36.837018,,, , 
0501FRC,,Friends Court,-1.326735,36.837624,,, , 
0501ATH,,Athi House,-1.327344,36.837894,,, , 
0501AMB,,Amboseli Estate,-1.327511,36.839018,,, , 
0503HWY,,Highway Estate,-1.326008,36.840219,,, , 
0500ABL,,Amboseli Estate,-1.327429,36.839051,,, , 
0500AHS,,Athi House,-1.327292,36.83785,,, , 
0500FCT,,Friends Court,-1.326778,36.837615,,, , 
0500DAK,,Dafam Hotel/Kenya Assemblies Of God,-1.325705,36.837034,,, , 
0500MIN,,Madina Estate,-1.325513,36.835581,,, , 
0500COC,,College Of Insurance,-1.325724,36.834001,,, , 
0500GOE,,Garden 1 Estate,-1.325958,36.832582,,, , 
0500AME,,Al-Mukaram Estate,-1.326178,36.831067,,, , 
0500MPF,,Mugoya Phase 4,-1.325135,36.830784,,, , 
0500KLB,,KLB,-1.324394,36.830671,,, , 
0501AKL,,Akila/Akila Police Post,-1.322649,36.830285,,, , 
0503CNA,,Container/New Apostolic Church,-1.322103,36.82881,,, , 
0500MGY,,Mugoya,-1.321518,36.828972,,, , 
0500KME,,Kma Estate,-1.320531,36.829166,,, , 
0500MGA,,Mugoya Phase 1,-1.319535,36.829339,,, , 
0500MOW,,MOW,-1.318489,36.829564,,, , 
0500CIT,,Cid Training School,-1.317071,36.829826,,, , 
0500RRN,,Rumi Road/Ngara Sports Club,-1.316231,36.827854,,, , 
0500SAT,,Shee Ambaji Temple,-1.315905,36.826178,,, , 
0500WAT,,South C Turnoff/Water,-1.315526,36.824171,,, , 
0500MIO,,Madina Shops,-1.31467,36.823189,,, , 
0500SFA,,Southern First Assemblies Of God,-1.31353,36.823518,,, , 
0500MSQ,,Mosque,-1.312593,36.823773,,, , 
0500PCH,,Milele Nairobi Pcea Headquarters,-1.312743,36.824658,,, , 
0500MGH,,Mama Ngina Children'S Home,-1.312983,36.825767,,, , 
0500KSG,,Kenol/South C Gardens,-1.313202,36.826786,,, , 
0500SCS,,South C Shopping Centre,-1.313348,36.827699,,, , 
0511PST,,Park Side Towers,-1.324879,36.847687,,, , 
0511PNR,,Panari,-1.329531,36.855793,,, , 
0501SDG,,Standard Group,-1.330994,36.859842,,, , 
0511SMR,,Sameer,-1.330708,36.863853,,, , 
0501GMS,,GM,-1.329676,36.870983,,, , 
0513IMD,,Imara Daima,-1.3252,36.880808,,, , 
0503MZW,,Maziwa,-1.324799,36.888658,,, , 
0501IMR,,Imara Daima,-1.328381,36.881282,,, , 
0513CAB,,Cabanas,-1.331307,36.888246,,, , 
0511RDA,,Roundabout,-1.323091,36.900837,,, , 
0511NBK,,Nyayo Barracks,-1.312685,36.923157,,, , 
0501BRK,,Baracks,-1.311577,36.925461,,, , 
0511CHN,,China,-1.29351,36.943505,,, , 
0511GSU,,G.S.U,-1.289458,36.949353,,, , 
0511MHG,,Mihang'O,-1.287924,36.951816,,, , 
0511ADP,,A.P,-1.284949,36.956518,,, , 
0511KCF,,Kwa Chief,-1.282876,36.959833,,, , 
0501AMN,,Amani,-1.280458,36.964564,,, , 
0511BND,,Benedicta,-1.278746,36.96798,,, , 
0501KSN,,Kwa Stone,-1.286664,36.973706,,, , 
0511SPM,,Shopping Mall,-1.287374,36.973999,,, , 
0501ELD,,Elshadai,-1.287591,36.979692,,, , 
0513GTR,,Githunguri,-1.286566,36.982478,,, , 
0500ELD,,Elshadai,-1.289385,36.97466,,, , 
0510SKY,,Skyline,-1.284278,36.972475,,, , 
0510AMN,,Amani,-1.280986,36.963754,,, , 
0510ADP,,A.P,-1.285025,36.956587,,, , 
0510GSU,,GSU,-1.289601,36.949425,,, , 
0510BRK,,Barracks,-1.313313,36.923192,,, , 
0510TSK,,Tuskys,-1.317696,36.918819,,, , 
0510AVT,,Aviation,-1.319394,36.907426,,, , 
0510RBT,,Taj Mall Roundabout,-1.324335,36.89936,,, , 
0501TKS,,Tuskys,-1.317235,36.918239,,, , 
0501VIL,,Embakasi Village,-1.312093,36.914539,,, , 
0511GTA,,Gate A,-1.31256,36.909543,,, , 
0501GTA,,Gate A,-1.31193,36.90889,,, , 
0501GTD,,Gate D,-1.308442,36.90956,,, , 
0503PEV,,Posta Embakasi Village,-1.308323,36.911462,,, , 
0500EVP,,Village Police,-1.309972,36.913061,,, , 
0500KEA,,Kemsa,-1.314942,36.916668,,, , 
0500TKS,,Tuskys,-1.31705,36.918138,,, , 
0500RAJ,,Roundabout Jeshi,-1.313294,36.923292,,, , 
0501TFS,,Tuffsteel,-1.337222,36.894932,,, , 
0501APJ,,Airport Junction,-1.344124,36.902578,,, , 
0501NNL,,Nice N Lovely,-1.354464,36.90663,,, , 
0511KAP,,Kapa,-1.363709,36.910514,,, , 
0501NTN,,Nation,-1.372267,36.920297,,, , 
0511NTN,,Nation,-1.373004,36.92116,,, , 
0501MBT,,Mabati,-1.369525,36.917027,,, , 
0511SYK,,Syokimau,-1.379047,36.927758,,, , 
0511ALP,,Allpack,-1.382828,36.931458,,, , 
0501ALP,,Allpack,-1.384911,36.933262,,, , 
0501SYJ,,Tops/Stage Ya Juu,-1.39112,36.937976,,, , 
0511MLL,,Mlolongo,-1.393566,36.939562,,, , 
0501SYC,,Petma/Mlolongo Chini,-1.396349,36.941417,,, , 
0501MJN,,Mjengo,-1.406255,36.94663,,, , 
0501SBK,,Sabaki,-1.420016,36.954022,,, , 
0501TLL,,Toll,-1.426369,36.958794,,, , 
0511TLL,,Toll,-1.427261,36.959651,,, , 
0501SHM,,Shalom,-1.435689,36.966667,,, , 
0511SHL,,Shell/Kenol,-1.447176,36.96833,,, , 
0501MLG,,Mlangoni,-1.45005,36.968372,,, , 
0502DVK,,Devki,-1.444158,36.989459,,, , 
0501SKN,,Sokoni/Pauline,-1.44856,36.980494,,, , 
0501KMC,,KMC,-1.45239,36.979922,,, , 
0501STS,,Starsheik,-1.456219,36.979792,,, , 
0501SLM,,Sulami/Nyambura,-1.457796,36.978468,,, , 
0511MDK,,Makadara,-1.456905,36.974657,,, , 
0501VNL,,Vanillas,-1.451671,36.968198,,, , 
0501VLG,,Village,-1.453628,36.967694,,, , 
0511EPZ,,EPZ,-1.469175,36.960858,,, , 
0511TSH,,Tosha,-1.470376,36.960409,,, , 
0513KIT,,Kitengela,-1.477218,36.958032,,, , 
0510KIT,,Kitengela,-1.47715,36.957852,,, , 
0500EPZ,,Epz,-1.468748,36.96082,,, , 
0510EPZ,,Epz,-1.467201,36.961268,,, , 
0510VNL,,Vanillas,-1.451535,36.968096,,, , 
0500STS,,Starsheik Academy,-1.456165,36.979733,,, , 
0500KMC,,KMC,-1.452147,36.979849,,, , 
0500PTL,,Portland,-1.44941,36.968283,,, , 
0510SHL,,Shell,-1.447511,36.968263,,, , 
0500SNR,,Senior,-1.437106,36.966675,,, , 
0500SHM,,Shalom,-1.435524,36.966542,,, , 
0501NMJ,,Namanga Junction,-1.434982,36.971118,,, , 
0501S39,,39,-1.438724,36.978432,,, , 
0513MDK,,Makadara,-1.457376,36.974221,,, , 
0500SMI,,Sulami,-1.45773,36.978475,,, , 
0510SKN,,Sokoni,-1.448606,36.980339,,, , 
0500DVK,,Devki,-1.443505,36.989586,,, , 
0500S39,,39,-1.438963,36.978762,,, , 
0500NMJ,,Namanga Junction,-1.435993,36.972815,,, , 
0500TOL,,Toll,-1.427072,36.959096,,, , 
0500SBK,,Sabaki,-1.420315,36.953957,,, , 
0500KNC,,Kenchik,-1.411761,36.949273,,, , 
0500MJN,,Mjengo,-1.406897,36.94665,,, , 
0500SLN,,Solomon,-1.398712,36.942261,,, , 
0510SLN,,Solomon,-1.397388,36.941571,,, , 
0500SYC,,Stage Ya Chini,-1.394802,36.940013,,, , 
0510SYC,,Stage  Ya Chini,-1.394409,36.939828,,, , 
0500SYJ,,Stage Ya Juu,-1.391432,36.937822,,, , 
0500OBT,,Allpack /Orbit,-1.386374,36.933952,,, , 
0500SYK,,Syokimau,-1.379645,36.928056,,, , 
0500NTN,,Nation,-1.372404,36.920009,,, , 
0500MBT,,Mabati,-1.370161,36.917469,,, , 
0500KAP,,Kapa,-1.365397,36.911998,,, , 
0500SKR,,Syokimau Railway Station,-1.359653,36.907814,,, , 
0500RLN,,Reliance,-1.35447,36.906289,,, , 
0500APJ,,Airport Junction,-1.346604,36.902371,,, , 
0500STM,,Steel Markers,-1.337803,36.894404,,, , 
0500AAL,,Adopt Alight,-1.333549,36.889946,,, , 
0500CAB,,Cabanas,-1.331474,36.88769,,, , 
0500IMD,,Imara Daima,-1.32504,36.881211,,, , 
0510GMS,,GM,-1.330225,36.870702,,, , 
0500SMR,,Sameer,-1.331001,36.865082,,, , 
0500PNR,,Panari,-1.330143,36.855826,,, , 
0510ATL,,Airtel,-1.325894,36.848591,,, , 
0500SHL,,Shell,-1.3216,36.841329,,, , 
0510BLV,,Belleview,-1.319388,36.837713,,, , 
0500KPS,,Kongoni Primary School,-1.312282,36.828122,,, , 
0500NYY,,Nyayo,-1.305704,36.826707,,, , 
0510KAB,,Makaburini,-1.298798,36.823808,,, , 
0501BLU,,Bluesky Estate,-1.312813,36.815245,,, , 
0501APV,,Airportview Estate,-1.313913,36.812483,,, , 
0503HRS,,Highrise,-1.314683,36.808175,,, , 
0500HIG,,Highrise,-1.314623,36.808016,,, , 
0500MEM,,Memorial Hospital,-1.310274,36.805254,,, , 
0510KEF,,Kenyatta Market Flyover,-1.306232,36.803278,,, , 
0611HGH,,Highrise,-1.314068,36.807615,,, , 
0611STH,,Total/Strathmore,-1.313747,36.812359,,, , 
0512ADU,,Ambassadeur,-1.286043,36.826165,,, ,0005AMB
0512NKG,,Nakumatt Galleria,-1.342757,36.766115,,, , 
0501NPC,,Npc Karen,-1.341765,36.759372,,, , 
0511CAT,,Cuea | Catholic University,-1.341533,36.75747,,, , 
0501KNA,,Kenol/Nairobi Academy,-1.340951,36.753609,,, , 
0501AGC,,Africa Gospel Church,-1.34019,36.74827,,, , 
0501KSS,,Karen South Secondary,-1.3398,36.74556,,, , 
0501MLK,,Mega Link,-1.33959,36.744,,, , 
0501KCR,,Karen C Secondary School,-1.33938,36.74283,,, , 
0501KET,,Total Karen,-1.33895,36.73976,,, , 
0501FAR,,Fair Acres Road,-1.33871,36.73824,,, , 
0501HLC,,Hillcrest,-1.33855,36.73695,,, , 
0501HLR,,Hillcrest Road,-1.33831,36.73539,,, , 
0501KSP,,Kspca/Marist Lane,-1.33793,36.73273,,, , 
0501DBC,,Don Bosco Church,-1.33725,36.72787,,, , 
0511KNH,,Karen Hospital,-1.33697,36.72577,,, , 
0501NDG,,Ndege Road,-1.33655,36.72249,,, , 
0501ZZL,,Mazzoldi House,-1.33638,36.71988,,, , 
0511MAM,,Mamba,-1.341175,36.750551,,, , 
0511TAN,,Tangaza College,-1.348801,36.748751,,, , 
0511KAJ,,Karengata/Cuea/Jkuat Stage,-1.353995,36.746983,,, , 
0501SOL,,Kenya School Of Law,-1.359019,36.746983,,, , 
0511SOL,,Kenya School Of Law,-1.360076,36.747079,,, , 
0501BOT,,Botanical Gardens,-1.362273,36.747377,,, , 
0501MAB,,Matbronze,-1.363583,36.747385,,, , 
0501KIL,,Kilimani Junior School,-1.364492,36.745067,,, , 
0501HSB,,Hardy Shopping Centre/Beacons In,-1.366931,36.743548,,, , 
0511POL,,Hardy Shopping Centre/Hardy Police Station,-1.364842,36.742185,,, , 
0501HMA,,Hardy Manor,-1.365576,36.737851,,, , 
0501MAS,,Masai Road,-1.360855,36.729176,,, , 
0501KOD,,Kordes Roses,-1.360904,36.727629,,, , 
0501COG,,Collingham Gardens,-1.36086,36.726432,,, , 
0501MAL,,Moran Lane/Masai Lane Junction,-1.360892,36.722524,,, , 
0501MBO,,Masai Lane Bogani Lane Junction,-1.35525,36.723203,,, , 
0501CEM,,Cemastea,-1.353903,36.71309,,, , 
0501KBX,,Karen Blixen,-1.352911,36.713291,,, , 
0501TAM,,Tamambo,-1.345196,36.714403,,, , 
0501FOR,,Forest Road,-1.341346,36.714119,,, , 
0501KAE,,Karen Country Club,-1.3394,36.714824,,, , 
0501MAU,,Marula,-1.33674,36.715753,,, , 
0503KRL,,Karen Road-Lang'Ata Road Junction,-1.33314,36.71624,,, , 
0510KNH,,Karen Hospital,-1.33695,36.72591,,, , 
0500DBC,,Don Bosco,-1.33724,36.72778,,, , 
0500KSP,,Marist Lane/Kspca,-1.3378,36.73183,,, , 
0510HLC,,Hillcrest,-1.33809,36.73392,,, , 
0500HLL,,Hillcrest Lane,-1.33832,36.73564,,, , 
0500ACC,,African Conservatories Centre/Fa,-1.33866,36.73803,,, , 
0500TTK,,Total Karen,-1.33892,36.73972,,, , 
0500KCY,,Karen C Primary School,-1.33932,36.7426,,, , 
0500MSU,,Mosque,-1.33998,36.74725,,, , 
0500NBA,,Nairobi Academy,-1.340475,36.750709,,, , 
0500MKY,,Kobil/Mokoyeti Road West,-1.34093,36.754073,,, , 
0500CUV,,Cuea,-1.34149,36.757784,,, , 
0500MPK,,Npc Karen,-1.341643,36.759041,,, , 
0502BMA,,Bomas,-1.342646,36.765796,,, , 
0501LRJ,,Lang'Ata Road Junction,-1.333234,36.716255,,, , 
0501DBB,,Don Bosco Boys Training Institut,-1.326854,36.711103,,, , 
0501KCL,,Karen Catholic Church,-1.325946,36.710312,,, , 
0503KNK,,Karen/Nakumatt Crossroads,-1.323235,36.708025,,, , 
0700KEL,,Karen/Shell,-1.322047,36.707888,,, , 
0700TLF,,The Legend/Kwa Farasi,-1.321118,36.710461,,, , 
0700CRP,,Christophers,-1.318646,36.715664,,, , 
0700SHW,,Shell/Hobwogi/Motton West Road,-1.316487,36.718119,,, , 
0700MTO,,Miotoni,-1.31267,36.722468,,, , 
0700LEA,,Lenana,-1.308366,36.732493,,, , 
0710LNN,,Lenana,-1.308058,36.73344,,, , 
0700FVM,,Forest View Mall,-1.307392,36.735457,,, , 
0700RAC,,Racecourse,-1.306525,36.738683,,, , 
0700PWA,,Pathway,-1.305832,36.742077,,, , 
0700KEO,,Kenol,-1.30421,36.74671,,, , 
0700STK,,Santack Estate,-1.302958,36.750277,,, , 
0700SGR,,Showground,-1.301694,36.753688,,, , 
0700TRD,,Tankard,-1.300614,36.756625,,, , 
0700CDT,,Corner/Meteorological Department/Total,-1.299403,36.759837,,, , 
0710NKT,,Nakumatt Junction,-1.299031,36.762577,,, , 
0710BBT,,88Mph/Brew Bistro,-1.299571,36.76512,,, , 
0710IMJ,,Impala/Makini/Jamuhuri,-1.300436,36.76897,,, , 
0710POD,,Posta/Ole Odume Road,-1.300327,36.774047,,, , 
0710ADC,,Adams Arcade,-1.300006,36.780041,,, , 
0710KRD,,Kirichwa Road Junction,-1.299879,36.782118,,, , 
0710TTL,,Total Ngong Road,-1.299607,36.788665,,, , 
0700BMC,,Bishop Maigua Centre,-1.29905,36.796961,,, , 
0710CCT,,China Centre,-1.298608,36.798992,,, , 
0710CME,,Coptic /Memosa,-1.298539,36.799084,,, , 
0712KNH,,Kenyatta/Nairobi Hospital,-1.29752,36.80323,,, , 
0710TNA,,3Rd Ngong Avenue,-1.295123,36.81021,,, , 
0700NHF,,Nhif,-1.29449,36.812269,,, , 
0510AGP,,Agip,-1.291151,36.823288,,, , 
0712KNC,,Kencom,-1.28612,36.82594,,, ,0005AMB
0611GPO,,Gpo,-1.285969,36.818707,,, , 
0611SRN,,Serena,-1.288756,36.813043,,, , 
0601INT,,Integrity Centre,-1.289765,36.810258,,, , 
0611VRP,,Valley Road Pentecostal,-1.292408,36.804994,,, , 
0611DOD,,D.O.D,-1.295282,36.801229,,, , 
0611HUR,,Hurlingham,-1.294638,36.797727,,, , 
0601QUA,,Quality,-1.294109,36.795529,,, , 
0611CKA,,Chaka Place,-1.29312,36.791316,,, , 
0611YAY,,Yaya,-1.292751,36.789354,,, , 
0603YAY,,Yaya,-1.292341,36.787597,,, , 
0611KIL,,Kilimani,-1.29234,36.786012,,, , 
0601KIR,,Kirichwa,-1.292501,36.781542,,, , 
0601MON,,Montessouri,-1.292854,36.774758,,, , 
0601ARC,,Valley Arcade,-1.290004,36.770133,,, , 
0601BRB,,Braeburn,-1.289476,36.755692,,, , 
0601CNG,,Congo,-1.289143,36.753033,,, , 
0601SFK,,St.Francis/Kanisani,-1.2871,36.753376,,, , 
0601HDH,,Huduma Church/Hotel 56,-1.287819,36.753322,,, , 
0601WAR,,Warrior/Califonia,-1.284821,36.753194,,, , 
0601TWZ,,Twinkling Stars School/Zebra Bar,-1.282386,36.752367,,, , 
0611MKF,,Mkombozi/Fraemy Supermarket,-1.281142,36.751916,,, , 
0603KNG,,Kanungaga/56 Mwisho,-1.278492,36.750875,,, , 
0600KNG,,Kanungaga/56 Mwisho,-1.278535,36.75095,,, , 
0610MKF,,Mkombozi/Fraemy Supermarket,-1.280916,36.751862,,, , 
0600ZEB,,Zebra Bar,-1.282279,36.752452,,, , 
0610KSS,,Kismart  Supermarket,-1.286478,36.753424,,, , 
0600SFK,,St.Francis/Kanisani,-1.287132,36.75343,,, , 
0600CNG,,Congo,-1.289149,36.753075,,, , 
0611SOK,,Sokoni,-1.286301,36.745661,,, , 
0613MWI,,Kawangware Mwisho,-1.283934,36.742585,,, , 
0610SOK,,Sokoni,-1.286322,36.745633,,, , 
0600COP,,Co-Op Bank,-1.287475,36.748821,,, , 
0600RUS,,Rusinga School,-1.289355,36.754621,,, , 
0600BRB,,Braeburn,-1.289474,36.756896,,, , 
0600AMB,,Amboseli,-1.289586,36.760559,,, , 
0600ARC,,Valley Arcade,-1.289983,36.770481,,, , 
0600OTH,,Othaya,-1.290063,36.772991,,, , 
0600MON,,Montessouri,-1.292747,36.774682,,, , 
0600KIR,,Kirichwa,-1.292466,36.781499,,, , 
0600KIL,,Kilimani Primary School,-1.292339,36.783916,,, , 
0600YAY,,Yaya,-1.292396,36.788124,,, , 
0600CHK,,Chaka Place,-1.293187,36.791745,,, , 
0610RMX,,Remax Shopping Village,-1.293373,36.792853,,, , 
0610NWH,,Nariobi Womens Hospital,-1.293984,36.795456,,, , 
0610HUL,,Hurlinghum,-1.294756,36.798373,,, , 
0600DOD,,DoD,-1.294859,36.802443,,, , 
0600VRP,,Valley Road Pentecostal,-1.292357,36.805192,,, , 
0610PNF,,Panafric,-1.289358,36.810835,,, , 
0611COM,,Community,-1.292303,36.812936,,, , 
0601OLL,,Old Mutual,-1.29862,36.813096,,, , 
0713KNS,,Kenyatta Hospital Stage,-1.300734,36.808817,,, , 
07113AV,,3Rd Avenue,-1.294957,36.810238,,, , 
1050COM,,Community,-1.292222,36.812888,,, , 
0602STP,,St.Peters Clavers Primary School/Salvation Army/Otc,-1.287135,36.830235,,, , 
0712RWY,,Railways,-1.290475,36.82801,,, , 
0711NAT,,Nairobi Area Police Traffic Headquarters,-1.296463,36.808161,,, , 
0712KNT,,Kenyatta National Hospital,-1.297568,36.804868,,, , 
0612NGM,,Ngumo Stage,-1.307589,36.802816,,, , 
0511WIL,,Wilson/Amref,-1.316664,36.813447,,, , 
0511DAM,,Dam Estate,-1.32278,36.804882,,, , 
0511UCH,,Uchumi/Carnivore,-1.323257,36.801942,,, , 
0511UHU,,Uhuru Gardens,-1.32379,36.799285,,, , 
0511LAN,,Langata,-1.328433,36.789832,,, , 
0501OIL,,Oil Libya,-1.327092,36.78894,,, , 
0501GAR,,Gardens,-1.325519,36.790575,,, , 
0501KIR,,Kirush,-1.323752,36.789895,,, , 
0511CIV,,Civil,-1.322659,36.788846,,, , 
0511SOU,,Southlands,-1.323054,36.786931,,, , 
0511TAL,,Talent/Ngei,-1.324225,36.785931,,, , 
0511HIG,,Langata High,-1.325639,36.785386,,, , 
0501PET,,St.Peters,-1.327623,36.785141,,, , 
0501BAR,,Barracks,-1.329545,36.782486,,, , 
0501CHI,,Kwa Chief,-1.326736,36.780238,,, , 
0511STA,,Stage,-1.325982,36.780167,,, , 
0511OTI,,Otiende,-1.323499,36.779966,,, , 
0501PRI,,Langata Prisons,-1.323154,36.776741,,, , 
0513HOS,,St.Marys Hospital,-1.321754,36.774397,,, , 
0601MSQ,,Mosque,-1.312576,36.823929,,, , 
0601SHP,,South B Shopping Centre,-1.313348,36.82768,,, , 
0601OLM,,Our Lady Of Mercy,-1.311644,36.833907,,, , 
0603STB,,South B Stage,-1.311586,36.835363,,, , 
0600OLM,,Our Lady Of Mercy,-1.311649,36.833684,,, , 
0610SHP,,South B Shopping Centre,-1.313469,36.827745,,, , 
0511MFL,,Madaraka Flyover,-1.307796,36.819214,,, , 
0600STH,,Blue Sky Estate,-1.312849,36.815248,,, , 
0600HGH,,Highrise,-1.314678,36.808044,,, , 
0610MHS,,Memorial Hospital,-1.31107,36.805647,,, , 
0600NGM,,Ngumo Stage,-1.307734,36.802924,,, , 
0711MCP,,Memosa/Coptic,-1.298912,36.798084,,, , 
0701UCN,,Uchumi/National Oil,-1.29971,36.792688,,, , 
0701ROS,,Rose Of Sharon,-1.301224,36.792779,,, , 
0701PKA,,Peak Academy,-1.301329,36.79094,,, , 
0701NSC,,Nursing Council,-1.301691,36.790328,,, , 
0701KBG,,Kabarnet Gardens,-1.302784,36.789113,,, , 
0701MGJ,,Moi Girls' School Junction,-1.303583,36.78813,,, , 
0701ADC,,Kwa DC,-1.305922,36.787509,,, , 
0701MKA,,Makina/Kibera Law Courts,-1.307308,36.782543,,, , 
0701NJR,,Kwa Njiru(Petrol Station),-1.308446,36.781577,,, , 
0701SSR,,San Siro,-1.30913,36.780745,,, , 
0701KAR,,Karanja,-1.309714,36.780324,,, , 
0701FJE,,Fort Jesus,-1.310756,36.779389,,, , 
0701OLY,,Olympic Primary School,-1.31168,36.778158,,, , 
0711OLI,,Olympic Primary School Stage,-1.31156,36.776869,,, , 
0703EQY,,Equity Ayani,-1.311096,36.77577,,, , 
0713AYN,,Ayani,-1.307925,36.772739,,, , 
0700EAY,,Equity Ayani,-1.311068,36.775885,,, , 
0710OLS,,Olympic Primary School,-1.311585,36.778173,,, , 
0700OLM,,Olympic Primary School,-1.311405,36.778461,,, , 
0700FJS,,Fort Jesus,-1.310753,36.779341,,, , 
0700KRA,,Karanja,-1.309832,36.7802,,, , 
0700TON,,Toi/Kwa Njiru,-1.308551,36.781389,,, , 
0700MOG,,Moi Girls,-1.303361,36.787901,,, , 
0711UCN,,Uchumi Hyper Ngong Road/ Ngong Hills Hotel,-1.299527,36.792314,,, , 
0711NKP,,Nakumatt Prestige,-1.299708,36.787362,,, , 
0711MTL,,Motherland,-1.299889,36.783829,,, , 
0711AAD,,Adams Arcade,-1.300068,36.781184,,, , 
0701ADA,,Adams Arcade,-1.300352,36.779549,,, , 
0701WNK,,Winners Chapel/Kanisani,-1.301972,36.779624,,, , 
0701WOO,,Woodley,-1.303806,36.779586,,, , 
0701NWT,,Nairobi Water,-1.303876,36.777757,,, , 
0701NPC,,Npc Woodley,-1.303784,36.775032,,, , 
0701TGA,,Togo Apartments,-1.304884,36.774581,,, , 
0701ELM,,Elim,-1.305045,36.772291,,, , 
0701JSC,,Jamhuri Shopping Centre,-1.304417,36.77103,,, , 
0710JSS,,Jamhuri Station Road Stage,-1.303983,36.769137,,, , 
0700JPS,,Jamhuri Primary School,-1.30206,36.766956,,, , 
0701PSA,,Posta,-1.300362,36.774018,,, , 
0711PST,,Posta Stage,-1.30048,36.771887,,, , 
0711IMP,,Impala,-1.300448,36.7692,,, , 
0711JKR,,Jamuhuri/Kibera Station Road,-1.300063,36.767103,,, , 
0711NKJ,,Nakumatt Junction,-1.299205,36.763019,,, , 
0701CMD,,Corner/Meteorological Department,-1.299706,36.759325,,, , 
0701TKS,,Tankard/Shallow,-1.300559,36.756962,,, , 
0701SWD,,Showground,-1.302148,36.752708,,, , 
0701SFY,,Showground/Fastenergy,-1.302559,36.75167,,, , 
0701KNO,,Kenol,-1.304315,36.746821,,, , 
0701PWY,,Pathway,-1.305775,36.742626,,, , 
0701RCE,,Racecourse,-1.306662,36.738271,,, , 
0711LNN,,Lenana,-1.30788,36.734194,,, , 
0701LNA,,Lenana,-1.308462,36.732408,,, , 
0711MTI,,Miotoni,-1.3126,36.722659,,, , 
0701CRS,,Christophers,-1.318738,36.715632,,, , 
0701KFR,,Kwa Farasi,-1.319781,36.714437,,, , 
0711KRN,,Karen,-1.322568,36.706687,,, , 
0712KRY,,Karen Dispensary,-1.320582,36.705787,,, , 
0701NDL,,Nyumbani Diagnostic Lab,-1.313178,36.699728,,, , 
0701NYI,,Nyumbani,-1.31258,36.699218,,, , 
0701KDF,,Kenya Defense,-1.308581,36.69592,,, , 
0701PPT,,Pepo Lane/St.Odillas,-1.305029,36.693086,,, , 
0701DBO,,Don Bosco,-1.304255,36.692517,,, , 
0701SHS,,St.Hannahs School,-1.302587,36.691129,,, , 
0701AIU,,Africa International University,-1.301827,36.689733,,, , 
0701RHP,,Rhino/Rhinopark Road,-1.301905,36.684969,,, , 
0701SHK,,St.Hannah'S Girls/Kenya Assemblies Of God,-1.301169,36.68259,,, , 
0701KRD,,Karinde Pcea Junction,-1.299046,36.681759,,, , 
0701FRK,,Free Pentecostal Church/Karen End,-1.29787,36.68225,,, , 
0701DCT,,Deliverance Church/Dagoretti Market,-1.293618,36.683659,,, , 
0703DGT,,Dagoretti Market,-1.287804,36.686281,,, , 
0700DCR,,Deliverance Church/Dagoretti Market,-1.29428,36.683553,,, , 
0700HVE,,Hopevision Academy/Karen End Flats,-1.296535,36.682916,,, , 
0700KEH,,Karen End Shops,-1.298079,36.682247,,, , 
0700FMK,,Free Methodist Church/Karinde,-1.301165,36.682693,,, , 
0700RPR,,Rhinopark Road/Rhino/Resurrection Gardens,-1.301811,36.685164,,, , 
0700AIV,,Africa International University,-1.301765,36.689762,,, , 
0710SHO,,St.Hannah'S School,-1.302533,36.691254,,, , 
0700DBS,,Don Bosco,-1.303983,36.692302,,, , 
0700KDN,,Kenya Defense,-1.30835,36.695855,,, , 
0700NYA,,Nyumbani,-1.312344,36.699102,,, , 
0700NYM,,Nyumbani Diagnostic Lab,-1.313362,36.699977,,, , 
0712KTR,,Karen Shopping Centre/Karen,-1.321163,36.706431,,, , 
0701WRG,,Windy Ridge/Group Africa,-1.324266,36.701959,,, , 
0711WDC,,Westwood/Defense College,-1.325356,36.697102,,, , 
0711MKP,,Mbagathi/Kephis,-1.327656,36.691223,,, , 
0701KCC,,Kcb Community,-1.329666,36.686842,,, , 
0701SHT,,Shade Hotel,-1.328036,36.684113,,, , 
0701SHL,,Shade Hotel,-1.328522,36.682907,,, , 
0711JOG,,Jogoo,-1.329173,36.681338,,, , 
0701JBC,,Jogoo/Kbc,-1.329651,36.680235,,, , 
0701MHS,,Maasai High School,-1.330285,36.6788,,, , 
0701HKA,,Hekima,-1.33045,36.678428,,, , 
0701UMJ,,Umoja,-1.331067,36.677003,,, , 
0701BCA,,Bumps/Pcea,-1.332217,36.675211,,, , 
0711BLB,,Bulbul,-1.333908,36.673585,,, , 
0701BLC,,Bulbul Kanisani(Catholic Church),-1.335206,36.672411,,, , 
0701ELP,,Elsi Place,-1.340269,36.667122,,, , 
0701KMC,,Kwa Muchina,-1.341244,36.666753,,, , 
0701NVV,,Naivas/ Vet,-1.342889,36.666389,,, , 
0701KNC,,Kenvic,-1.343876,36.666123,,, , 
0701NYH,,Nyali House,-1.344763,36.665775,,, , 
0701KMH,,Karmu House,-1.346582,36.663923,,, , 
0711UNV,,Universal,-1.347724,36.662526,,, , 
0701GRG,,Garage,-1.348812,36.661131,,, , 
0701ZMB,,Zambia,-1.349538,36.660379,,, , 
0701CWH,,Carwash,-1.350291,36.659713,,, , 
0701PMS,,Perminus,-1.351343,36.658962,,, , 
0701VNS,,Venessa,-1.351806,36.658693,,, , 
0701SMN,,Sportman,-1.352379,36.658401,,, , 
0701CCL,,Coutry Club,-1.353556,36.657924,,, , 
0711KNO,,Kenol,-1.354165,36.657739,,, , 
0701PCY,,Pcea Endorro Emuny,-1.356178,36.657212,,, , 
0701KAJ,,Kwa Maji,-1.35846,36.65657,,, , 
0713NBT,,Ngong Bus Terminus,-1.360429,36.656037,,, , 
0712NGG,,Ngong Town,-1.360832,36.655943,,, , 
0701PTR,,Petro/Mwisho,-1.36294,36.656181,,, , 
0701N44,,44,-1.372973,36.671897,,, , 
0701KON,,Kona,-1.37657,36.67648,,, , 
0701NGR,,Ngong Resort,-1.380401,36.676708,,, , 
0701TSK,,Tuskys,-1.382853,36.676901,,, , 
0701MTS,,Matasia,-1.391168,36.682261,,, , 
0711MTS,,Matasia,-1.397253,36.686142,,, , 
0701RMN,,Ole Roimen,-1.405869,36.688167,,, , 
0701KNK,,Kwa Nicholas,-1.411734,36.687934,,, , 
0703KIS,,Kiserian,-1.428211,36.686707,,, , 
0700OST,,Oloosuruutia,-1.41134,36.687828,,, , 
0700RMN,,Roimen,-1.405917,36.68811,,, , 
0700MTS,,Matasia,-1.391542,36.682485,,, , 
0710MTS,,Matasia,-1.390979,36.681973,,, , 
0700TSK,,Tuskys,-1.383012,36.67689,,, , 
0700KON,,Kona,-1.376506,36.676179,,, , 
0700N44,,44,-1.373202,36.671995,,, , 
0700NPC,,Npc Ngong,-1.368541,36.658177,,, , 
0700PTR,,Ngong/Petroh,-1.363019,36.656141,,, , 
0700KWK,,Kwft/Kobil,-1.358294,36.656557,,, , 
0700PCS,,Pcea Kwa Kanisa,-1.356696,36.657016,,, , 
0710JPS,,Jayce Petro Station,-1.355179,36.657421,,, , 
0700ZBA,,Zambia,-1.354088,36.657717,,, , 
0700CWH,,Carwash,-1.352561,36.658285,,, , 
0700UNV,,Universal,-1.347405,36.662796,,, , 
0710VAS,,Naivas,-1.342817,36.666296,,, , 
0700KSS,,Kwa Muchina/Star Shake Girls' Secondary School,-1.341907,36.66656,,, , 
0710ELS,,Elsi Place,-1.340689,36.666867,,, , 
0710BLL,,Bulbul,-1.334184,36.673252,,, , 
0700BDB,,Bulbul Deliverance Church/Kwa Bumps,-1.332718,36.674587,,, , 
0700MAU,,Maasai Academy/Umoja,-1.331178,36.67668,,, , 
0700HKA,,Hekima,-1.330488,36.678247,,, , 
0700KBN,,Kbc,-1.329592,36.680282,,, , 
0710PMP,,Pcea Milimani Presbytary,-1.32851,36.682712,,, , 
0700SHE,,Shade Hotel,-1.328257,36.683201,,, , 
0700SAD,,Shade Hotel,-1.328063,36.684446,,, , 
0700KMM,,Kcb Community,-1.329626,36.687189,,, , 
0700KPI,,Kephis,-1.327601,36.690963,,, , 
0710KES,,Kephis Stage,-1.327591,36.691348,,, , 
0710WWD,,Westwood,-1.325327,36.696969,,, , 
0700KPL,,Karen Police Station,-1.322696,36.705979,,, , 
0702DCS,,Dagoretti Corner Stage,-1.298409,36.75943,,, , 
0711VWO,,Victory World Outreach,-1.297388,36.754936,,, , 
0701SMH,,Suma House,-1.297948,36.753576,,, , 
0701FGK,,Full Gospel Church/Kiruria,-1.298426,36.752382,,, , 
0701ITE,,Ithembe,-1.297525,36.750053,,, , 
0701GHS,,Good Samaritan High School,-1.296923,36.749861,,, , 
0711WST,,Wanyee Stage,-1.295965,36.749176,,, , 
0701BPS,,Bumps,-1.295017,36.748142,,, , 
0701MTW,,Mutindwa,-1.2952,36.744798,,, , 
0701JCR,,Jirani Centre,-1.295968,36.743277,,, , 
0701GNS,,Genesis,-1.296426,36.741805,,, , 
0701NGD,,Ngotho Road,-1.296544,36.740769,,, , 
0701SAT,,Satellite Stage,-1.295252,36.739115,,, , 
0701RSP,,Riruta Satellite Primary School,-1.29277,36.7363,,, , 
0701KPY,,Kaberia/Pc Kinyanjui Technical Training Institute,-1.29267,36.735423,,, , 
0701NSP,,New Kaberia Supermarket,-1.291703,36.73409,,, , 
0701SBR,,Simpsons Bar And Rest,-1.291374,36.73369,,, , 
0701KRC,,Kenya Redeemed Church Riruta,-1.291077,36.733127,,, , 
0701SJO,,St. John Othordox Church,-1.290811,36.73214,,, , 
0701SHC,,Shine Centre,-1.290546,36.73027,,, , 
0703MHR,,Muhia Road,-1.290511,36.730253,,, , 
0700CKK,,Chemist/Kwa Maji/Kaberia,-1.290562,36.728944,,, , 
0700ABB,,Abba Photo Studio/Kaberia,-1.290783,36.732013,,, , 
0700RCK,,Redeemed Church Of Kenya/Kaberia,-1.291201,36.733467,,, , 
0700KMJ,,Kwa Maji/Kaberia,-1.291491,36.733927,,, , 
0700KMH,,Kwa Hospitali/Kaberia,-1.291912,36.734329,,, , 
0700FPI,,Friends Paradise Inn/Kaberia,-1.291929,36.734345,,, , 
0700FDI,,Friends Paradise Inn/Kaberia,-1.292301,36.734704,,, , 
0700RSP,,Riruta Satellite Primary School,-1.29273,36.736172,,, , 
0700BTG,,Back To Glory School/Sainty,-1.294784,36.73882,,, , 
0700STY,,Sainty,-1.295363,36.739184,,, , 
0700MMB,,Meaty Meals Butchery,-1.296511,36.74057,,, , 
0700JER,,Jirani Centre,-1.295842,36.743683,,, , 
0700MDA,,Mutindwa,-1.295185,36.744944,,, , 
0700JLD,,Joyland,-1.294837,36.74762,,, , 
0710WSE,,Wanyee Stage,-1.296275,36.749208,,, , 
0700GEH,,Gerick House,-1.29786,36.751375,,, , 
0710FGP,,Full Gospel,-1.298354,36.75246,,, , 
0700REL,,Relic House,-1.297839,36.753706,,, , 
0710VIC,,Victory World Outreach,-1.297367,36.75491,,, , 
0701DCR,,Deliverance Church Riruta,-1.292742,36.751647,,, , 
0701KJI,,Kinyanjui,-1.291616,36.747588,,, , 
0711SGO,,Sugoini,-1.290401,36.745675,,, , 
0711MLK,,Mlangosoko,-1.288554,36.743012,,, , 
0701BPP,,BP,-1.287695,36.741786,,, , 
0701PBG,,Precious Blood Girls' School,-1.284792,36.737882,,, , 
0701KRE,,Krep/Equity,-1.284773,36.737551,,, , 
0701REU,,Krep/Equity,-1.284519,36.737751,,, , 
0701NVI,,Naivasha/Naivasha Road Flat,-1.282624,36.737052,,, , 
0701SJC,,St.John College Riruta,-1.281713,36.736867,,, , 
0701NDW,,Ndwaru,-1.279007,36.735903,,, , 
0701RSF,,Riverside Flats,-1.277609,36.735855,,, , 
0701GDB,,Gachangi/Darajani/Baptist Church,-1.273125,36.732513,,, , 
0711GTD,,Gathondeki,-1.271824,36.729725,,, , 
0701SMR,,Summer-Rock,-1.2707,36.728392,,, , 
0701LRI,,ILRI,-1.26695,36.723189,,, , 
0701THR,,Uthiru,-1.264088,36.719912,,, , 
0701WGT,,Kwa Mchanga/Total,-1.262886,36.71848,,, , 
0703UTP,,Uthiru Pentecostal,-1.261392,36.71691,,, , 
0701WWU,,Waiyaki Way/Uthiru Junction,-1.260951,36.716548,,, , 
0801DEP,,Deliverance Church/Petrol Station,-1.26086,36.71329,,, , 
0801SHC,,Shell/Cooperation,-1.26039,36.71069,,, , 
0801GCC,,87/Gachecheni,-1.25862,36.70304,,, , 
0811ETT,,87/Total,-1.25788,36.70095,,, , 
0801KGH,,Kinoo Girls High School,-1.2564,36.69682,,, , 
0811JMK,,Jacmil Supermarket/Kinoo Stage,-1.25533,36.69376,,, , 
0801MUC,,Muthiga Academy,-1.25218,36.68807,,, , 
0801MUM,,Muthiga/Kikopey,-1.24962,36.68444,,, , 
0801DMN,,Dominion Church,-1.24759,36.68156,,, , 
0801RGN,,Regen Filling Station,-1.24653,36.68024,,, , 
0811RNG,,Rungiri,-1.24285,36.67702,,, , 
0801KMP,,Kampala Way Filling Station,-1.24038,36.67545,,, , 
0810KPL,,Kampala,-1.240285,36.675546,,, , 
0810RUG,,Rungiri,-1.242892,36.677207,,, , 
0800REG,,Regen,-1.247038,36.681033,,, , 
0810MTG,,Muthiga,-1.249498,36.68443,,, , 
0800MTG,,Muthiga,-1.251837,36.687823,,, , 
0800KIN,,Kinoo,-1.255397,36.694309,,, , 
0810KIN,,Kinoo,-1.255507,36.694726,,, , 
0810EGT,,87,-1.257979,36.701583,,, , 
0810WJM,,Wanjimi,-1.258501,36.703092,,, , 
0810COP,,Cooperation,-1.260283,36.710522,,, , 
0810UTH,,Uthiru,-1.260483,36.717077,,, , 
0800UTH,,Uthiru,-1.260216,36.718422,,, , 
0800NDJ,,Ndumbuini Junction,-1.259125,36.722524,,, , 
0700URB,,Uthiru Roundabout,-1.26445,36.721303,,, , 
0700SJK,,St.Joseph'S Kabete,-1.265614,36.721817,,, , 
0700IRI,,Ilri,-1.266884,36.72319,,, , 
0700SMK,,Summer-Rock,-1.270807,36.728575,,, , 
0710GKI,,Gathondeki,-1.2717,36.729698,,, , 
0700NDU,,Ndwaru,-1.279189,36.735985,,, , 
0700SJL,,St.John College,-1.280979,36.736715,,, , 
0700MUL,,Muslim,-1.28199,36.737025,,, , 
0700EUI,,Krep/Equity,-1.283577,36.737352,,, , 
0711KNG,,Kwa Ng'Ang'A,-1.284074,36.729192,,, , 
0701BMK,,Beth Mugo High School Kaberia,-1.283395,36.726863,,, , 
0711MTE,,Mithonge,-1.282224,36.723135,,, , 
0701WTK,,Waithaka,-1.279621,36.712344,,, , 
0701MUT,,Mugiriti,-1.281313,36.703454,,, , 
0701GCU,,Gachui,-1.281828,36.696257,,, , 
0711RSS,,Ruthimitu Secondary School,-1.281587,36.695619,,, , 
0701KPC,,Kanisani/Pcea,-1.285352,36.687338,,, , 
0701DGM,,Dagoretti Market,-1.283091,36.689559,,, , 
0713DMM,,Dagoretti Market Mwisho,-1.286346,36.686902,,, , 
0700AMD,,All Mart Dagoretti Market,-1.285458,36.687271,,, , 
0700SPC,,Shell Dagoretti Police Station,-1.280904,36.69038,,, , 
0701SDP,,Shell/Dagoretti Police Station,-1.280497,36.690566,,, , 
0711DRC,,Dagoretti Rehabilitation Centre,-1.273861,36.684449,,, , 
0701DNL,,Denoil,-1.269155,36.680122,,, , 
0711KRG,,Kirunguro,-1.268466,36.679189,,, , 
0701UKC,,Uon Kikuyu Campus,-1.265918,36.67477,,, , 
0711UKS,,Uon Kikuyu Campus Stage,-1.265139,36.673039,,, , 
0701AHS,,Alliance High School,-1.262897,36.6698,,, , 
0711ASS,,Alliance High School Stage,-1.261021,36.668262,,, , 
0701GRD,,Gardens,-1.254207,36.665672,,, , 
0701FGS,,Full Gospel,-1.251979,36.665049,,, , 
0701GGS,,Green Gardens School,-1.251082,36.664868,,, , 
0713KKY,,Kikuyu,-1.24654,36.664933,,, , 
0800PCR,,Pine Crib Apartments,-1.24022,36.66573,,, , 
0800KRY,,Kikuyu Country Resort,-1.23801,36.66636,,, , 
0701KIJ,,Kwa Ngwacii Junction,-1.235343,36.668001,,, , 
0701GTR,,Gitaru Junction,-1.232439,36.669958,,, , 
0701KNR,,Kwa Njeru/Gitaru/Pank View,-1.230569,36.674916,,, , 
0711NJG,,Kwa Njeru Stage,-1.230536,36.675502,,, , 
0711MGU,,Magu,-1.230145,36.680691,,, , 
0701RNR,,Matta,-1.230007,36.682717,,, , 
0711MUT,,Muthure,-1.229684,36.687599,,, , 
0701ACI,,Ack St. Phillips,-1.229171,36.691852,,, , 
0711KNY,,Kanyariri,-1.227579,36.698624,,, , 
0701ACC,,Acacia Junction/King'Eero,-1.224886,36.705526,,, , 
0711PFE,,Pefa King'Eero,-1.224241,36.706924,,, , 
0701TTW,,Total Wangige,-1.22071,36.712074,,, , 
0713WNG,,Wangige Stage,-1.219195,36.71239,,, , 
0700KAK,,Kenya Assemblies Of God King'Eero,-1.222091,36.710964,,, , 
0700ACI,,Acacia Petrol Station Junction/King'Eero,-1.225118,36.705298,,, , 
0710KNA,,King'Eero Stage,-1.22554,36.704265,,, , 
0700GBK,,Green Belt/Kanyariri,-1.2278,36.698182,,, , 
0710MTE,,Muthure,-1.229762,36.687326,,, , 
0700MAA,,Matta,-1.229908,36.685421,,, , 
0710MAU,,Magu,-1.230283,36.680541,,, , 
0700GRU,,Gitaru,-1.231977,36.670458,,, , 
0700GGL,,Green Gardens School,-1.25089,36.664915,,, , 
0700GRS,,Gardens,-1.254524,36.665866,,, , 
0710AHL,,Alliance High School,-1.262757,36.669726,,, , 
0700UKG,,Uon Kikuyu Gate,-1.263941,36.671096,,, , 
0710UKT,,Uon Kikuyu Gate 2,-1.265422,36.673879,,, , 
0700KRR,,Kirunguro Junction,-1.268223,36.678906,,, , 
0700GPF,,Zuku/Grace Pop/Dagoretti Flats,-1.276294,36.686224,,, , 
0700RCR,,Red Cross,-1.279765,36.689714,,, , 
0710SEL,,Shell,-1.280461,36.690578,,, , 
0700KPG,,Kanisani Pcea Gathimwa,-1.28136,36.691763,,, , 
0700GCP,,Gachui/Ruthimitu Chief'S Camp,-1.281721,36.695991,,, , 
0700MRT,,Murigiti,-1.282518,36.699162,,, , 
0700WTA,,Waithaka,-1.279987,36.71129,,, , 
0700MTM,,Muthama,-1.280641,36.718732,,, , 
0700NPS,,Nembu Primary School,-1.281202,36.720097,,, , 
0710MIH,,Mihonge,-1.282169,36.72293,,, , 
0700BMY,,Beth Mugo Secondary School,-1.283399,36.727117,,, , 
0710KWN,,Kwa Ng'Ang'A,-1.284009,36.728874,,, , 
0700AIC,,Aic Riruta,-1.283999,36.735204,,, , 
0700KEQ,,Krep/Equity,-1.28474,36.737735,,, , 
0700PBG,,Precious Blood Girls' School,-1.285904,36.73926,,, , 
0710DCD,,Dagoretti Cdf/Aps' Camp,-1.286467,36.740158,,, , 
0700BPS,,Bp,-1.287522,36.74159,,, , 
0700MSK,,Mlangosoko,-1.28866,36.743186,,, , 
0710SIN,,Sugoini,-1.290394,36.745712,,, , 
0710KYJ,,Kinyanjui,-1.291539,36.747569,,, , 
0700DCT,,Deliverance Church Riruta,-1.29266,36.751563,,, , 
0700RIR,,Riara,-1.295857,36.755917,,, , 
0710KJS,,Kaberia Junction Stage,-1.29703,36.756553,,, , 
0700TBK,,Tea Board/Dagoretti Corner,-1.298052,36.757968,,, , 
0702KDC,,Kenol Dagoretti Corner,-1.29843,36.759874,,, , 
0513KEN,,Karen,-1.323348,36.708211,,, , 
0510SMP,,St.Marys Karen Primary School,-1.325292,36.709829,,, , 
0500KCH,,Karen Catholic Church,-1.32613,36.71052,,, , 
0510ETG,,Eternity Gospel Church,-1.329351,36.71327,,, , 
0500KRJ,,Karen Road Junction,-1.333746,36.716578,,, , 
0500MRL,,Marula,-1.336929,36.71569,,, , 
0500KCL,,Karen Country Club,-1.33948,36.714834,,, , 
0500FRT,,Forest Lane,-1.346624,36.714338,,, , 
0500KBL,,Karen Blixen,-1.353141,36.713296,,, , 
0500QRL,,Quarry Lane,-1.354529,36.717501,,, , 
0500NDG,,Ndege Road,-1.354816,36.720121,,, , 
0500MSL,,Masai Lane Junction,-1.355178,36.723273,,, , 
0500MSV,,Masai Villas,-1.357741,36.723063,,, , 
0500MSW,,Maasai Lane/Masai West,-1.360987,36.722714,,, , 
0500LBN,,Laibon Lane,-1.360978,36.724102,,, , 
0500CMZ,,Christian Ministries In Africa,-1.360852,36.725832,,, , 
0500MWR,,Masai West Road,-1.360803,36.729305,,, , 
0500AGB,,Agribusiness Centre,-1.365584,36.735952,,, , 
0500HMN,,Hardy Manor,-1.365369,36.737049,,, , 
0500HRN,,Hardy Junction,-1.364737,36.742286,,, , 
0510HDY,,Hardy Stage,-1.365382,36.742464,,, , 
0500GCT,,Beacons Inn/Giraffe Centre,-1.366791,36.743641,,, , 
0500MBZ,,Matbronze,-1.364419,36.745237,,, , 
0500SOL,,School Of Law,-1.360407,36.747073,,, , 
0510SOL,,School Of Law,-1.359739,36.746976,,, , 
0510KJC,,Kareng'Ata/Jkuat/Cuea,-1.353708,36.74708,,, , 
0510TNZ,,Tangaza College,-1.348748,36.748684,,, , 
0500LRJ,,Lang'Ata Road Junction,-1.340833,36.750538,,, , 
0711KEM,,Kenyatta Market,-1.307506,36.802754,,, , 
0711SUN,,Sunview Estate,-1.306038,36.801389,,, , 
0711NEW,,Newa Estate,-1.308006,36.799441,,, , 
0711GCP,,Golf Course Phase 2,-1.309261,36.798458,,, , 
0713NGM,,Ngumo Market,-1.309884,36.798881,,, , 
0601HIG,,Highway,-1.311264,36.800064,,, , 
0601PCE,,Pcea Junior,-1.311597,36.80081,,, , 
0601HCO,,Highway Cottage,-1.310585,36.802031,,, , 
0710KEM,,Kenyatta Market,-1.307407,36.802791,,, , 
0601FLY,,Kenyatta Market Flyover,-1.306358,36.803224,,, , 
0600MOS,,Mosque,-1.303038,36.802441,,, , 
0600MBA,,Mbagathi Flats,-1.301077,36.802553,,, , 
0710NAQ,,Nairobi Area Traffic Headquarters,-1.297054,36.806435,,, , 
0710KNS,,Kenyatta National Hospital,-1.300727,36.808843,,, , 
0700KCQ,,KCB/Equity,-1.301328,36.812437,,, , 
0700BRM,,Britam,-1.298057,36.813424,,, , 
0610SER,,Serena,-1.288299,36.81367,,, , 
0610GPO,,GPO,-1.285883,36.818241,,, , 
0610INM,,I&M,-1.284968,36.820236,,, , 
0712RLA,,Railways,-1.289443,36.827767,,, , 
0010OTC,,OTC,-1.284947,36.830994,,,1, 
0002KOJ,,Koja Terminus,-1.28123,36.822596,,,1, 
0003NGR,,Ngara,-1.274395,36.823806,,,1, 
0004ODN,,Odeon,-1.282769,36.825032,,,1, 
0812GRT,,Ngara Teminal,-1.274368,36.823322,,, ,0003NGR
0812KNJ,,Koja,-1.280852,36.822802,,, ,0002KOJ
0812ODE,,Odeon Terminus,-1.282757,36.825048,,, ,0004ODN
0812KAK,,Kaka Terminal,-1.285635,36.830776,,, ,0010OTC
0811MUS,,Museum,-1.273041,36.809574,,, , 
0811CHR,,Chiromo,-1.272689,36.808988,,, , 
0801HIR,,Chiromo,-1.271117,36.806804,,, , 
0801CFY,,Chiromo Flyover,-1.272474,36.803714,,, , 
0801WPB,,Westlands/Parklands Baptist,-1.265645,36.801015,,, , 
0811CSL,,Consolata,-1.266975,36.801222,,, , 
0801PMB,,Prime Bank,-1.271048,36.801651,,, , 
0801MWK,,Mwingi/Kasuku Centre,-1.275845,36.795049,,, , 
0801KGD,,Kangundo,-1.279635,36.790476,,, , 
0811SYJ,,Jacaranda/Siaya Road,-1.282289,36.787224,,, , 
0801LNI,,Likoni,-1.283381,36.78581,,, , 
0801DPR,,Dennis Pritt,-1.284874,36.78795,,, , 
0801LNN,,Lenana,-1.289025,36.787129,,, , 
0801YYA,,Yaya,-1.291648,36.787161,,, , 
0800YYA,,Yaya,-1.291734,36.787041,,, , 
0800SNN,,Spanish Villas/Lenana,-1.289972,36.786762,,, , 
0800LNN,,Lenana,-1.28888,36.787014,,, , 
0800DPT,,Dennis Pritt,-1.285006,36.78791,,, , 
0800VRJ,,Viraj,-1.28363,36.785925,,, , 
0810SYY,,Siaya,-1.282279,36.787043,,, , 
0800KNG,,Kangundo,-1.279388,36.79045,,, , 
0800QPK,,Queen'S Park,-1.278994,36.790882,,, , 
0800KKI,,Kasuku/Mwingi,-1.275644,36.794924,,, , 
0800PMN,,Prime Bank,-1.271048,36.801551,,, , 
0800WPB,,Parklands Baptist/Westlands,-1.265669,36.800808,,, , 
0801PBN,,Prime Bank,-1.271918,36.801774,,, , 
0811PBG,,Prime Bank Stage,-1.272219,36.801386,,, , 
0801IMP,,Imperial Bank,-1.270324,36.799344,,, , 
0801RLN,,Riverside Lane/Montessori,-1.269793,36.793951,,, , 
0801RPD,,Riverside Paddocks,-1.268361,36.785434,,, , 
0811STR,,Strathmore School,-1.271307,36.775231,,, , 
0801STU,,St.Austin'S,-1.275686,36.771938,,, , 
0811SAV,,Shell/Lavington/Subru Motors,-1.278501,36.770223,,, , 
0803LAV,,Lavington Shopping Centre/Shell,-1.280216,36.769194,,, , 
0800IGL,,Isaac Gathanju Road/Lavington Shopping Centre,-1.27996,36.769263,,, , 
0800ELM,,El Molo Drive/Subru Motors,-1.278324,36.770258,,, , 
0800STT,,St.Austin'S,-1.275705,36.771917,,, , 
0800STR,,Strathmore School/Mbabane Road,-1.270877,36.775226,,, , 
0800GRP,,German Embassy/Riverside Paddocks,-1.268324,36.785744,,, , 
0800RLN,,Riverside Lane,-1.269707,36.794005,,, , 
0800IML,,Imperial Bank,-1.270238,36.799301,,, , 
0811SAB,,Shell/Arboretum,-1.274529,36.799983,,, , 
0801KAC,,Kasuku Centre,-1.275441,36.794799,,, , 
0801KAN,,Kandara Road,-1.27611,36.793069,,, , 
0801KIL,,Kileleshwa Day Nursery,-1.276826,36.792352,,, , 
0801KPR,,Kileleshwa Primary School,-1.277406,36.79172,,, , 
0801CPS,,Corner Primary School,-1.277871,36.791112,,, , 
0801KNG,,Kangundo,-1.279382,36.790422,,, , 
0801LKN,,Likoni,-1.28355,36.785444,,, , 
0801PPC,,Peponi Court,-1.285899,36.78236,,, , 
0803MDM,,Methodist/Mazeras,-1.290119,36.777343,,, , 
0801BPA,,Brooklyn Palm Apartments,-1.277354,36.790529,,, , 
0801OLK,,Ole Kejuodo/Kandara Road Junction,-1.27602,36.788957,,, , 
0801DCR,,Day Care/Kandara Road,-1.276964,36.785897,,, , 
0801JCA,,Jacaranda,-1.279428,36.783534,,, , 
0801MWG,,Mwingi/Garage,-1.280611,36.78179,,, , 
0801MNI,,Makueni,-1.284216,36.779104,,, , 
0801MUG,,Mugoiri,-1.284459,36.778403,,, , 
0803OYA,,Othaya Road,-1.288534,36.773089,,, , 
0800ORS,,Othaya Road Stage,-1.288635,36.77301,,, , 
0800MRI,,Mugoiri,-1.28422,36.778875,,, , 
0800MWG,,Mwingi/Garage,-1.280677,36.781659,,, , 
0800JCR,,Jacaranda,-1.279389,36.783492,,, , 
0800KRN,,Kandara Road/Kenya High,-1.276931,36.785988,,, , 
0800OKC,,Ole Kejuodo Road/Corner Primary School,-1.275885,36.788924,,, , 
0800PLP,,Parklane Place,-1.275983,36.792863,,, , 
0800MGJ,,Mandera/Gichugu Road Junction,-1.274985,36.793481,,, , 
0810KPR,,Kileleshwa Police Station/Roundabout,-1.275117,36.79406,,, , 
0810ARB,,Arboretum,-1.273436,36.800785,,, , 
0800PBB,,Prime Bank,-1.271772,36.801456,,, , 
0800TAS,,Taj Apartments Stage,-1.272376,36.802951,,, , 
0800CFL,,Chiromo Flyover,-1.272487,36.80373,,, , 
0800CHO,,Chiromo (Mortuary),-1.271148,36.806449,,, , 
0801CHR,,Chiromo,-1.270804,36.807211,,, , 
0812WST,,Westlands,-1.2628,36.80031,,, , 
0801STM,,St. Marks,-1.26132,36.79749,,, , 
0801LIO,,Lions Place,-1.26109,36.79608,,, , 
0801BRK,,Brookside,-1.260987,36.792201,,, , 
0801SAF,,Aacc/Safaricom/Church Road,-1.25982,36.78687,,, , 
0811AGA,,Aga Khan High School,-1.25934,36.78281,,, , 
0811ABC,,Abc Place Stage,-1.25897,36.7786,,, , 
0801ABE,,Abc Place Entrance,-1.25919,36.77746,,, , 
0801CBA,,Abc,-1.259767,36.775564,,, , 
0801MSO,,Loreto Msongari,-1.262055,36.774296,,, , 
0801MGI,,Muthangari Police Station,-1.265893,36.773464,,, , 
0801SNT,,St.Mary'S School,-1.268121,36.775004,,, , 
0801ACI,,Ipsos Synovate/Acorn House,-1.282955,36.765907,,, , 
0801COV,,Convent Lane,-1.284454,36.76399,,, , 
0801JGG,,James Gichuru/Gitanga Road Junction,-1.289367,36.761605,,, , 
0601AMB,,Amboseli,-1.28957,36.759832,,, , 
0601KON,,Kongo,-1.289283,36.753228,,, , 
0601COA,,Coast,-1.28824,36.750481,,, , 
0603COP,,Co-Op Bank,-1.287534,36.748843,,, , 
0800JGG,,James Gichuru/Gitanga Road Junction,-1.289462,36.761562,,, , 
0800RRD,,Ramisi Road,-1.285672,36.762897,,, , 
0800COT,,Convent Drive,-1.284406,36.763979,,, , 
0800COS,,Acorn House/Ipsos Synovate,-1.283087,36.765798,,, , 
0800STY,,St.Mary'School,-1.26777,36.774734,,, , 
0810MUR,,Muthangari Police Station,-1.265837,36.773351,,, , 
0800LRS,,Loreto Msongari,-1.26211,36.774077,,, , 
0800BAC,,ABC,-1.259562,36.775694,,, , 
0801JGJ,,James Gichuru Junction,-1.25946,36.77551,,, , 
0811KAR,,Kari,-1.25974,36.77392,,, , 
0801NSH,,Nairobi School,-1.26035,36.77108,,, , 
0801DEL,,Deloitte,-1.26309,36.76439,,, , 
0801AFL,,Afralti,-1.26366,36.7613,,, , 
0811KND,,Kianda School,-1.26395,36.75863,,, , 
0801SDM,,Sodom,-1.26425,36.75426,,, , 
0801SGS,,Sugar Board/Shell,-1.26454,36.74197,,, , 
0801MVT,,Mountain View/Total Petrol Station,-1.26467,36.73866,,, , 
0811KNM,,Kangemi Market,-1.26429,36.74858,,, , 
0801PKN,,Posta Kangemi,-1.26437,36.75044,,, , 
0801TKN,,Total Petrol Station Kangemi,-1.26447,36.74961,,, , 
0813KGT,,Kangemi Terminus,-1.26498,36.74953,,, , 
0801CUS,,Custoil,-1.26396,36.73031,,, , 
0811NNS,,Nne Market Stage,-1.26357,36.72825,,, , 
0801KBI,,Kabete Technical Institute,-1.26361,36.72705,,, , 
0801ATI,,Ahiti,-1.26374,36.72504,,, , 
0801ILA,,Ilri/Uthiru Roundabout,-1.26432,36.7212,,, , 
0801FLF,,Flyover Turnoff,-1.25869,36.72267,,, , 
0803NDT,,Ndumbuini Terminus,-1.25694,36.7237,,, , 
0800FON,,Flyover Turnoff,-1.26019,36.72189,,, , 
0810SGB,,Sugarboard,-1.26417,36.74399,,, , 
0810KMI,,Kangemi,-1.26412,36.74663,,, , 
0811SKO,,Nne Market/Sokoni,-1.26373,36.72939,,, , 
0811KBP,,Kabete Police Station,-1.26162,36.725514,,, , 
0811KIN,,Kinoo,-1.257887,36.701007,,, , 
0811MTG,,Mutiga,-1.249737,36.684609,,, , 
0811RNR,,Rungiri,-1.242925,36.677091,,, , 
0811GIT,,Gitaru,-1.233226,36.66923,,, , 
0801KBP,,Kabete Police Station,-1.26226,36.72651,,, , 
0801UEN,,Uthiru Exit/Nucleur Petrol Station,-1.26075,36.71692,,, , 
0801NGA,,Kwa Ngwacii,-1.23538,36.66808,,, , 
0801KKR,,Kikuyu Country Resort,-1.23798,36.66641,,, , 
0801STZ,,Starehe Maize,-1.241,36.66568,,, , 
0801KOL,,Kobil,-1.24471,36.66527,,, , 
0813KKS,,Kikuyu Terminus,-1.24558,36.66505,,, , 
0710GVC,,Gitaru/Vantage School,-1.233,36.67012,,, , 
0811SIG,,Sigona,-1.223703,36.663543,,, , 
0811ZOP,,Zopen,-1.201284,36.654722,,, , 
0811GCN,,Gicini,-1.191999,36.650001,,, , 
0811MUG,,Muguga,-1.186133,36.646986,,, , 
0811IKA,,Ika Ithano,-1.178246,36.643085,,, , 
0801IKA,,Ika Ithano,-1.176551,36.642386,,, , 
0811JOR,,Ha Joram,-1.168968,36.641115,,, , 
0801CNG,,Chunga Mali,-1.160813,36.639781,,, , 
0811CNG,,Chunga Mali,-1.159398,36.63953,,, , 
0811RRN,,Rironi,-1.154499,36.638699,,, , 
0801RRN,,Rironi,-1.146119,36.637349,,, , 
0801KPL,,Kampala,-1.135621,36.635547,,, , 
0811KDR,,Kamandura,-1.129363,36.633967,,, , 
0801KRH,,Kamirithu,-1.117688,36.631237,,, , 
0801MBR,,Kwa Mbira,-1.110411,36.631226,,, , 
0811MBR,,Kwa Mbira,-1.108834,36.631387,,, , 
0801DOS,,Kwa Do,-1.10794,36.639396,,, , 
0813LMT,,Limuru Town Terminal,-1.108561,36.643231,,, , 
0800KMR,,Kamirithu,-1.117782,36.631331,,, , 
0800KMD,,Kamandura,-1.128719,36.633928,,, , 
0810JUN,,Junction,-1.131017,36.634524,,, , 
0810KBB,,Kambembe,-1.145791,36.637495,,, , 
0810ARM,,Arimis,-1.148981,36.63797,,, , 
0810RIR,,Rironi,-1.154283,36.63886,,, , 
0810CNG,,Chunga Mali,-1.159339,36.63971,,, , 
0810BEL,,Bell,-1.167929,36.641045,,, , 
0810IKA,,Ika Ithano,-1.178277,36.643331,,, , 
0810SIT,,Site,-1.180555,36.644643,,, , 
0810MUG,,Muguga,-1.185962,36.647084,,, , 
0810GIC,,Kwa Gicini,-1.192524,36.650483,,, , 
0810KBA,,Kiambaa,-1.198661,36.653775,,, , 
0800KBA,,Kiambaa,-1.205796,36.656692,,, , 
0810ZAB,,Zambezi,-1.212741,36.659981,,, , 
0801WID,,Wida Hotel,-1.220669,36.663259,,, , 
0810SIG,,Sigona Golf,-1.222852,36.663602,,, , 
0810GCR,,Ha Gicuru,-1.228431,36.665231,,, , 
0810GIT,,Gitaro,-1.232893,36.669092,,, , 
0800GIT,,Gitaro,-1.239081,36.674939,,, , 
0810MRG,,Mariguini,-1.261521,36.725778,,, , 
0810KBT,,Kabete Pp,-1.263112,36.728762,,, , 
0810NNN,,N,-1.264136,36.734075,,, , 
0810TNG,,Thing'O,-1.264372,36.738388,,, , 
0800KGT,,Mountain,-1.264121,36.746457,,, , 
0800HES,,Heshima Supermarket,-1.26403,36.75139,,, , 
0800CCK,,Cck,-1.26386,36.7578,,, , 
0810NSH,,Nairobi School,-1.26017,36.77119,,, , 
0810KAR,,Kari/James Gichuru,-1.259215,36.774992,,, , 
0800KBB,,Kabete Barracks,-1.25889,36.77816,,, , 
0800APD,,Apdk,-1.2588,36.77956,,, , 
0800NJG,,Njuguna'S,-1.25887,36.78039,,, , 
0800WDC,,Westlands Dc,-1.2596,36.7866,,, , 
0810WPS,,Church Road/Westlands Primary School,-1.26015,36.7912,,, , 
0810LIO,,Lion'S Place,-1.260681,36.794578,,, , 
0810STM,,St. Marks Church,-1.26104,36.79726,,, , 
0800GPR,,Gama Pinto Road,-1.26187,36.79974,,, , 
0810WST,,Westlands Stage,-1.26549,36.80277,,, , 
0800EDS,,Eden Square,-1.26919,36.8064,,, , 
0800CHR,,Chiromo,-1.27049,36.806942,,, , 
0800MUS,,Museum,-1.274128,36.811825,,, , 
0810MCP,,Main Campus,-1.280986,36.816241,,, , 
0801NGR,,Ngara,-1.275566,36.822958,,, , 
0801PSC,,Parklands Sports Club,-1.269615,36.812425,,, , 
0801MPS,,Mp Shah,-1.264528,36.81076,,, , 
0811MAY,,Mayfair,-1.263575,36.807414,,, , 
0813WSA,,Westlands,-1.262281,36.803707,,, , 
0801SRT,,Sarit,-1.25988,36.8022,,, , 
0801PPN,,Peponi Road,-1.25915,36.80177,,, , 
0801PPI,,Peponi Road Junction/Sarit,-1.258949,36.801848,,, , 
0801GMN,,General Mathenge Junction,-1.254723,36.802063,,, , 
0801ELW,,Eldama Park/Westhouse,-1.252953,36.802685,,, , 
0811SVI,,Spring Valley Shopping Centre/Oilibya,-1.248158,36.797149,,, , 
0801TGR,,Thigiri Ridge/Kitisuru Road,-1.243278,36.792149,,, , 
0811KIM,,Kimetrica,-1.236617,36.781227,,, , 
0801BYS,,By-Pass,-1.23519,36.778266,,, , 
0801STC,,St.Catherine,-1.234171,36.775423,,, , 
0811MGN,,Magnolia Hills,-1.233195,36.767044,,, , 
0811ISK,,Isk,-1.232637,36.762784,,, , 
0801APH,,Aphrc,-1.229591,36.760284,,, , 
0801GAT,,Gathiga Secondary School,-1.222008,36.747399,,, , 
0801KAH,,Kihingo,-1.220034,36.742507,,, , 
0803GAT,,Gathiga Mwisho,-1.219101,36.738666,,, , 
0800GAT,,Gathiga,-1.219036,36.738837,,, , 
0800KAH,,Kihingo,-1.219508,36.741069,,, , 
0800APH,,Aphrc,-1.229441,36.760499,,, , 
0800KIR,,Kirawa School,-1.230213,36.761508,,, , 
0800ISK,,ISK,-1.232788,36.763997,,, , 
0800MAG,,Magnolia Hills,-1.23312,36.767312,,, , 
0800STC,,St.Catherine,-1.234139,36.775916,,, , 
0800BYS,,By-Pass,-1.235029,36.778202,,, , 
0800TGR,,Thigiri Ridge,-1.243299,36.792342,,, , 
0810SVI,,Spring Valley Shopping Centre,-1.248083,36.797256,,, , 
0800WHS,,Westhouse,-1.253039,36.802846,,, , 
0800GMG,,General Mathenge,-1.254809,36.802191,,, , 
0801BRD,,Brookside Drive Junction,-1.25554,36.79748,,, , 
0801TOT,,Total/Kabete Lane,-1.253922,36.792235,,, , 
0811SVL,,Spring Valley Stage/Intel College,-1.25143,36.78699,,, , 
0801SVP,,Spring Valley Police Station,-1.25023,36.78493,,, , 
0801HVW,,Hill View,-1.246299,36.774265,,, , 
0801ZEN,,Zen Gardens,-1.245281,36.769897,,, , 
0811ZEN,,Zen Gardens,-1.24524,36.769321,,, , 
0801PSE,,Peponi House,-1.243697,36.76081,,, , 
0801KBT,,Kabete Springs,-1.240831,36.751169,,, , 
0801PST,,Lower Kabete Posta,-1.240176,36.745579,,, , 
0811KSA,,Kenya School Of Administration,-1.239977,36.744484,,, , 
0801UON,,University Of Nairobi School Of Business,-1.23969,36.739878,,, , 
0801RHY,,Rhythm College,-1.23877,36.728965,,, , 
0801GAC,,Gacio Junior Academy,-1.23856,36.72642,,, , 
0811KAM,,Kamutii Car Wash,-1.234571,36.714712,,, , 
0801KAM,,Kamutii-Ini,-1.229795,36.70979,,, , 
0801MOS,,Modern Oil Service Station,-1.229024,36.709134,,, , 
0801KIG,,Kigeero-Mwisho,-1.224947,36.705573,,, , 
0811WAG,,Wangige,-1.220044,36.712365,,, , 
0800TOT,,Total Wangige,-1.220756,36.712077,,, , 
0800ACC,,Accacia Junction(Kingeero -Mwisho),-1.224559,36.706424,,, , 
0800RGR,,Rungiri,-1.229827,36.70987,,, , 
0810KAM,,Kamutii-Ini,-1.23116,36.711048,,, , 
0810NDG,,Ndongoro,-1.234791,36.715071,,, , 
0800KAS,,Kasio,-1.238508,36.726314,,, , 
0810KRC,,Kabete Rehabilitation Center,-1.238917,36.731366,,, , 
0810UON,,University Of Nairobi School Of Business,-1.239652,36.740087,,, , 
0810POS,,Lower Kabete Posta,-1.240106,36.745337,,, , 
0800KSP,,Kabete Springs,-1.240795,36.751152,,, , 
0800PEP,,Peponi House Preparatory,-1.243591,36.760732,,, , 
0801LVW,,Lake View,-1.24366,36.76824,,, , 
0801KIA,,Kia,-1.23913,36.76506,,, , 
0801KRW,,Kirawa Road,-1.23698,36.76024,,, , 
0801KSR,,New Kitisuru Estate/Total,-1.23566,36.74906,,, , 
0811MWM,,Mwimuto,-1.23486,36.74734,,, , 
0801AGM,,Ack Assemblies Of God Mwimuto,-1.23433,36.74564,,, , 
0801KNN,,Kanini,-1.23412,36.74458,,, , 
0801BCM,,Bluechip Apartments/Mwimuto Pefa/Tumaini Gardens,-1.23361,36.74215,,, , 
0811KRH,,Kwa Rhoda,-1.23291,36.73895,,, , 
0801OMH,,Oasis Mission Hospital,-1.23249,36.73767,,, , 
0801LKM,,Lekamu,-1.22883,36.73175,,, , 
0801KBU,,Kibichiku Centre,-1.22791,36.73042,,, , 
0801KHC,,Kiambu Institute Of Hotels And Catering/Valence School,-1.22438,36.72464,,, , 
0811AKK,,Ack Kibichiku,-1.2234,36.72218,,, , 
0801WHC,,Wangige Health Centre,-1.22177,36.71793,,, , 
0800ACA,,Acacia/Wangige,-1.2207,36.71522,,, , 
0810ACC,,Acacia/Wangige,-1.221,36.71576,,, , 
0800KMC,,Kiahuria Medical Clinic/Mama Symo Kiosk,-1.22161,36.71743,,, , 
0800TCB,,Tcbe,-1.22197,36.71838,,, , 
0800ACB,,"Ack, Bidii Premier School",-1.22278,36.72054,,, , 
0800WHC,,Wangige Health Centre,-1.22299,36.72104,,, , 
0810WHC,,Wangige Health Centre,-1.22365,36.72282,,, , 
0800KHC,,Kiambu Institute Of Hostels And Catering,-1.22434,36.72466,,, , 
0800KBY,,Kabay/Msamaria Mwema Children'S Home,-1.22627,36.72825,,, , 
0800KKC,,Kibichiku Centre,-1.22768,36.73018,,, , 
0800LKM,,Lekamu,-1.22873,36.73164,,, , 
0800ACH,,Ack Kibichiku,-1.23044,36.73404,,, , 
0810OMH,,Oasis Mission Hospital,-1.23252,36.7379,,, , 
0800MMS,,Mwimuto Salvation Army/Pefa/Bluechip Apartments,-1.23339,36.74133,,, , 
0800KNN,,Kanini,-1.23408,36.74466,,, , 
0800MWM,,Mwimuto,-1.23478,36.74738,,, , 
0810MWM,,Mwimuto,-1.23507,36.748,,, , 
0800TAC,,Total/Ack Mwimuto,-1.23533,36.74858,,, , 
0800NKE,,New Kitisuru Estate,-1.23576,36.74948,,, , 
0800KWR,,Kirawa Road,-1.23779,36.761,,, , 
0800KIA,,KIA,-1.23898,36.76503,,, , 
0800LVW,,Lake View,-1.24381,36.76821,,, , 
0810ZEN,,Zen Garden,-1.24528,36.76913,,, , 
0800HVW,,Hill View,-1.24639,36.77447,,, , 
0800BYP,,Bypass,-1.24741,36.77904,,, , 
0800KBL,,Kabete Lane/Total Spring Valley,-1.25419,36.7928,,, , 
0800BRD,,Brookside Drive,-1.2556,36.79766,,, , 
0800PPN,,Peponi Road,-1.25939,36.80195,,, , 
0800SRT,,Sarit Center,-1.260787,36.802791,,, , 
0800WST,,Westlands,-1.26176,36.803678,,, , 
0800LUN,,Lunapark,-1.263331,36.806535,,, , 
0800MAY,,Mayfair,-1.263458,36.808186,,, , 
0800TTM,,Total Mayfair,-1.263498,36.809221,,, , 
0800IMP,,Impala Hotel,-1.264075,36.810185,,, , 
0800MPS,,Mp Shah,-1.26482,36.811256,,, , 
0800PPT,,Police Post Parklands,-1.265185,36.811861,,, , 
0800KLH,,K1,-1.268386,36.812178,,, , 
0800PSC,,Parklands Sports Club,-1.269484,36.812382,,, , 
0810MSM,,Museum,-1.272516,36.815132,,, , 
0800SHK,,Shirika House,-1.273255,36.816427,,, , 
0800NGR,,Ngara Flyover Bottom,-1.277281,36.821147,,, , 
0412MKD,,Makadara,-1.296451,36.862606,,, , 
0401BDG,,Bridge,-1.27171,36.88135,,, , 
0401LUM,,Lumumba Madukani,-1.292253,36.869728,,, , 
0401JNB,,Junction,-1.289733,36.875458,,, , 
0401MTP,,Metropolitan Hospital,-1.288246,36.874672,,, , 
0401BRG,,Buru Buru Girls,-1.286377,36.874051,,, , 
0401HRB,,Harambee,-1.285141,36.873807,,, , 
0411HRB,,Harambee,-1.284591,36.873625,,, , 
0401HUJ,,Harambee Uhuru Junction,-1.28188,36.871372,,, , 
0401KBU,,Kiambiu,-1.280591,36.871026,,, , 
0401KCT,,Kobil Calvary Temple,-1.27887,36.872215,,, , 
0401NBP,,Neighbours Buruburu Phase 1,-1.277615,36.875755,,, , 
0401BPR,,Buruburu 1 Primary School,-1.275435,36.87744,,, , 
0411BP1,,Phase 1 Stage,-1.272672,36.877445,,, , 
0401RPL,,Raphael,-1.272217,36.87739,,, , 
0411SOS,,SOS,-1.271622,36.878287,,, , 
0401MWS,,Outer Mwisho,-1.271684,36.879309,,, , 
0400TTL,,Total,-1.270318,36.880947,,, , 
0400MYK,,Mayaka,-1.266875,36.880084,,, , 
0401HMN,,Harmony,-1.266028,36.879881,,, , 
0401RDB,,Rounda,-1.262318,36.878902,,, ,0014KRA
0401KCB,,KCB,-1.259332,36.878897,,, , 
0401EQY,,Equity,-1.258307,36.87886,,, , 
0401KSN,,Kanisani,-1.257172,36.878816,,, , 
0403BNG,,Kariobangi,-1.256664,36.878845,,, , 
0400KCB,,KCB,-1.259294,36.878909,,, , 
0403RAU,,Rounda,-1.26271,36.87912,,, , 
0400HMN,,Harmony,-1.265797,36.879828,,, , 
0401MYK,,Mayaka,-1.26679,36.88013,,, , 
0400PIO,,Pioneer Estate,-1.267833,36.880376,,, , 
0401TTL,,Total,-1.269783,36.880898,,, , 
0400TMW,,Outer Mwisho,-1.271725,36.879305,,, , 
0400PSG,,Phase 1 Stage,-1.272407,36.877518,,, , 
0400PSM,,Phase 1 Monument,-1.274204,36.877514,,, , 
0400BPS,,Buruburu 1 Primary School,-1.275405,36.877489,,, , 
0400BRB,,Buruburu Roundabout,-1.277372,36.87734,,, , 
0400BNB,,Neighbours Phase 1,-1.27771,36.875698,,, , 
0400BKB,,Kiambiu,-1.278592,36.872755,,, , 
0400UJN,,Harambee Uhuru Junction,-1.281935,36.871553,,, , 
0400HRB,,Harambee,-1.283695,36.873042,,, , 
0410HRB,,Harambee,-1.284973,36.873887,,, , 
0410BRG,,Buruburu Girls,-1.286088,36.874025,,, , 
0400MTP,,Metropolitan Hospital,-1.287683,36.874441,,, , 
0410MAK,,Market,-1.288553,36.874986,,, , 
0400LMS,,Lumumba Shops,-1.292329,36.869708,,, , 
0400N10,,Number 10,-1.293139,36.867177,,, , 
0400HDH,,Hodihodi,-1.29309,36.866034,,, , 
0400FDS,,Friends Centre,-1.29346,36.864653,,, , 
0400PS1,,Maringo Phase1,-1.293352,36.862728,,, , 
0402MWH,,Makadara/Mwisho,-1.296118,36.862166,,, , 
0412NAI,,Umoja Stage,-1.296393,36.886606,,, , 
0411MUT,,Mtindwa,-1.28512,36.883921,,, , 
0401CLX,,Caltex,-1.278327,36.882877,,, , 
0401UMJ,,Umoja Junction,-1.276388,36.886054,,, , 
0401UM3,,Umoja 3,-1.274166,36.894854,,, , 
0401MLH,,Mama Lucy,-1.272892,36.89732,,, , 
0401SPL,,Supa Loaf,-1.269006,36.901947,,, , 
0401KOJ,,Koma Junction,-1.26546,36.904551,,, , 
0401VWP,,View Park,-1.266782,36.906233,,, , 
0411IFB,,Infill B,-1.26612,36.90682,,, , 
0401IFB,,Infill B,-1.26579,36.90711,,, , 
0401S3B,,Sector 3B,-1.26513,36.90769,,, , 
0411RND,,Rounda,-1.26424,36.90834,,, , 
0401P1M,,Phase1  Market,-1.26243,36.9103,,, , 
0411P1M,,Phase1  Market,-1.26219,36.9106,,, , 
0401MVC,,Mvinje Court,-1.26178,36.91165,,, , 
0401MKC,,Mukokoa Court,-1.262199,36.912699,,, , 
0401MSC,,Msisi Court,-1.262869,36.913268,,, , 
0401MBC,,Mbuyu Court,-1.2633,36.91375,,, , 
0401MPC,,Msaponi Court,-1.26368,36.91417,,, , 
0411MPC,,Msaponi Court,-1.26399,36.9145,,, , 
0403MKC,,Mkanju Court,-1.26413,36.91478,,, , 
0400SP1,,Step 1,-1.26518,36.91656,,, , 
0400TSH,,Tushauriane,-1.26644,36.9161,,, , 
0410TSH,,Tushauriane,-1.26719,36.91544,,, , 
0400KNS,,Kanisani,-1.269092,36.913476,,, , 
0400RND,,Rounda,-1.264403,36.908316,,, , 
0400S3B,,Sector 3B,-1.265207,36.90773,,, , 
0400VPK,,View Park,-1.26695,36.906144,,, , 
0400KMJ,,Kona/Junction,-1.265559,36.904639,,, , 
0400MLH,,Mama Lucy Hospital,-1.273022,36.897279,,, , 
0400EST,,East Capital,-1.275294,36.891604,,, , 
0400UMJ,,Junction /Umoja,-1.275972,36.887153,,, , 
0400CLX,,Caltex,-1.27863,36.882912,,, , 
0410MUT,,Mtindwa,-1.285453,36.884186,,, , 
0400STL,,Stella,-1.289596,36.885163,,, , 
0412CAR,,Church Army,-1.29475,36.85326,,, , 
0411RIK,,Rikana,-1.293424,36.85213,,, , 
0411JNV,,Jana Villa,-1.291903,36.852417,,, , 
0401BFR,,Biafra,-1.286501,36.851676,,, , 
0411BFR,,Biafra,-1.286449,36.85167,,, , 
0411SNC,,Suncity,-1.28568,36.851605,,, , 
0403JOS,,Joster,-1.282806,36.851112,,, , 
0400SNC,,Suncity,-1.285452,36.85161,,, , 
0400BFR,,Biafra,-1.286574,36.851751,,, , 
0400JNV,,Jana Villa,-1.289892,36.852357,,, , 
0410JNV,,Jana Villa,-1.291911,36.852481,,, , 
0410RIK,,Rikana,-1.293439,36.852278,,, , 
0008MUT,,Muthurwa,-1.288049,36.833947,,,1, 
0412MTW,,Muthurwa,-1.288449,36.834243,,, ,0008MUT
0411CST,,City Stadium Stage,-1.29237,36.84373,,, , 
0411SMY,,Shauri Moyo,-1.29288,36.846,,, , 
0411MZW,,Maziwa,-1.2936,36.8492,,, , 
0401RKN,,Rikana,-1.294013,36.851153,,, , 
0411CAR,,Church Army,-1.29454,36.85315,,, , 
0411PST,,Posta,-1.29528,36.85678,,, , 
0401UJR,,Uchumi Jogoo Road,-1.29642,36.86237,,, , 
0401KOT,,Kotini,-1.296118,36.86203,,, , 
0401PS1,,Maringo Phase1,-1.293303,36.862738,,, , 
0401FDS,,Friends Centre,-1.293403,36.864591,,, , 
0401HDH,,Hodihodi,-1.293019,36.866085,,, , 
0401N10,,No 10,-1.293061,36.867141,,, , 
0401JUC,,Junction,-1.292078,36.868654,,, , 
0401LHS,,Lumumba Hosptial,-1.291841,36.87144,,, , 
0403LMS,,Mwisho,-1.290631,36.873744,,, , 
0400KOT,,Kotini,-1.29508,36.862289,,, , 
0410MKD,,Makadara,-1.29657,36.86223,,, , 
0410DCJ,,DC Jogoo Road,-1.296536,36.8621,,, , 
0400UJR,,Uchumi Jogoo Road,-1.29618,36.86031,,, , 
0410PST,,Posta,-1.29565,36.85747,,, , 
0400MKG,,Makongeni,-1.294254,36.851282,,, , 
0400MZW,,Maziwa,-1.293841,36.849383,,, , 
0410KLL,,Kaloleni,-1.29304,36.84563,,, , 
0410CST,,City Stadium Stage,-1.29239,36.84268,,, , 
0014KRA,,Kariobangi Round About,-1.262408,36.879051,,,1, 
0402KY1,,Kayole 1,-1.26202,36.91967,,, , 
0400JNC,,Junction,-1.26347,36.92213,,, , 
0410JNC,,Junction,-1.2636,36.92242,,, , 
0400KPS,,Kayole Police,-1.26433,36.92351,,, , 
0400POS,,Post/Mihang'o,-1.26531,36.92328,,, , 
0410K1M,,Kayole 1 Market,-1.2663,36.92266,,, , 
0400KON,,Kona,-1.26865,36.92063,,, , 
0410KCF,,Kwa Chief,-1.27186,36.91872,,, , 
0400SBA,,Sabasaba,-1.27306,36.91822,,, , 
0400MRA,,Maria,-1.27431,36.91784,,, , 
0400RST,,Raster,-1.27537,36.91743,,, , 
0410RST,,Raster,-1.27588,36.91713,,, , 
0400PMR,,Prime Rose,-1.27635,36.91676,,, , 
0400NYD,,Nyando,-1.27736,36.91589,,, , 
0400KOI,,Kioi,-1.2792,36.91541,,, , 
0400SWT,,Soweto,-1.28144,36.91476,,, , 
0400PST,,Post,-1.28105,36.91374,,, , 
0400MSB,,Masimba,-1.27818,36.90797,,, , 
0410MSB,,Masimba,-1.27893,36.90723,,, , 
0400BER,,Bee Centre/Roundabt,-1.28305,36.90249,,, , 
0410NSE,,Nasra Estate,-1.27978,36.90098,,, , 
0400UM2,,Umoja 2,-1.27932,36.89808,,, , 
0400KWC,,Kwa Chief,-1.28017,36.89628,,, , 
0410KWC,,Kwa Chief,-1.27935,36.89591,,, , 
0400VSP,,Visa Place,-1.27804,36.89521,,, , 
0400OOJ,,Olomboni Junction,-1.2778,36.8925,,, , 
0400JNT,,Junction,-1.2785,36.88914,,, , 
0410CRN,,Charina,-1.27692,36.88785,,, , 
0400UJJ,,Umoja Junction,-1.27602,36.88728,,, , 
0401UJJ,,Umoja Junction,-1.27597,36.88731,,, , 
0411CRN,,Charina,-1.27765,36.88861,,, , 
0401JNT,,Junction,-1.27847,36.8892,,, , 
0401PCK,,Peacock,-1.27831,36.89034,,, , 
0401OLJ,,Olomboni Junction,-1.27791,36.89185,,, , 
0401KCF,,Kwa Chief,-1.28018,36.89622,,, , 
0401UM2,,Umoja 2,-1.27922,36.89821,,, , 
0401KSR,,Kayole Spine Junction,-1.27825,36.90006,,, , 
0411NSE,,Nasra Estate,-1.28108,36.9017,,, , 
0401BEN,,Bee Centre,-1.28275,36.902849,,, , 
0401MSB,,Masimba,-1.27834,36.90773,,, , 
0411MAS,,Masimba,-1.27724,36.90837,,, , 
0401NYV,,Nyama Villa,-1.27614,36.90885,,, , 
0401KDO,,Kwa D.O,-1.27465,36.91046,,, , 
0411RCK,,Rocks,-1.27369,36.91086,,, , 
0401ROK,,Rocks,-1.27285,36.91115,,, , 
0401PCE,,Pcea,-1.2706,36.91307,,, , 
0411KNS,,Kanisani,-1.26985,36.91335,,, , 
0401KNS,,Kanisani,-1.26892,36.91361,,, , 
0411TSH,,Tushauriane,-1.26644,36.916,,, , 
0411SP1,,Step 1,-1.26541,36.91643,,, , 
0401CLV,,Calvary,-1.2646,36.91685,,, , 
0412AMB,,Ambassadeur,-1.28614,36.82652,,, ,0005AMB
0411HMZ,,Hamza,-1.29698,36.87566,,, , 
0411TMH,,Tom Mboya Hall,-1.29661,36.87832,,, , 
0401KSD,,Kisumu Ndogo,-1.29924,36.89012,,, , 
0411KSD,,Kisumu Ndogo,-1.29909,36.89083,,, , 
0411SVN,,Savanna,-1.29752,36.89387,,, , 
0401SVN,,Savanna,-1.2971,36.89441,,, , 
0401GNF,,Green Field,-1.29451,36.89626,,, , 
0411GNF,,Green Field,-1.29434,36.89648,,, , 
0401HRS,,Harambee Sacco,-1.29262,36.89927,,, , 
0411PH5,,Phase 5,-1.29185,36.90056,,, , 
0401TGS,,Tuskys Green Span,-1.29024,36.90175,,, , 
0411TGS,,Tuskys Green Span,-1.28955,36.90217,,, , 
0401JCN,,Jacaranda,-1.28752,36.90462,,, , 
0411JCN,,Jacaranda,-1.287,36.90448,,, , 
0401GSE,,Green Span Estate,-1.28612,36.90417,,, , 
0401BEC,,Bee Centre,-1.28332,36.90282,,, , 
0401RCK,,Rocks,-1.27294,36.91098,,, , 
0401IFA,,Infill A,-1.27138,36.90951,,, , 
0401P3A,,Phase 3A,-1.27089,36.90911,,, , 
0411P3A,,Phase 3A,-1.27047,36.90877,,, , 
0401BMP,,Bumps,-1.26989,36.90834,,, , 
0401P3B,,Phase 3B,-1.268758,36.906726,,, , 
0401PS4,,Phase 4/Car Wash,-1.26837,36.90571,,, , 
0400PCE,,Pcea,-1.27068,36.91308,,, , 
0410PCE,,Pcea,-1.27141,36.91245,,, , 
0400RCK,,Rocks,-1.27296,36.9111,,, , 
0400KDO,,Kwa Do,-1.274628,36.910548,,, , 
0410KDO,,Kwa Do,-1.27532,36.90987,,, , 
0400NYV,,Nyama Villa,-1.2762,36.90886,,, , 
0400SOS,,Sosiani,-1.28138,36.90543,,, , 
0400BEC,,Bee Centre,-1.28335,36.90286,,, , 
0400GNS,,Green Span,-1.28596,36.90416,,, , 
0410PH8,,Phase 8,-1.28871,36.90342,,, , 
0400TSK,,Tuskys,-1.290194,36.901926,,, , 
0400PH5,,Phase 5,-1.29205,36.90041,,, , 
0410PS5,,Phase 5,-1.29244,36.89991,,, , 
0400HRS,,Harambee Sacco,-1.292715,36.89918,,, , 
0401EPA,,Epren Academy,-1.29547,36.89568,,, , 
0400EPA,,Epren Academy,-1.29582,36.89553,,, , 
0400TMN,,Tumaini,-1.29728,36.89428,,, , 
0400SVN,,Savanna,-1.29775,36.89367,,, , 
0400MRS,,Mara Savanna,-1.298668,36.892513,,, , 
0400KSD,,Kisumu Ndogo,-1.299397,36.890125,,, , 
0410KSD,,Kisumu Ndogo,-1.299596,36.889769,,, , 
0410DNR,,Donholm Roundabout,-1.29726,36.88532,,, , 
0410TMH,,Tom Mboya Hall,-1.29694,36.87756,,, , 
0410HMZ,,Hamza,-1.297333,36.87488,,, , 
0400TJR,,Total Jogoo Road,-1.298008,36.869484,,, , 
0400NCC,,Nacico,-1.28892,36.8398,,, , 
0400CTB,,Country Bus,-1.28666,36.835242,,, , 
0410SLA,,Salvation Army,-1.28515,36.83094,,, , 
0410BST,,Bus Station,-1.28691,36.82898,,, , 
0402CMK,,Ronald Ngala/Tuskys,-1.285901,36.827633,,, , 
0410NAI,,Umoja Stage,-1.296591,36.886749,,, , 
0402MLY,,Mama Lucy Terminal,-1.275035,36.898525,,, , 
0401JUN,,Junction,-1.27971,36.91058,,, , 
0411JUN,,Junction,-1.28044,36.91191,,, , 
0401POS,,Post,-1.28107,36.91382,,, , 
0401SWT,,Soweto,-1.28144,36.91469,,, , 
0411KOI,,Kioi,-1.27916,36.91541,,, , 
0401NYD,,Nyando,-1.27741,36.91583,,, , 
0401PMR,,Prime Rose,-1.27641,36.91665,,, , 
0411RST,,Rasta,-1.27547,36.91738,,, , 
0401MRA,,Maria,-1.27431,36.91788,,, , 
0401SBA,,Sabasaba,-1.27307,36.9182,,, , 
0411KCF,,Kwa Chief,-1.27166,36.91888,,, , 
0401GKC,,Goa Kayole Church,-1.27105,36.91933,,, , 
0401DSL,,Diesel,-1.270568,36.919652,,, , 
0401BSR,,Kayole Hispital/Biason Road,-1.270174,36.919794,,, , 
0401KON,,Kona,-1.268573,36.920489,,, , 
0401KYJ,,Kayole Junction,-1.257342,36.922846,,, , 
0401TWS,,Twisters,-1.25627,36.926635,,, , 
0411NJR,,Njiru,-1.250485,36.940001,,, , 
0403MKI,,Mwiki Terminal,-1.235916,36.934875,,, , 
0410NJR,,Njiru,-1.250577,36.939914,,, , 
0400KYJ,,Kayole Junction,-1.257457,36.922733,,, , 
0401MKB,,Mt Kenya Bar Shauri Moyo,-1.291703,36.855431,,, , 
0401MPS,,Morisson Primary School,-1.289819,36.859823,,, , 
0401BPS,,Bahati Primary School Kag Bahati,-1.288722,36.86233,,, , 
0401KST,,Kimathi/Section 3 Junction,-1.28848,36.863025,,, , 
0411DLP,,Dr. Livingstone Primary School,-1.287236,36.865176,,, , 
0411JSC,,Jerusalem Shopping Centre,-1.285251,36.867947,,, , 
0401USC,,Uhuru Shopping Centre,-1.283149,36.869973,,, , 
0401UPS,,Uhuru Primary School,-1.282416,36.870807,,, , 
0401PNR,,Pioneer Estate,-1.271557,36.880591,,, , 
0401CVT,,Civil Servants Total Petrol Station,-1.269612,36.880758,,, , 
0401CVS,,Civil Servants Southend Bar,-1.269417,36.881248,,, , 
0401FNN,,Friends Inn,-1.265392,36.885949,,, , 
0403KSE,,Kariobangi South Estate/Deliverance Church,-1.262589,36.887016,,, , 
0400DSP,,Dayspring,-1.263539,36.887485,,, , 
0400FSX,,56,-1.264858,36.886968,,, , 
0400FNN,,Friends Inn,-1.265346,36.886123,,, , 
0400KSP,,Kariobangi South Primary School,-1.26761,36.88542,,, , 
0400CSV,,Civil Servants,-1.269526,36.882858,,, , 
0400TTP,,Total Petrol Station,-1.269566,36.880842,,, , 
0400PES,,Pioneer Estate,-1.271602,36.880644,,, , 
0410USP,,Uhuru Shops,-1.28325,36.870013,,, , 
0400USS,,Uhuru Secondary School,-1.283791,36.869433,,, , 
0400UFD,,Uhuru Fields,-1.285159,36.868103,,, , 
0400JSC,,Jerusalem Shopping Centre,-1.2861,36.867097,,, , 
0400KAG,,Kag Bahati,-1.288915,36.862257,,, , 
0410BHS,,Bahati Stage,-1.289257,36.861512,,, , 
0410NPB,,Ngorofani Pcea Bahati,-1.289988,36.859837,,, , 
0400BHC,,Bahati Clinic,-1.290332,36.858991,,, , 
0400BDC,,Dc Bahati Office,-1.291113,36.857319,,, , 
0402AQN,,Aquinas,-1.292919,36.86259,,, , 
0412DLP,,Dr. Livingstone Primary School,-1.287124,36.865397,,, , 
0401CLT,,Caltex,-1.300826,36.887514,,, , 
0401KWR,,Kware,-1.307549,36.889996,,, , 
0401TMI,,Tumaini,-1.309334,36.890975,,, , 
0401MLD,,Meatland,-1.310881,36.891997,,, , 
0401STG,,Stage Mpya,-1.312419,36.892929,,, , 
0401FDA,,Fedha,-1.314621,36.894288,,, , 
0401PPL,,Pipeline,-1.317528,36.896065,,, , 
0401CMT,,Chemist,-1.31923,36.897193,,, , 
0401SPN,,Spinners,-1.320049,36.897686,,, , 
0401TRN,,Transami,-1.325301,36.897708,,, , 
0401KTN,,Kitindo,-1.326587,36.895879,,, , 
0400CBN,,Cabanas,-1.330018,36.890475,,, , 
0400KBL,,Kobil,-1.328278,36.892562,,, , 
0400KTN,,Kitindo,-1.326522,36.895331,,, , 
0400TRN,,Transami,-1.325403,36.897198,,, , 
0400RDA,,Rounda/Taj,-1.322794,36.899198,,, , 
0400CNT,,Connection,-1.321225,36.89818,,, , 
0400CMT,,Chemist,-1.319159,36.896993,,, , 
0400PPL,,Pipeline,-1.317316,36.89582,,, , 
0400FDA,,Fedha,-1.314552,36.894116,,, , 
0400AP1,,Avenue Park 1,-1.313665,36.893571,,, , 
0400STG,,Stage Mpya,-1.312481,36.892883,,, , 
0400AP2,,Avenue Park 2,-1.311383,36.892134,,, , 
0400TSA,,Tassia,-1.310417,36.891554,,, , 
0400TMI,,Tumaini,-1.309504,36.890988,,, , 
0400KWR,,Kware,-1.307618,36.889935,,, , 
0412CMC,,Commercial,-1.283244,36.826878,,, , 
0401FDJ,,Fedha Junction,-1.314264,36.894384,,, , 
0401FDE,,Fedha Estate,-1.313459,36.895747,,, , 
0401CWS,,Carwash,-1.30915,36.901952,,, , 
0403MWF,,Gate B,-1.308021,36.903472,,, , 
0410GTB,,Gate B,-1.308804,36.90256,,, , 
0400FDE,,Fedha Estate,-1.313642,36.895661,,, , 
0412DON,,Doni,-1.29804,36.88708,,, , 
0403KBL,,Kobil,-1.328658,36.892363,,, , 
0402DON,,Doni,-1.29895,36.88713,,, , 
0403RDA,,Rounda,-1.322971,36.899447,,, , 
0401TNS,,Transgobal,-1.338612,36.910735,,, , 
0411CRG,,Cargo,-1.336124,36.916187,,, , 
0401NAS,,Nas,-1.33724,36.919257,,, , 
0401PDO,,Passenger Drop Off,-1.331908,36.925852,,, , 
0401PD1,,Passenger Drop Off 1,-1.330685,36.924092,,, , 
0413PSB,,Passenger Boarding,-1.329602,36.92479,,, , 
0410APT,,Airport  Town Stage,-1.332423,36.926603,,, , 
0412TSR,,Tuskys Ronald Ngala,-1.2856,36.82833,,, ,0011TUS
0401KMJ,,Koma Junction,-1.265353,36.904544,,, , 
0403SKJ,,Saika Junction,-1.259517,36.912551,,, , 
0400SKJ,,Saika Junction,-1.259639,36.912423,,, , 
0400MYC,,Myca,-1.260856,36.909709,,, , 
0011TUS,,Tusker/Ronald Ngala,-1.285346,36.828574,,,1, 
0411BPF,,Buruburu Phase 5 Stage,-1.29418,36.8791,,, , 
0401BPF,,Buruburu Phase 5 Favourites,-1.29403,36.87993,,, , 
0401NPC,,Npc Buruburu,-1.29385,36.88073,,, , 
0411PFJ,,Phase 4 Ya Juu,-1.29252,36.88246,,, , 
0401BFA,,Bifa,-1.29074,36.88255,,, , 
0411PFS,,Phase 4 Stage,-1.28946,36.88204,,, , 
0401UCB,,Uchumi Buruburu,-1.288,36.88153,,, , 
0401TSK,,Tuskys,-1.28687,36.88114,,, , 
0403MTW,,Mutindwa,-1.28601,36.88066,,, , 
0400UCB,,Uchumi Buruburu,-1.28808,36.88157,,, , 
0400PFS,,Phase 4 Stage,-1.28923,36.88201,,, , 
0400BFA,,Bifa,-1.29074,36.88251,,, , 
0410PFJ,,Phase 4 Ya Juu,-1.29279,36.88228,,, , 
0400NPC,,Npc Buruburu,-1.29399,36.88053,,, , 
0410BPF,,Buruburu Phase 5 Stage,-1.29428,36.87888,,, , 
0410NCK,,Ncck,-1.29581,36.87668,,, , 
0402CTY,,City Stadium/Lusaka Road Junctn,-1.29345,36.84094,,, , 
0411DTB,,Dt Dobie,-1.29875,36.83781,,, , 
0401IND,,Industrial Area,-1.30013,36.83601,,, , 
0411CGR,,Car  & General,-1.30195,36.83243,,, , 
0401SLT,,Shimo La Tewa,-1.30361,36.82901,,, , 
0403NYO,,Baricho Road Terminus,-1.30411,36.82775,,, , 
0410CGR,,Car  &General,-1.30201,36.83195,,, , 
0400IND,,Industrial Area,-1.30012,36.83574,,, , 
0410DTB,,Dt Dobie,-1.29908,36.83715,,, , 
0412CTI,,City Stadium/Lusaka Road Junctn,-1.29336,36.84073,,, , 
0402LDR,,Ladhes Road/Otc,-1.28505,36.83242,,, , 
0401MYJ,,Manyanja,-1.2949,36.88697,,, , 
0411MYJ,,Manyanja,-1.2944,36.88798,,, , 
0411TEN,,Tena,-1.293,36.88979,,, , 
0411MCW,,Car Wash,-1.29017,36.89347,,, , 
0411MRR,,Manyanja Road Round About,-1.28737,36.89712,,, , 
0401MRR,,Manyanja Road Round About,-1.28621,36.89796,,, , 
0411BEN,,Bee Centre,-1.28332,36.90191,,, , 
0401MBA,,Masimba,-1.27812,36.90812,,, , 
0401NYR,,Nyora,-1.2671,36.92238,,, , 
0401MHN,,Mihang'O,-1.26568,36.92302,,, , 
0411MHN,,Mihang'O,-1.26512,36.92337,,, , 
0401SWM,,Sowematt,-1.26378,36.92286,,, , 
0401KNM,,Kona Mbaya,-1.26323,36.92144,,, , 
0403KY1,,Kayole 1,-1.26212,36.91966,,, , 
0410BEN,,Bee Centre,-1.28363,36.9017,,, , 
0400MRR,,Manyanja Road Round About,-1.28672,36.89801,,, , 
0410MRR,,Manyanja Road Round About,-1.28772,36.89679,,, , 
0400MCW,,Manyanja Road Car Wash,-1.28986,36.89401,,, , 
0410MCW,,Manyanja Road Car Wash,-1.29048,36.89322,,, , 
0410TEN,,Tena,-1.29359,36.88918,,, , 
0410MYJ,,Manyanja,-1.295,36.88708,,, , 
0403DSL,,Diesel,-1.26988,36.92002,,, , 
04O2CLT,,Caltex,-1.30084,36.88806,,, , 
0402CLT,,Caltex,-1.300963,36.888118,,, , 
0411MTN,,Mutindwa,-1.28562,36.8841,,, , 
0401MTN,,Mutindwa,-1.28476,36.88453,,, , 
0401UM1,,Umoja 1,-1.28413,36.88711,,, , 
0400UMM,,Umoja Market,-1.28371,36.88712,,, , 
0400UMD,,Umoja Dispensary,-1.28263,36.88686,,, , 
0411KPS,,Kapsoit Road Junction,-1.28204,36.88671,,, , 
0401GEE,,G,-1.27982,36.88711,,, , 
040HHH,,H,-1.27897,36.888,,, , 
040PLB,,Plan B,-1.27877,36.88843,,, , 
04001LV,,First Love,-1.28248,36.89671,,, , 
0410INC,,Inner Core,-1.28273,36.89588,,, , 
0403INC,,Innercore,-1.28291,36.89549,,, , 
0400GRS,,Grand Supermaket,-1.28366,36.89416,,, , 
0400CST,,Cathsam,-1.28459,36.89394,,, , 
0410NBT,,Nabuto,-1.28535,36.89415,,, , 
0400SNG,,Sango,-1.28653,36.89445,,, , 
0410SNG,,Sango,-1.28696,36.89451,,, , 
0400JSK,,Jeska,-1.28781,36.89167,,, , 
0400KNA,,Kona,-1.28783,36.89109,,, , 
0410JST,,Joystar,-1.28689,36.88931,,, , 
0400JST,,Joystar,-1.28677,36.88891,,, , 
0400GPM,,Giant Pharmaceuticals,-1.28579,36.88763,,, , 
0400JMC,,Jambo Cyber,-1.28508,36.88744,,, , 
0400UM1,,Umoja 1/Jasho Stage,-1.28418,36.88724,,, , 
0400KCU,,Kcb Umoja,-1.28468,36.88505,,, , 
0411SKA,,Saika,-1.258552,36.9164,,, , 
0401CHK,,Chokaa,-1.250724,36.952748,,, , 
0401TKY,,Tuskys,-1.262146,36.976114,,, , 
0411BPS,,By Pass,-1.264119,36.983196,,, , 
0401WKM,,Welkim,-1.26668,36.989375,,, , 
0401DNE,,Dune,-1.270022,36.994872,,, , 
0403QKM,,Quickmart,-1.271193,36.996888,,, , 
0400DNE,,Dune,-1.269948,36.994619,,, , 
0400WKM,,Welkim,-1.266918,36.989741,,, , 
0410BPS,,By Pass,-1.264259,36.983082,,, , 
0410TKY,,Tuskys,-1.262244,36.976393,,, , 
0400CHK,,Chokaa,-1.25085,36.952872,,, , 
0401LKN,,Likoni,-1.296171,36.855461,,, , 
0401KIE,,Kie,-1.306108,36.85636,,, , 
0401VWA,,Viwandani,-1.307353,36.856554,,, , 
0411HOM,,Houes Of Manji,-1.309543,36.8573,,, , 
0401MAM,,Mamba,-1.309228,36.859428,,, , 
0411MRB,,Mareba,-1.308839,36.86231,,, , 
0401TUY,,Tuskys,-1.306922,36.875984,,, , 
0401SNI,,Sinai,-1.306552,36.87874,,, , 
0401CRS,,Crescent,-1.306213,36.881607,,, , 
0403DMS,,Donholm,-1.300211,36.885745,,, , 
0400KNP,,Kenpoly,-1.304277,36.883407,,, , 
0400DNB,,Doni Beach,-1.304934,36.883006,,, , 
0410DNB,,Donbeach,-1.30543,36.882598,,, , 
0400CRS,,Crescent,-1.306163,36.88208,,, , 
0410SNI,,Sinai,-1.306614,36.879198,,, , 
0400SNI,,Sinai,-1.306743,36.878495,,, , 
0400TUY,,Tuskys,-1.307043,36.876106,,, , 
0400RPY,,Raiply,-1.307445,36.873329,,, , 
0400ONA,,Kona,-1.308037,36.868145,,, , 
0410ONA,,Kona,-1.308104,36.868022,,, , 
0400PTC,,Patco,-1.308593,36.864654,,, , 
0410MRB,,Mareba,-1.308776,36.863592,,, , 
0400MRB,,Mareba,-1.309048,36.861798,,, , 
0400CWN,,Crown,-1.307335,36.856425,,, , 
0410BAT,,Bat,-1.30533,36.856105,,, , 
0400LKN,,Likoni,-1.296405,36.855267,,, , 
0401PSN,,Prison,-1.300879,36.837576,,, , 
0401DAR,,Daresalam,-1.304213,36.839302,,, , 
0401TAL,,Total,-1.306339,36.841548,,, , 
0401HMB,,Homabay,-1.307088,36.842819,,, , 
0401QTY,,Equity,-1.309235,36.845737,,, , 
0401BSA,,Busia,-1.310628,36.848034,,, , 
0401KPL,,Kampala,-1.311243,36.849444,,, , 
0411KPL,,Kampala,-1.311345,36.849784,,, , 
0401TPK,,Tetrapark,-1.313706,36.855886,,, , 
0401SHL,,Shell,-1.314588,36.858637,,, , 
0401ROA,,Road A,-1.318074,36.863021,,, , 
0401CEX,,Chloride Exide,-1.321591,36.86859,,, , 
0401FLC,,Falcon,-1.322638,36.86984,,, , 
0411GMM,,Gm,-1.326088,36.870826,,, , 
0403GMW,,Gm Mwisho,-1.328448,36.870162,,, , 
0400GMT,,Gm Town,-1.328512,36.87017,,, , 
0410CEX,,Chloride Exide,-1.321546,36.868628,,, , 
0400HCC,,Hillocks Country Club,-1.319164,36.865314,,, , 
0400ROA,,Road A,-1.317972,36.862809,,, , 
0400KRT,,Kartasi,-1.315107,36.860227,,, , 
0400TPK,,Tetrapark,-1.313898,36.856632,,, , 
0400EXP,,Express,-1.314765,36.85437,,, , 
0400CRN,,Crown,-1.314108,36.852687,,, , 
0400KYB,,Kayaba,-1.311827,36.850083,,, , 
0400BSA,,Busia,-1.310852,36.848077,,, , 
0400QTY,,Equity,-1.309123,36.845319,,, , 
0400KWA,,Kwal,-1.306381,36.841321,,, , 
0410COM,,Commercial,-1.303715,36.838689,,, , 
0412MTH,,Muthurwa,-1.288928,36.835961,,, , 
0401UMM,,Umoja Market,-1.283847,36.887127,,, , 
0401UMD,,Umoja Dispensary,-1.282512,36.886803,,, , 
0401HHH,,H,-1.278996,36.887937,,, , 
0401PLB,,Plan B,-1.278755,36.888581,,, , 
0403UM2,,Umoja 2 Terminus,-1.279313,36.898122,,, , 
0400PCK,,Peacock,-1.27814,36.89111,,, , 
0400HNB,,Hornbill,-1.27876,36.888656,,, , 
0400UMP,,Umoja Primary,-1.280541,36.886606,,, , 
0403JCN,,Jacaranda,-1.28765,36.90476,,, , 
0412CSD,,City Stadium,-1.292224,36.843029,,, , 
0401KNL,,Kenol Petrol Station,-1.284054,36.880382,,, , 
0401KNB,,Knlb,-1.28293,36.87995,,, , 
0401BPH,,Buruburu Phase One,-1.272791,36.877474,,, , 
0401SOS,,Sos,-1.271641,36.878322,,, , 
0401KOB,,K South,-1.267632,36.885368,,, , 
0401ACC,,Acc&S Kariobangi South Church,-1.266482,36.885569,,, , 
0401SIX,,36 Stage,-1.262577,36.886961,,, , 
0401TSX,,Junction 36 Stage,-1.261435,36.886392,,, , 
0311RIS,,Wamwaris,-1.261081,36.887801,,, , 
0311SEN,,Senior,-1.260132,36.890638,,, , 
0311TOT,,Total,-1.258169,36.893431,,, , 
0301AIC,,Aic Church,-1.25663,36.897972,,, , 
0311NNE,,Marigo Nne,-1.254787,36.899631,,, , 
0311DIZ,,Kwa Mandazi,-1.254192,36.90031,,, , 
0311FTY,,41 Stage,-1.251773,36.90316,,, , 
0311CIN,,Cinema,-1.250572,36.905081,,, , 
0311BET,,Bethany,-1.250111,36.905767,,, , 
0311JUA,,Jua Cali,-1.248276,36.908139,,, , 
0311JER,,New Jeruslaem,-1.24612,36.908321,,, , 
0313DDS,,Dandora Terminal,-1.245059,36.90846,,, , 
0300FTY,,Stage 41,-1.249049,36.90123,,, , 
0300DSC,,Dadora Sec,-1.251044,36.898828,,, , 
0310EQT,,Equity,-1.252438,36.897528,,, , 
0300BPS,,Bp Filling Statioon,-1.254669,36.894599,,, , 
0310DUN,,Dunia,-1.255699,36.893,,, , 
0310TOT,,Total,-1.258177,36.893397,,, , 
0310SEN,,Senior,-1.260172,36.890758,,, , 
0310RIS,,Wamwaris,-1.261084,36.888065,,, , 
0400TSX,,Junction 30 Stage,-1.261387,36.886382,,, , 
0300MUT,,Mutarakwa Road,-1.26148,36.886445,,, , 
0400SIX,,36 Stage,-1.262572,36.886991,,, , 
0410PCA,,Pcea,-1.266299,36.885641,,, , 
0410KOB,,K South,-1.267766,36.885365,,, , 
0410BBP,,Buru Buru Police Post,-1.279672,36.878203,,, , 
0400MTW,,Mutindwa,-1.28617,36.88093,,, , 
0400CTE,,Caltex,-1.27838,36.88269,,, , 
0400CLT,,Caltex,-1.30213,36.88775,,, , 
0101NGR,,Ngara Road,-1.27585,36.82299,,, , 
0101JHS,,Jamuhuri High School,-1.27335,36.82297,,, , 
0101STP,,Stima Plaza,-1.27043,36.82048,,, , 
0111SPS,,Stima Plaza Stage,-1.2696,36.8204,,, , 
0101WBR,,Wambugu Road,-1.26799,36.82127,,, , 
0101AGA,,Aga Khan Academy,-1.26628,36.82331,,, , 
0111OLB,,Oilibya,-1.26469,36.82432,,, , 
0101AKH,,Aga Khan Hospital Junction,-1.26288,36.8249,,, , 
0111AKS,,Aga Khan Hospital Stage,-1.26237,36.82369,,, , 
0101AKE,,Aga Khan Hospital Entrance,-1.26178,36.82224,,, , 
0101ARY,,Arya Girls' Secondary School,-1.26085,36.82007,,, , 
0111NKM,,Nakumatt/Post Office,-1.26012,36.81825,,, , 
0101ALM,,Amani Plaza/Almond Court,-1.25962,36.81717,,, , 
0101NRE,,Nish Raaj Estate,-1.25862,36.81484,,, , 
0103MSQ,,Kwa Mosque/Highridge Mwisho,-1.25687,36.81077,,, , 
0110KSL,,Nish Raaj Estate/Kusi Lane,-1.25864,36.81485,,, , 
0100CCD,,Coca Cola Depot,-1.25983,36.8176,,, , 
0110NKT,,Nakumatt Stage,-1.26018,36.81855,,, , 
0100ARG,,Arya Girls' Secondary School,-1.26081,36.81997,,, , 
0100AAE,,Aga Khan Hospital Entrance,-1.26177,36.82218,,, , 
0110APS,,Aga Khan Hospital Stage,-1.26198,36.8227,,, , 
0110APT,,Aga Khan Hospital Stage 2,-1.26277,36.82467,,, , 
0110TPA,,3Rd Parklands Avenue/ Aga Kan Hospital Junction,-1.26325,36.82498,,, , 
0110AGK,,Aga Khan Academy,-1.26646,36.82324,,, , 
0112ODE,,Odeon,-1.28303,36.82475,,, , 
0101CPK,,City Park,-1.26057,36.82615,,, , 
0111RHK,,6Th Parklands Avenue/Regal House/Kobil,-1.25777,36.82691,,, , 
0111BEK,,Belgian Embassy/Karura,-1.24701,36.8156,,, , 
0111TUN,,Un,-1.23867,36.81054,,, , 
0111RHR,,Redhill Road,-1.23418,36.80341,,, , 
0111VMA,,Village Market,-1.22876,36.80443,,, , 
0111KRU,,Karura/Runda,-1.22082,36.80136,,, , 
0101REE,,Runda Estate Entrance,-1.2186,36.80168,,, , 
0101ROR,,Rosslyn Road,-1.21721,36.80043,,, , 
0101ROK,,Rosslyn Road/Karura Community Chapel,-1.21649,36.79928,,, , 
0101SHR,,Shakers/Rosslyn Gate,-1.21115,36.79024,,, , 
0101DPB,,Delta Petrol Station/ Brook Apartmens,-1.20918,36.7882,,, , 
0113RST,,Ruaka Stage,-1.20717,36.78571,,, , 
0100CBR,,Cooperative Bank Ruaka,-1.20678,36.78464,,, , 
0100RBJ,,Ruaka/Banana Junction,-1.20722,36.78602,,, , 
0100DPA,,Delta Petrol Station Ruaka,-1.20934,36.78847,,, , 
0100MRC,,Movers/Rosslyn Centre,-1.21102,36.79019,,, , 
0100RRP,,Rosslyn Road/Karura Community Chapel,-1.21641,36.79927,,, , 
0100RES,,Runda Estate Entrance,-1.21873,36.80177,,, , 
0100RKH,,Runda/Karura Carwash,-1.22091,36.80144,,, , 
0110VMT,,Village Market,-1.23006,36.80399,,, , 
0100RRJ,,Redhill Road Junction,-1.23398,36.80339,,, , 
0110UNA,,Un,-1.23781,36.80961,,, , 
0110MTS,,Muthaiga Shopping Centre,-1.25044,36.82058,,, , 
0100TCP,,Total/City Park,-1.25943,36.82673,,, , 
0102KHJ,,Koja/Nation Centre,-1.281428,36.822532,,, ,0002KOJ
0101RKJ,,Ruaka Junction,-1.20717611102955,36.7858676665443,,,, 
0101CAV,,Church Of Acts/Velvet Lounge,-1.203525,36.785397,,, , 
0111KEA,,Kiambea,-1.198614,36.784122,,, , 
0101MUC,,Redeemed/Pefa Muchatha,-1.197213,36.782874,,, , 
0101GOG,,Guango,-1.195673,36.780783,,, , 
0111JEK,,Kwa Jeki,-1.194099,36.778615,,, , 
0101NTO,,Kwa Kanisa Ack/National Oil,-1.193291,36.777536,,, , 
0101MCC,,Muchatha Shopping Centre,-1.192055,36.775879,,, , 
0101LSC,,Life Sanctuary Church/Muchatha Shopping Centre,-1.19145,36.775071,,, , 
0101MIC,,Mary Immaculate Catholic Church/Muchatha Shopping Centre,-1.190698,36.774211,,, , 
0101MDS,,Muchatha Dispensary/Kwa Shule/Yamongo Drive,-1.189723,36.773257,,, , 
0111KIV,,Kivuti Stage,-1.188314,36.771234,,, , 
0101SHT,,Sacred Heart,-1.186283,36.767421,,, , 
0101NJK,,Kwa Njoki Kamili,-1.184899,36.764492,,, , 
0101KAT,,Kwa Njoki/Ack Thimbigwa,-1.183893,36.763636,,, , 
0101VRY,,Victory,-1.181719,36.762391,,, , 
0101ZAK,,Zakau,-1.179181,36.760914,,, , 
0101LIK,,Likoni,-1.178733,36.760654,,, , 
0101MOM,,Mombasa,-1.177906,36.760269,,, , 
0101MKB,,Mkulima Supermarket/Banana,-1.175287,36.759291,,, , 
0101KOB,,Kobil/Banana,-1.17466,36.759053,,, , 
0113BAA,,Banana Terminus,-1.17383,36.758605,,, , 
0100MOM,,Mombasa,-1.17786,36.760345,,, , 
0100LIK,,Likoni,-1.179095,36.760938,,, , 
0100CHL,,Chantilly School,-1.181032,36.762044,,, , 
0100VIN,,Victory Inn,-1.181773,36.762476,,, , 
0100NJT,,Kwa Njoki / Thimbigwa Ack,-1.183852,36.763684,,, , 
0100SHT,,Sacred Heart,-1.186278,36.767456,,, , 
0110TVM,,Traveller'S View Muchatha,-1.188491,36.771639,,, , 
0100KSS,,Kwa Shule/Seth Home Of Love Children'S Home/Muchatha Dispensary,-1.189608,36.773253,,, , 
0100MIS,,Mary Immaculate Secondary School/Muchatha,-1.190679,36.774297,,, , 
0100LSM,,Life Sanctuary/Muchatha,-1.191495,36.775223,,, , 
0100TTM,,Total/Muchatha,-1.193078,36.777371,,, , 
0100NAM,,National Oil/Muchatha,-1.193428,36.777892,,, , 
0110WAM,,Kwa Jeki/Wambi,-1.194574,36.779445,,, , 
0100GUG,,Guango,-1.195629,36.780871,,, , 
0100PEF,,Pefa/All Nations/Muchatha,-1.197129,36.782933,,, , 
0110GTH,,Gathanga Stage,-1.198999,36.78444,,, , 
0100VEV,,Velvet Lounge,-1.202782,36.785553,,, , 
0111RST,,Ruaka Stage,-1.207146,36.785877,,, , 
0101RCK,,Ruaka Ack Church,-1.20676,36.78382,,, , 
0101RDC,,Ruaka Dc,-1.2065,36.78171,,, , 
0101RCC,,Ruaka Catholic Church,-1.2062,36.78055,,, , 
0101SLT,,Slaughter,-1.20523,36.77754,,, , 
0101PMR,,Pm Flats/ Runda View,-1.20429,36.77439,,, , 
0101PMV,,Pm Flats/ Runda View 2,-1.20369,36.77218,,, , 
0111MCM,,Mirai Court/Mifereji,-1.20322,36.77046,,, , 
0101KTO,,Komototho,-1.20202,36.7662,,, , 
0101GRJ,,Gacharage Junction,-1.20041,36.76058,,, , 
0101RMY,,Rumenya,-1.19961,36.75794,,, , 
0111AMB,,Ambassadors Stage,-1.19859,36.75619,,, , 
0101AME,,Ambassadors Entrance,-1.19804,36.75538,,, , 
0101CHC,,Christco Church,-1.19628,36.75294,,, , 
0101FRK,,Furaha/ Kag Ndenderu,-1.1954,36.75175,,, , 
0111NDS,,Ndenderu Stage,-1.19303,36.74802,,, , 
0101REN,,Redeemed Ndenderu,-1.19238,36.74504,,, , 
0101NDJ,,Ndenderu Junction,-1.192266,36.743758,,, , 
0101NSA,,Ndenderu Sda,-1.192834,36.74368,,, , 
0101SAN,,St.Annes,-1.19438,36.7385,,, , 
0113KAR,,Karura Mwisho,-1.19435,36.73204,,, , 
0110KRS,,Karura Stage,-1.19437,36.73198,,, , 
0100STJ,,St. Annes (Kwa Daraja),-1.19437,36.73506,,, , 
0100STN,,St. Annesud,-1.19452,36.73834,,, , 
0100VDA,,Victory Gospel/Sda,-1.19432,36.7429,,, , 
0100NDT,,Ndenderu Junction,-1.19233,36.7437,,, , 
0110NGP,,Ndenderu Redeemed Gospel,-1.19222,36.74442,,, , 
0110NSG,,Ndenderu Stage,-1.1926,36.74685,,, , 
0100NKD,,Ndenderu Kwa Maduka,-1.19449,36.75061,,, , 
0100CTC,,Christco,-1.19626,36.75305,,, , 
0100ASD,,Ambassadors,-1.19794,36.75537,,, , 
0110AST,,Ambassadors Stage,-1.19864,36.75634,,, , 
0100RYA,,Rumenya,-1.20037,36.76065,,, , 
0100MFB,,Mifereji/God'S Ability,-1.20213,36.76693,,, , 
0110PMT,,Pm Flats,-1.20375,36.77257,,, , 
0100JYL,,Joyland,-1.20469,36.77598,,, , 
0100SLG,,Slaughter,-1.20578,36.78005,,, , 
0100RCN,,Ruaka Catholic Church Entrance,-1.20614,36.78059,,, , 
0100RRD,,Ruaka Redeemed Gospel Church,-1.20651,36.78206,,, , 
0112POL,,Poland Embassy,-1.234835,36.803782,,, , 
0101MTH,,Muthaiga Junction,-1.228633,36.798518,,, , 
0101NYR,,Nyari,-1.226487,36.795583,,, , 
0101NYG,,Nyari Gate 2,-1.225544,36.791386,,, , 
0101NYP,,Nyari Police,-1.225594,36.787764,,, , 
0101NGG,,Nyari Gate 3,-1.225371,36.785596,,, , 
0101RSH,,Roslyn Heights,-1.223669,36.782832,,, , 
0101SDA,,Sda Church,-1.223143,36.781961,,, , 
0101KKB,,Kamukabi,-1.222324,36.780623,,, , 
0111KNA,,Kona,-1.220945,36.778584,,, , 
0101CHF,,Sub Chief,-1.219799,36.778197,,, , 
0101POW,,Power,-1.217477,36.778214,,, , 
0101JAK,,Jakai,-1.219745,36.772222,,, , 
0113GCH,,Gasolina/Gichagi Mwisho,-1.219641,36.766688,,, , 
0100JAK,,Jakai,-1.219687,36.77222,,, , 
0100POW,,Power,-1.21731,36.778253,,, , 
0100KNA,,Kona,-1.221391,36.779214,,, , 
0110KKB,,Kamukabi,-1.222414,36.780964,,, , 
0100CHE,,Commission Of Higher Education,-1.227579,36.797994,,, , 
0100NMT,,New Muthaiga,-1.228621,36.798616,,, , 
0112LKT,,Koja,-1.28127,36.822572,,, ,0002KOJ
0111BAA,,Banana Terminus,-1.174015,36.75884,,, , 
0111MKT,,Makutano,-1.159354,36.743484,,, , 
0101KME,,Kimera Medical Centre,-1.146608,36.716753,,, , 
0101MRB,,Maramba Tea Factory,-1.134492,36.703458,,, , 
0101KCK,,Ken Chick,-1.132763,36.697946,,, , 
0101LMC,,Limuru Cataring,-1.124567,36.679518,,, , 
0101GVS,,Green Valley School,-1.125007,36.677194,,, , 
0101TIG,,Tigoni,-1.126739,36.671944,,, , 
0113LMD,,Limuru Terminus,-1.108043,36.643534,,, , 
0100LPS,,Limuru Post Office,-1.118464,36.643126,,, , 
0100TIG,,Tigoni,-1.126686,36.671788,,, , 
0100GVS,,Green Valley School,-1.124978,36.677156,,, , 
0100LMC,,Limuru Catering,-1.124471,36.679689,,, , 
0100KCK,,Ken Chick,-1.132722,36.69801,,, , 
0100MRB,,Maramba Tea Factory,-1.134476,36.703498,,, , 
0110MKT,,Makutano,-1.159421,36.74364,,, , 
0110BAA,,Banana Terminus,-1.174235,36.758765,,, , 
0212KJT,,Koja,-1.281766,36.82276,,, ,0002KOJ
0211NGR,,Ngara,-1.274601,36.824122,,, , 
0211PIO,,Kie/Pioneer,-1.271566,36.82825,,, , 
0201PGF,,Fly Over Pangani,-1.26701,36.834376,,, , 
0201CAL,,Caltexdn,-1.268018,36.833628,,, , 
0211GNK,,Guru Nanak,-1.268919,36.83285,,, , 
0311PGP,,Pangani Police Post,-1.270257,36.835758,,, , 
0311PGG,,Pangani Girls,-1.26989,36.838241,,, , 
0301MBP,,Mamba Petro Station,-1.268941,36.841927,,, , 
0301MLG,,Mlango,-1.267348,36.843678,,, , 
0301SNT,,St Teresa,-1.266468,36.847688,,, , 
0313EST,,Eastleigh Terminal,-1.27225,36.848948,,, , 
0310SNT,,St.Teresa,-1.266575,36.847649,,, , 
0300MLG,,Mlango Kubwa,-1.267455,36.843647,,, , 
0310PGG,,Pangani Gals,-1.270169,36.837382,,, , 
0310PGP,,Pangani Post,-1.27026,36.835553,,, , 
0200GNK,,Guru Nanak,-1.269278,36.832431,,, , 
0210NGR,,Ngara,-1.274513,36.824497,,, , 
0210FIG,,Fig Tree,-1.275607,36.823317,,, , 
0019KAK,,Kaka,-1.286247,36.830586,,,1, 
0212BST,,Bus Station,-1.286861,36.830393,,, ,0019KAK
0201BST,,Bus Station,-1.287159,36.830318,,, , 
0211KMJ,,19/60 Stage,-1.285344,36.832273,,, , 
0201KRK,,Kariokor,-1.279431,36.833293,,, , 
0201PNG,,Pangani,-1.266785,36.834315,,, , 
0211MTG,,Muthaiga,-1.259818,36.843621,,, , 
0211NYS,,Nys Stage,-1.256155,36.855219,,, , 
0211KCA,,Kca,-1.252175,36.859441,,, , 
0211DRV,,Drive In,-1.248373,36.863078,,, , 
0201ALS,,Allsops,-1.244367,36.86667,,, , 
0211ALS,,Allsops,-1.244064,36.867212,,, , 
0201HML,,Homeland In,-1.232262,36.87565,,, , 
0211STD,,Stadium,-1.224904,36.885542,,, , 
0211RSB,,Roysabu,-1.219841,36.890909,,, , 
0201RGC,,Regional Centre,-1.22072,36.892773,,, , 
0201PPS,,Police Post,-1.219857,36.894257,,, , 
0201NAS,,Naivas,-1.218873,36.895474,,, , 
0211NAS,,Naivas,-1.218629,36.895807,,, , 
0201MET,,Metro,-1.217444,36.89776,,, , 
0201EQT,,Equity,-1.217701,36.898982,,, , 
0201GRD,,Grand Point,-1.217937,36.899857,,, , 
0201DNK,,Danamark Flats,-1.21821,36.900913,,, , 
0211SSN,,Seasons,-1.218672,36.902619,,, , 
0201SSN,,Seasons,-1.218747,36.90285,,, , 
0211STM,,Stimmer Corner,-1.223906,36.908177,,, , 
0201MRT,,Martanet,-1.223037,36.91183,,, , 
0211HNT,,Huntas,-1.227542,36.917967,,, , 
0201SUN,,Sunton,-1.228819,36.919796,,, , 
0211SUN,,Sunton,-1.22906,36.920145,,, , 
0201KMT,,Kwa Miti,-1.229538,36.920874,,, , 
0201GRG,,Garage,-1.231222,36.924549,,, , 
0201MJM,,Maji Mazuri,-1.233066,36.928599,,, , 
0201MLM,,Kwa Mlima,-1.233034,36.928621,,, , 
0211MLM,,Kwa Mlima,-1.233294,36.929211,,, , 
0213STG,,Mwiki,-1.233935,36.930523,,, , 
0210SMW,,Kwa Mlima,-1.233817,36.930214,,, , 
0200BRK,,Brookfield,-1.232359,36.926861,,, , 
0200KOB,,Kobil Petrol Station,-1.232031,36.92611,,, , 
0200MTI,,Kwa Miti,-1.231538,36.924968,,, , 
0200GRG,,Kwa Garage,-1.231264,36.924453,,, , 
0210SUN,,Suntos,-1.228867,36.919778,,, , 
0200HUN,,Huntas,-1.227583,36.917981,,, , 
0210HUN,,Huntas Stage,-1.227159,36.917404,,, , 
0200FRS,,St Francis,-1.226196,36.916057,,, , 
0200MAT,,Martanet,-1.223112,36.911889,,, , 
0200CRN,,Stimmer Corner,-1.224013,36.908204,,, , 
0210PPS,,Police Post,-1.219433,36.903631,,, , 
0200TDS,,Tides,-1.218752,36.902593,,, , 
0200MET,,Metro,-1.21784,36.899251,,, , 
0210MET,,Metro,-1.217658,36.898562,,, , 
0200NES,,Nesther,-1.217567,36.898027,,, , 
0210BUL,,Bull,-1.217492,36.897673,,, , 
0200BUL,,Bull And Budh,-1.217508,36.897464,,, , 
0210NAS,,Naivas,-1.218634,36.895833,,, , 
0200RGC,,Regional,-1.220023,36.894127,,, , 
0210RSB,,Rosyabu,-1.220318,36.891129,,, , 
0210STD,,Stadium,-1.221149,36.890238,,, , 
0200STD,,Stadium,-1.221498,36.88989,,, , 
0200HML,,Homeland In,-1.234187,36.874215,,, , 
0210ALS,,All Sops,-1.245918,36.8666807,,, , 
0210DRV,,Drive In,-1.248201,36.863979,,, , 
0210KCA,,Kca,-1.251848,36.860455,,, , 
0210SUR,,Survey,-1.256648,36.855305,,, , 
0210MTG,,Muthaiga,-1.259936,36.844346,,, , 
0210PNG,,Pangani,-1.266179,36.835124,,, , 
0210KAR,,Kariokor,-1.27927,36.833639,,, , 
0212NBT,,Nation Building Terminal,-1.281633,36.822361,,, ,0002KOJ
0201FIG,,Fig Tree,-1.275505,36.822854,,, , 
0201KCL,,K1 Club,-1.268125,36.811299,,, , 
0201AGH,,Agha Khan Hospital,-1.268924,36.809952,,, , 
0211GRF,,Graffins College,-1.265996,36.805414,,, , 
0213WTD,,Westlands Terminal,-1.262242,36.803652,,, , 
0210WTD,,Westlands Terminal,-1.261816,36.803729,,, , 
0212BBT,,Odeon Terminal,-1.282984,36.824313,,, , 
0211KNJ,,Koja,-1.281538,36.822435,,, , 
0201DAW,,Dawa Pharmacutical,-1.247043,36.873225,,, , 
0201CON,,Corner,-1.247011,36.874858,,, , 
0201RUA,,Ruaraka Corner,-1.2439,36.875695,,, , 
0201BLE,,Bleria,-1.243924,36.880872,,, , 
0201BLC,,Bilco,-1.243994,36.882399,,, , 
0211CAT,,Babandogo Catho,-1.244064,36.884102,,, , 
0201BBP,,Baba Ndogo Primary,-1.244174,36.886414,,, , 
0213BDT,,Baba Ndogo Terminal,-1.244217,36.887409,,, , 
0200BBC,,Baba Ndogo Catho,-1.244056,36.884075,,, , 
0200KEN,,Kenafric,-1.243938,36.880802,,, , 
0210NVS,,Naivas,-1.243809,36.877718,,, , 
0200CON,,Corner,-1.243938,36.875717,,, , 
0210KNJ,,Koja,-1.281093,36.82277,,, , 
0212LUT,,25A Terminal,-1.282705,36.824584,,, , 
0201ALP,,Alsops,-1.245356,36.867652,,, , 
0201GTC,,Gathecha,-1.240786,36.887714,,, , 
0201KEP,,Kenya Power,-1.242862,36.89084,,, , 
0201BPC,,The Baptist Chapel,-1.241702,36.893618,,, , 
0201TJA,,Timba Junior Academy,-1.241243,36.894187,,, , 
0201MOS,,Mosque,-1.24057,36.894865,,, , 
0201AIS,,Aic Lucky Summer,-1.240432,36.895398,,, , 
0201HSM,,House Of Faith Ministry,-1.240245,36.895997,,, , 
0213LUD,,Lucky Summer Terminal,-1.239762,36.897502,,, , 
0200MOS,,Mosque Syd Ya Juu,-1.24068,36.89471,,, , 
0200DEC,,Deliverance Church,-1.241361,36.894047,,, , 
0200KEP,,Kenya Power,-1.24294,36.890941,,, , 
0200KSC,,Ksc Intenational,-1.240867,36.887725,,, , 
0210BBD,,Baba Ndogo,-1.244305,36.887506,,, , 
0210BBG,,Terminal,-1.244302,36.887401,,, , 
0210ALP,,All Sops,-1.245421,36.867681,,, , 
0212APT,,Terminal,-1.245364,36.867826,,, ,0013ALS
0201KBM,,Kariobangi Market Stage,-1.255538,36.878823,,, , 
0201SHP,,Shell Petrol Station,-1.256536,36.878871,,, , 
0301RDR,,Rounder,-1.26236,36.87915,,, , 
0311SOK,,Soko,-1.262113,36.881741,,, , 
0311BAO,,Kwa Mbao,-1.261797,36.88445,,, , 
0310BAO,,Kwa Mbao,-1.261877,36.883988,,, , 
0210RND,,Terminal Tusker,-1.262301,36.879,,, , 
0200SHP,,Shell Petrol Station,-1.256525,36.878807,,, , 
0210KBM,,Kariobangi Market Stage,-1.255533,36.878748,,, , 
0200KBM,,Kariobangi Market Stage,-1.255259,36.878742,,, , 
0200FHA,,Faith Home Academ,-1.25305,36.878651,,, , 
0200BDJ,,Baba Dogo Junction,-1.247161,36.874858,,, , 
0013ALS,,Allsops,-1.244951,36.867888,,,1, 
0212NGS,,Bus Station,-1.28724,36.829359,,, ,0006BSS
0201SHL,,Shell,-1.234871,36.873397,,, , 
0213NGB,,Ngumba Terminal,-1.233753,36.884501,,, , 
0200SHL,,Shell,-1.235088,36.873169,,, , 
0210KRK,,Kariokor,-1.279297,36.833566,,, , 
0201RYS,,Roysabu,-1.218631,36.890574,,, , 
0211RYS,,Roysabu,-1.217999,36.891035,,, , 
0201SUP,,Supreme,-1.212885,36.893063,,, , 
0211ROY,,Royal,-1.209114,36.89386,,, , 
0201GSP,,Gospel Church,-1.208688,36.893951,,, , 
0201BAS,,Base,-1.206747,36.894434,,, , 
0211BAS,,Base,-1.203041,36.896759,,, , 
0201CAR,,Car Wash,-1.201003,36.898857,,, , 
0211CAR,,Car Wash,-1.199799,36.900485,,, , 
0213ZMD,,Main Stage,-1.200096,36.900158,,, , 
0200GAK,,Gakena Supermarket,-1.201448,36.898317,,, , 
0210EDE,,Eden Supermarket,-1.201649,36.898004,,, , 
0200CHF,,Chiefs Office,-1.201788,36.897735,,, , 
0210GAS,,G Gas Shop,-1.20562,36.895016,,, , 
0200CAT,,Catholic Church,-1.202488,36.89714,,, , 
0200MTM,,Mirema Garden,-1.212847,36.893117,,, , 
0210MRM,,Mirema,-1.213255,36.893031,,, , 
0210RYS,,Roysabu,-1.218168,36.891142,,, , 
0212GHT,,Main Stage,-1.285212,36.828894,,, ,0011TUS
0201RSB,,Roysabu,-1.218471,36.89246,,, , 
0213GHD,,Gihurai,-1.204341,36.916884,,, , 
0212KUS,,Main Stage,-1.285276,36.82859,,, , 
0201GIT,,Githurai,-1.203684,36.916758,,, , 
0211GIT,,Gihurai,-1.203038,36.917428,,, , 
0201GIG,,Githurai,-1.202923,36.91753,,, , 
0211KAH,,Kahawa,-1.198452,36.92146,,, , 
0211KRE,,Kware,-1.189211,36.930236,,, , 
0201KRE,,Kware,-1.188445,36.931008,,, , 
0213MKU,,KU,-1.181746,36.937403,,, , 
0200KRE,,Kware,-1.188737,36.931451,,, , 
0210KRE,,Kware,-1.191558,36.928653,,, , 
0210KAH,,Kahawa,-1.200083,36.920391,,, , 
0200GIT,,Githurai,-1.203692,36.917342,,, , 
0210GIT,,Gihurai,-1.204336,36.916825,,, , 
0212SNT,,Odeon Terminals,-1.282729,36.824669,,, ,0004ODN
0203SND,,Sunton,-1.228822,36.919711,,, , 
0211NGT,,Ngara Stage,-1.27832,36.83031,,, , 
0201SDP,,Starehe Divisional Police Station,-1.27023,36.83564,,, , 
0211MBS,,Muthaiga,-1.25919,36.84238,,, , 
0201KFS,,Kenya Forestry Service Station/Kfs Karura Gate,-1.25025,36.84633,,, , 
0211CID,,Cid,-1.2503,36.84658,,, , 
0211SHP,,Shark'S Palace,-1.2406,36.84422,,, , 
0201ROC,,Rock City,-1.2382,36.84398,,, , 
0201WJY,,Wanderjoy,-1.23113,36.84225,,, , 
0201RDS,,Ridgeway Springs,-1.22924,36.84025,,, , 
0201NTR,,Nakumatt Ridgeways,-1.22525,36.83883,,, , 
0201RND,,Runda Junction,-1.22181,36.8361,,, , 
0201GTO,,Githogoro,-1.2186,36.83579,,, , 
0201KWH,,Kwaheri Flyover,-1.21506,36.83495,,, , 
0201EVR,,Evergreen,-1.2106,36.83313,,, , 
0201KSR,,Kasarini,-1.20585,36.83201,,, , 
0201KSS,,Kasarini Stage,-1.20461,36.83264,,, , 
0211TND,,Thindigwa,-1.2003,36.83501,,, , 
0201MSH,,Mushroom,-1.19582,36.83822,,, , 
0201BRA,,Barua,-1.19333,36.83991,,, , 
0211KST,,Kist,-1.18468,36.83867,,, , 
0201KS2,,Kist,-1.18345,36.83848,,, , 
0201KJN,,Kirigiti Junction,-1.17902,36.83742,,, , 
0211KDO,,Kwa DO,-1.17441,36.83343,,, , 
0201KCB,,Kcb Kiambu,-1.17284,36.83002,,, , 
0201KAM,,Kamindi Supermarket,-1.17171,36.82808,,, , 
0213TMA,,Kiambu Bus Terminus,-1.16812,36.82668,,, , 
0200OKB,,Old Kiambu,-1.17334,36.82705,,, , 
0210KDO,,Kwa Do/Kiambu-Limuru Road Junction/Red Nova,-1.17498,36.83448,,, , 
0200KJN,,Kirigiti,-1.17895,36.83748,,, , 
0200KS2,,Kist,-1.1835,36.83854,,, , 
0200STR,,5 Star Estate,-1.18981,36.83959,,, , 
0200MSH,,Mushroom,-1.19579,36.83836,,, , 
0200TND,,Thindigwa,-1.19987,36.83525,,, , 
0200DMD,,Diamond Flats,-1.20399,36.83301,,, , 
0200BWD,,Brentwood Hotel,-1.20509,36.83242,,, , 
0200BLN,,Balkan Sec School,-1.21242,36.83392,,, , 
0200KWH,,Kwaheri Flyover,-1.21568,36.8353,,, , 
0200GTO,,Githogoro,-1.21866,36.83586,,, , 
0200RND,,Runda Junction,-1.22171,36.83606,,, , 
0210NTR,,Nakumatt Ridgeways,-1.22544,36.839,,, , 
0200RDS,,Ridgeway Springs,-1.2292,36.84029,,, , 
0200WJY,,Wonderjoy,-1.23132,36.84252,,, , 
0200ROC,,Rock City,-1.23795,36.84398,,, , 
0200SHK,,Shark'S Palace,-1.24067,36.84427,,, , 
0210CID,,Cid,-1.25032,36.84657,,, , 
0200MTE,,Muthaiga Golf Club Entrance,-1.25774,36.84292,,, , 
0210MGC,,Muthaiga Golf Club Stage,-1.25818,36.84283,,, , 
0210SMB,,Supermambo,-1.27024,36.8327,,, , 
0200TSS,,Tss Petrol Station/Blue Hut Hotel,-1.277,36.83091,,, , 
0212NGB,,Ngara Bus Terminals,-1.274465,36.823897,,, ,0003NGR
0213KHO,,Kiambu Hospital,-1.17037,36.830528,,, , 
0212GRD,,Githunguri Terminal,-1.285092,36.831509,,, ,0010OTC
0211KPO,,Kiambuu Posta,-1.1669,36.825087,,, , 
0211DBR,,Ndumberi,-1.15155,36.805526,,, , 
0201DBR,,Ndumberi Factory,-1.140974,36.805712,,, , 
0211TGA,,Ting'ang'a,-1.128688,36.811402,,, , 
0201POS,,Police Post,-1.121249,36.819359,,, , 
0201AIP,,Aipcea,-1.11975,36.819057,,, , 
0201IKN,,Ikinu,-1.099779,36.795763,,, , 
0201GTJ,,Gathanji,-1.089753,36.782261,,, , 
0201JAM,,Jamaica,-1.074147,36.781376,,, , 
0201KGM,,Kiangima,-1.075928,36.786734,,, , 
0201MNO,,Makutano,-1.064754,36.783189,,, , 
0201BHC,,Beta Health Care,-1.059903,36.782865,,, , 
0213GGD,,Githunguri Terminal,-1.056368,36.77893,,, , 
0200MNO,,Makutano,-1.064306,36.783481,,, , 
0200JAM,,Jamaica,-1.089601,36.782309,,, , 
0200JIN,,Njino,-1.100941,36.797296,,, , 
0200GPS,,Ngemwa Police Post,-1.121695,36.818793,,, , 
0210TGA,,Ting'ang'a,-1.128432,36.811953,,, , 
0200DBR,,Nduberi Factory,-1.140917,36.805701,,, , 
0210DBR,,Ndumberi,-1.15149,36.805479,,, , 
0210KPO,,Kiambuu Posta,-1.166765,36.825138,,, , 
0210KAD,,Kwa Ahindi,-1.174055,36.828014,,, , 
0213DRD,,Ndumberi,-1.151558,36.805577,,, , 
0212RUS,,Main Stage,-1.207161,36.785845,,,, 
0201CLY,,Clay Works,-1.172752,36.9454,,, , 
0211BYP,,By Pass,-1.164406,36.956953,,, , 
0201KIH,,Kihunguro,-1.163948,36.957125,,,,
0211KIH,,Kihunguro,-1.163610,36.957286,,,, 
0213MRY,,Ruiru,-1.147565,36.959228,,, , 
0210FLY,,Fly Over,-1.15055083,36.9621548153123,,, , 
0210BYP,,By Pass,-1.167324,36.955388,,, , 
0210CLM,,Clay,-1.171357,36.948865,,, , 
0210CLY,,Clay Works,-1.172108,36.947546,,, , 
0200KUF,,Ku Fly Over,-1.180681,36.939082,,, , 
0210KUM,,KU,-1.181132,36.938669,,, , 
0212TKT,,Townterminal,-1.284149,36.827805,,, , 
0211FLY,,Ruiru Fly Over,-1.149239,36.961993,,, , 
0201KAI,,Kwa Kairu,-1.142084,36.966911,,, , 
0201KBO,,Kimbo,-1.132586,36.974481,,, , 
0211KRD,,Kenyata Road Stage,-1.12417,37.003518,,, , 
0211JUJ,,Juja Stage,-1.106865,37.015152,,, , 
0211JKT,,Jkuat Main Gate Stage,-1.105189,37.017042,,, , 
0211SEW,,Sewage Stage,-1.098506,37.024274,,, , 
0211HIP,,High Point,-1.094897,37.028827,,, , 
0211MNG,,Mang'U,-1.07488,37.046347,,, , 
0211WTH,,Past Mang'U,-1.068262,37.050516,,, , 
0201PTR,,Petro Ststin,-1.05038,37.057783,,, , 
0201JNT,,Kwa Junction,-1.043316,37.070831,,, , 
0201TKS,,Tuskeys,-1.041316,37.071367,,, , 
0213TKD,,Thika Town,-1.035427,37.076427,,, , 
0210WTH,,Witeithie,-1.067962,37.05124,,, , 
0210MNG,,Mang'u,-1.075546,37.046508,,, , 
0210HIP,,Highpoint,-1.095165,37.028978,,, , 
0210SEW,,Sewage,-1.098769,37.02444,,, , 
0210JKT,,Jkuat,-1.106981,37.015873,,, , 
0210KBO,,Kimbo,-1.13317,36.974441,,, , 
0200KAI,,Kwa Kairu,-1.143339,36.966445,,, , 
0213RNS,,Rounder,-1.262199,36.879016,,, , 
0201ASP,,All Sops,-1.245284,36.866941,,, , 
0211DRN,,Drive In,-1.24788,36.864343,,, , 
0201MSQ,,Mosque,-1.252661,36.865157,,, , 
0213MAT,,Mathare North Terminal,-1.252119,36.867298,,, , 
0210NIS,,Naivas,-1.247174,36.873228,,, , 
0312NGR,,Ngara,-1.275796,36.824732,,, , 
0301PST,,Posta,-1.276317,36.826705,,, , 
0301TOT,,Total,-1.277857,36.829923,,, , 
0301NGE,,New Ngara Estate,-1.27906,36.830823,,, , 
0301KAR,,Kariokor,-1.279447,36.833176,,, , 
0311KAR,,Kariokor,-1.278042,36.833852,,, , 
0301KDC,,Kwa Dc/Id,-1.277806,36.835454,,, , 
0303GKM,,Gikomba,-1.284125,36.840499,,, , 
0300ZWN,,Ziwani,-1.279611,36.837176,,, , 
0300KRE,,Kariokor Estate,-1.278406,36.835811,,, , 
0300KAR,,Kariokor Dc,-1.277703,36.834997,,, , 
0300NGE,,New Ngara Estate,-1.27975,36.831313,,, , 
0300EQT,,Equity,-1.278382,36.830223,,, , 
0300PST,,Posta,-1.276744,36.827354,,, , 
0202LUT,,Luthuli Avenue,-1.284831,36.826986,,, , 
0201RZA,,Riziki Academy,-1.28067,36.838466,,, , 
0300GKM,,Gikomba,-1.284086,36.840838,,, , 
0200EQY,,Equity Gikomba,-1.28519,36.83802,,, , 
0410SVA,,Salvation Army,-1.285316,36.83068,,, , 
0412TWN,,Town,-1.284717,36.826758,,, , 
0212ODP,,Odeon,-1.282592,36.825166,,, ,0004ODN
0303PGT,,Pangani Terminal,-1.265068,36.838571,,, , 
0212KRT,,Terminal Otc,-1.284054,36.831179,,, , 
0301KMB,,Karambe,-1.266832,36.84544,,, , 
0301ALB,,Albadr,-1.266168,36.849023,,, , 
0301MAP,,Mathare Worship,-1.265889,36.85133,,, , 
0301BHS,,BH,-1.26582,36.857434,,, , 
0311AGP,,Agip,-1.263902,36.860826,,, , 
0311TEN,,Number 10,-1.262975,36.863945,,, , 
0311THY,,Thayo,-1.26234,36.865956,,, , 
0311CHF,,Kwa Chief,-1.261979,36.86722,,, , 
0301BAS,,Base,-1.261639,36.871653,,, , 
0301FLT,,Flats,-1.261727,36.872396,,, , 
0311JSG,,Johnsaga,-1.26196,36.874043,,, , 
0301MTS,,Mother Teresa Road,-1.257648,36.874272,,, , 
0303KST,,Kariobangi Terminal,-1.255291,36.878737,,, , 
0300JAS,,Junction Auto Spares,-1.260655,36.874143,,, , 
0310JST,,Johnsaga,-1.262003,36.873888,,, , 
0310FLT,,Flats,-1.261717,36.868798,,, , 
0300BAS,,Base,-1.262131,36.86737,,, , 
0310CHF,,Kwa Chief,-1.262392,36.866339,,, , 
0310TEN,,N 10,-1.263947,36.861146,,, , 
0310FRC,,Moi Airforces Stage,-1.265835,36.858775,,, , 
0310JAY,,Jay Community,-1.265996,36.852864,,, , 
0012EAS,,Eastleigh,-1.272201,36.848941,,,1, 
0312EST,,Eastleigh Terminal,-1.272006,36.848906,,, ,0012EAS
0400RAU,,Rounda,-1.26264,36.87907,,, , 
0402RAU,,Rounda,-1.262727,36.879137,,, ,0014KRA
0301ACC,,Aic Church,-1.256619,36.89799,,, , 
0311TON,,Tononoka,-1.257539,36.90247,,, , 
0311JOD,,Joada,-1.256726,36.907904,,, , 
0301MSB,,Maili Saba,-1.254436,36.911444,,, , 
0301JUN,,Junction-Komarock Road N Kangundo,-1.259587,36.912356,,, , 
0311PSE,,Phase 4,-1.266779,36.906209,,, , 
0301ROD,,Rounda,-1.264301,36.908252,,, , 
0303KND,,Kanisani,-1.26901,36.91362,,, , 
0410KNS,,Kanisani,-1.26901,36.913514,,, , 
0300GHT,,Gate 8,-1.26878,36.912987,,, , 
0300GER,,Gertrudes,-1.26675,36.911144,,, , 
0310GTR,,Gate 3 A,-1.266197,36.910637,,, , 
0300R0D,,Rounder,-1.264304,36.908472,,, , 
0310PSE,,Phase 4 Stage,-1.266817,36.906195,,, , 
0310JUN,,Junction,-1.259552,36.912367,,, , 
0300OLE,,Ole Suyean Guest Hs,-1.257796,36.911965,,, , 
0300MSB,,Maili Saba,-1.254447,36.911404,,, , 
0310MSB,,Maili Saba D,-1.254506,36.910782,,, , 
0310MBO,,Kwa Mbao,-1.254916,36.909958,,, , 
0310OGP,,Ogopa Stage,-1.256158,36.90881,,, , 
0310SKA,,Saika,-1.256804,36.907785,,, , 
0310MPP,,Mowlem Police Post,-1.25667,36.905902,,, , 
0310TON,,Tononoka,-1.257512,36.90233,,, , 
0310ACC,,AIC,-1.256659,36.897995,,, , 
0300RND,,Raunda,-1.262478,36.878913,,, , 
0312GKM,,Gikomba Market Terminals,-1.284126,36.840649,,, , 
0210PMS,,Pumwani Stage,-1.284349,36.84316,,, , 
0303KRG,,Kariobangi Terminal,-1.255571,36.878086,,, , 
0300KRG,,Kariobangi Terminal,-1.2554,36.878468,,, , 
0210PMH,,Pumwani Hos,-1.279972,36.84621,,, , 
0210GRG,,Garage Stage,-1.279238,36.849785,,, , 
0212DDT,,Terminal Otc,-1.284877,36.831024,,, ,0010OTC
0212GBT,,Gikomba,-1.284134,36.840596,,, , 
0212HRT,,Terminal Tusker,-1.285912,36.827456,,, , 
0313JST,,Johnsaga,-1.262041,36.874019,,, , 
0212RNT,,Terminal Tusker,-1.285521,36.828269,,, ,0011TUS
0313RND,,Tounder Terminal,-1.262389,36.878748,,, , 
0312BSK,,Bus Station Terminal,-1.28641,36.829723,,, , 
0312SOK,,Soko,-1.262052,36.881838,,, , 
0311SKA,,Saika,-1.258541,36.912205,,, , 
0302RND,,Rounder,-1.262545,36.879094,,, , 
0301AIZ,,Aic Ziwani,-1.2796,36.837297,,, , 
0212PPS,,Main Stage,-1.282906,36.824873,,, ,0004ODN
0201LSM,,Leesta Supermarket,-1.200093,36.900066,,, , 
0201JAC,,Jacarada,-1.192145,36.898695,,, , 
0211JAC,,Jacarada,-1.190279,36.896829,,, , 
0201SKL,,Sikiliza,-1.187897,36.895412,,, , 
0201KAR,,Karura,-1.182127,36.894275,,, , 
0201MHG,,Mahiga Prima,-1.182534,36.896914,,, , 
0201WST,,West Plaza,-1.182706,36.897987,,, , 
0201KNL,,Kenol Petro Station,-1.183113,36.899833,,, , 
0213KHW,,Main Stage,-1.183832,36.902287,,, , 
0210MAZ,,Maziwa,-1.183736,36.90185,,, , 
0200KMT,,Kamiti Road Junction,-1.182127,36.894298,,, , 
0200JAC,,Jacarada,-1.19089,36.897377,,, , 
0210JUN,,Junction,-1.189464,36.896528,,, , 
0210MTO,,Kwa Mto,-1.191743,36.898272,,, , 
0210CON,,Consolata,-1.190834,36.897263,,, , 
0200AFY,,Afya Health,-1.199847,36.900519,,, , 
0212RSY,,Roysambu Terminus,-1.217073,36.896534,,, , 
0511CAB,,Carbanas,-1.332048541,36.88761515,,, , 
0501UTJ,,Utawala Junction,-1.278777,36.967821,,, , 
0511UCC,,Ucc,-1.276622,36.970368,,, , 
0511BPS,,By Pass,-1.264211,36.982824,,, , 
0510UTJ,,Utawala Junction,-1.278878,36.96793,,, , 
0511CMC,,Commercial,-1.284137,36.826244,,, , 
0511NYY,,Nyayo,-1.30579,36.827136,,, , 
0501EMB,,Embakasi,-1.310516,36.913524,,, , 
0501KWK,,Kwa Kanisa,-1.309593,36.914791,,, , 
0501CRW,,Car Wash,-1.308617,36.915672,,, , 
0501JKL,,Jua Kali,-1.306085,36.915927,,, , 
0501CHN,,Chini Ya Mlima,-1.30218,36.915626,,, , 
0501KWG,,Kwa Gate,-1.300485,36.914382,,, , 
0501BRE,,Baraka Estate,-1.298156,36.912689,,, , 
0500KWG,,Kwa Gate,-1.300695,36.914742,,, , 
0500CHN,,Chini Ya Mlima,-1.302358,36.915885,,, , 
0500KWT,,Kwa Transfomer,-1.303645,36.916636,,, , 
0500JKL,,Juakali,-1.306219,36.91596,,, , 
0500CRW,,Car Wash,-1.308654,36.915691,,, , 
0500EMB,,Embakasi,-1.309609,36.914919,,, , 
0202RSB,,Roysambu Terminus,-1.218232,36.891038,,, , 
0212GTP,,Githurai,-1.205374,36.918576,,, , 
0201RIL,,Kona Kwa Rail,-1.208181,36.922337,,, , 
0201RET,,St Margret,-1.207715,36.924788,,, , 
0213PGG,,Proggie,-1.209074,36.928213,,, , 
0200RIL,,Kona Kwa Rail,-1.208219,36.922329,,, , 
0201RST,,Roasters,-1.233597,36.872552,,, , 
0201NEH,,Neighbours,-1.226942,36.871015,,, , 
0201RKN,,Kona,-1.225183,36.873912,,, , 
0201STM,,Steam,-1.22293,36.872273,,, , 
0201NYT,,Nyati,-1.220956,36.873096,,, , 
0201MGN,,2Nd Miguini,-1.218296,36.873967,,, , 
0201RUK,,Ruaraka,-1.214531,36.876177,,, , 
0200MRR,,Maruirui,-1.211112,36.874403,,, , 
0200RUK,,Ruaraka,-1.214869,36.876151,,, , 
0200MGN,,2Nd Miguini,-1.218457,36.874002,,, , 
0200NYT,,Nyati,-1.221369,36.872925,,, , 
0200STM,,Steam,-1.222789,36.872219,,, , 
0200RKN,,Kona,-1.225876,36.874215,,, , 
0200NEH,,Neighbours,-1.227277,36.870709,,, , 
0200RST,,Roasters,-1.232715,36.873429,,, , 
0111ARA,,Ngara Stage,-1.273995,36.823465,,, , 
0111KAU,,Kianjogu Stage,-1.181209,36.727208,,, , 
0101MCY,,Mothers Mercys,-1.180059,36.725487,,, , 
0111FRM,,Muguku Farm,-1.176554,36.718575,,, , 
0101RED,,Red Hill,-1.17081,36.708554,,, , 
0101BLU,,Blue Kiosk,-1.154688,36.675681,,, , 
0111KIO,,Kiosk,-1.154731,36.675139,,, , 
0111BUK,,Kabuku Juncion,-1.154742,36.674973,,, , 
0111SPU,,Spu Limuru,-1.148257,36.666204,,, , 
0101ETA,,Marrieta,-1.143779,36.661749,,, , 
0101ION,,Junction To Limuru Town,-1.133245,36.643564,,, , 
0101RIE,,Limuru Diaries,-1.125841,36.642507,,, , 
0110SPU,,Spu Limuru,-1.147694,36.665794,,, , 
0110BUK,,Kabuku Junction,-1.150767,36.668272,,, , 
0110FRM,,Muguku Farm,-1.17646,36.718384,,, , 
0100MCY,,Mothers Mercys,-1.179957,36.725401,,, , 
0110KAU,,Kianjogu Stage,-1.180979,36.727015,,, , 
0411BYP,,By Pass,-1.256696,36.985723,,, , 
0401ONT,,Onyatta,-1.242568,36.989322,,, , 
0401CNK,,Centy Club,-1.233479,36.990048,,, , 
0401KBE,,Kobe,-1.226859,36.990212,,, , 
0401MTK,,Mitikenda,-1.180853,36.987592,,, , 
0401KMK,,Kamakis,-1.171119,36.972287,,, , 
0401KRY,,Kwa Roy,-1.168359,36.967716,,, , 
0401SPE,,Super Higway,-1.165307,36.958585,,, , 
0400SPE,,Super Highway,-1.165114,36.958521,,, , 
0400KRY,,Kwa Roy,-1.168246,36.967919,,, , 
0400KMK,,Kamakis,-1.171282,36.972865,,, , 
0400MTK,,Mitikenda,-1.180882,36.987895,,, , 
0400KBE,,Kobe,-1.227264,36.990311,,, , 
0400CNK,,Centy Club,-1.233871,36.990191,,, , 
0400ONT,,Onyatta,-1.24272,36.989463,,, , 
0410BYP,,By Pass,-1.257254,36.985728,,, , 
0201SPH,,Super High Way,-1.164449,36.955839,,, , 
0211TRT,,Torrents,-1.160659,36.943904,,, , 
0201TRT,,Torrents,-1.158939,36.938575,,, , 
0201MBC,,Membley Church,-1.158563,36.937352,,, , 
0211KWD,,Kwa Dogi,-1.156977,36.932324,,, , 
0211MBL,,Membley,-1.156242,36.925771,,, , 
0201EBR,,Roundabout,-1.15486,36.926145,,, , 
0201KTJ,,Junction,-1.151919,36.919517,,, , 
0211PRS,,Prison,-1.15188,36.929416,,, , 
0211RUI,,Ruiru,-1.147707,36.959362,,, , 
0210PRS,,Prison,-1.151878,36.928673,,, , 
0200KTJ,,Junction,-1.152403,36.919994,,, , 
0200EBR,,Roundabout,-1.154988,36.926973,,, , 
0210MBL,,Membley,-1.156222,36.930358,,, , 
0210KWD,,Kwa Dogi,-1.15693,36.932686,,, , 
0200MBC,,Membley Church,-1.159048,36.939119,,, , 
0200TRT,,Torrents,-1.158861,36.938758,,, , 
0210TRT,,Torrents,-1.160577,36.944155,,, , 
0200SPH,,Super High Way,-1.16417,36.955538,,, , 
0101MIM,,Mimosa,-1.212005,36.804767,,, , 
0101RUD,,Runda Road,-1.215523,36.815038,,, , 
0101BKH,,Bypass Stage Kiambu,-1.215448,36.83521,,, , 
0101WID,,Windsor Advice,-1.215566,36.850327,,, , 
0101DGG,,Ridgesways Girls,-1.215046,36.864683,,, , 
0101JLI,,Jua Kali,-1.211161,36.874486,,, , 
0101KHR,,Kahawa Railways Roundabout,-1.185664,36.906667,,, , 
0101NRP,,Round A Bout Eastern Bypass,-1.155165,36.926129,,, , 
0101RJI,,Ruiru Road Junction,-1.152135,36.91984,,, , 
0111RPS,,Ruiru Prisons,-1.151827,36.929292,,, , 
0110RPS,,Ruiru Prisons,-1.151888,36.92953,,, , 
0100RJI,,Ruiru Road Junction,-1.152181,36.919882,,, , 
0100NRP,,Round A Bout Eastern Bypass,-1.155235,36.926119,,, , 
0100KHR,,Kahawa Railways Roundabout,-1.186098,36.906817,,, , 
0100JLI,,Jua Kali,-1.21108,36.874725,,, , 
0100BKH,,Bypass Stage Kiambu,-1.21551,36.835114,,, , 
0100RUD,,Runda Road,-1.215553,36.814957,,, , 
