stop_id,stop_code,stop_name,stop_lat,stop_lon,stop_url
83,51001,"Ballston Metro G, Fairfax Dr, EB @ N Stafford, NS",38.882092,-77.110876,"https://www.arlingtontransit.com/riding-art/rider-tools/art-realtime/?Stop=A51001#realTimeResultsContainer"
84,51002,"Fairfax Drive, WB @ N Taylor Street, NS",38.882281,-77.112455,"https://www.arlingtontransit.com/riding-art/rider-tools/art-realtime/?Stop=A51002#realTimeResultsContainer"
85,51003,"Fairfax Drive, WB @ N Utah Street, FS",38.882254,-77.114353,"https://www.arlingtontransit.com/riding-art/rider-tools/art-realtime/?Stop=A51003#realTimeResultsContainer"
91,51009,"N George Mason Dr, NB @ Virginia Hospital Ctr, MB",38.888909,-77.128507,"https://www.arlingtontransit.com/riding-art/rider-tools/art-realtime/?Stop=A51009#realTimeResultsContainer"
92,51010,"N George Mason Drive, NB @ 19th Street N, NS",38.891314,-77.129508,"https://www.arlingtontransit.com/riding-art/rider-tools/art-realtime/?Stop=A51010#realTimeResultsContainer"
93,51011,"N George Mason Drive, NB @ 20th Street N, NS",38.892847,-77.130516,"https://www.arlingtontransit.com/riding-art/rider-tools/art-realtime/?Stop=A51011#realTimeResultsContainer"
94,51012,"Patrick Henry Drive, WB @ N Harrison Street, NS",38.893437,-77.133429,"https://www.arlingtontransit.com/riding-art/rider-tools/art-realtime/?Stop=A51012#realTimeResultsContainer"
95,51013,"N Harrison Street, NB @ Lee Highway, NS",38.896116,-77.137309,"https://www.arlingtontransit.com/riding-art/rider-tools/art-realtime/?Stop=A51013#realTimeResultsContainer"
96,51014,"Lee Highway, EB @ across from N Greenbrier St",38.896282,-77.136024,"https://www.arlingtontransit.com/riding-art/rider-tools/art-realtime/?Stop=A51014#realTimeResultsContainer"
97,51201,"N George Mason Drive, SB @ Lee Highway, FS",38.895711,-77.133587,"https://www.arlingtontransit.com/riding-art/rider-tools/art-realtime/?Stop=A51201#realTimeResultsContainer"
98,51202,"N George Mason Drive, SB @ Patrick Henry Drive, NS",38.894408,-77.132048,"https://www.arlingtontransit.com/riding-art/rider-tools/art-realtime/?Stop=A51202#realTimeResultsContainer"
99,51203,"N George Mason Drive, SB @ 20th Street N, FS",38.892639,-77.130724,"https://www.arlingtontransit.com/riding-art/rider-tools/art-realtime/?Stop=A51203#realTimeResultsContainer"
100,51209,"N George Mason Drive, SB @ 19th Street N, FS",38.891075,-77.129646,"https://www.arlingtontransit.com/riding-art/rider-tools/art-realtime/?Stop=A51209#realTimeResultsContainer"
101,51210,"N George Mason Dr, SB @ Virginia Hospital Ctr, MB",38.889413,-77.128931,"https://www.arlingtontransit.com/riding-art/rider-tools/art-realtime/?Stop=A51210#realTimeResultsContainer"
108,51217,"N Glebe Road, SB @ Washington Blvd, FS",38.884699,-77.117061,"https://www.arlingtontransit.com/riding-art/rider-tools/art-realtime/?Stop=A51217#realTimeResultsContainer"
109,51218,"Fairfax Drive, EB @ N Vermont Street, FS",38.881980,-77.114572,"https://www.arlingtontransit.com/riding-art/rider-tools/art-realtime/?Stop=A51218#realTimeResultsContainer"
110,51219,"Fairfax Drive, EB @ N Taylor Street, NS",38.882021,-77.112980,"https://www.arlingtontransit.com/riding-art/rider-tools/art-realtime/?Stop=A51219#realTimeResultsContainer"
116,52006,"Washington Blvd, WB @ N Glebe Road, FS",38.885482,-77.117833,"https://www.arlingtontransit.com/riding-art/rider-tools/art-realtime/?Stop=A52006#realTimeResultsContainer"
117,52007,"Washington Blvd, WB @ N Buchanan Street, NS",38.885340,-77.121054,"https://www.arlingtontransit.com/riding-art/rider-tools/art-realtime/?Stop=A52007#realTimeResultsContainer"
118,52008,"Washington Blvd, WB @ N Evergreen Street, FS",38.885192,-77.125861,"https://www.arlingtontransit.com/riding-art/rider-tools/art-realtime/?Stop=A52008#realTimeResultsContainer"
136,52027,"N Sycamore Street, SB @ Lee Highway, FS",38.889853,-77.156524,"https://www.arlingtontransit.com/riding-art/rider-tools/art-realtime/?Stop=A52027#realTimeResultsContainer"
137,52028,"N Sycamore Street, SB @ Washington Blvd, FS",38.888168,-77.156449,"https://www.arlingtontransit.com/riding-art/rider-tools/art-realtime/?Stop=A52028#realTimeResultsContainer"
140,52202,"N Sycamore Street, NB @ Washington Blvd, FS",38.887912,-77.156185,"https://www.arlingtontransit.com/riding-art/rider-tools/art-realtime/?Stop=A52202#realTimeResultsContainer"
157,52220,"N George Mason Drive, SB @ 16th Street N, NS",38.887832,-77.128342,"https://www.arlingtontransit.com/riding-art/rider-tools/art-realtime/?Stop=A52220#realTimeResultsContainer"
158,52221,"Washington Blvd, EB @ N Evergreen Street, NS",38.885027,-77.125409,"https://www.arlingtontransit.com/riding-art/rider-tools/art-realtime/?Stop=A52221#realTimeResultsContainer"
159,52222,"Washington Blvd, EB @ N Buchanan Street, NS",38.885184,-77.121318,"https://www.arlingtontransit.com/riding-art/rider-tools/art-realtime/?Stop=A52222#realTimeResultsContainer"
185,42209,"Columbia Pike, WB @ S Rolfe Street, FS",38.865621,-77.075445,"https://www.arlingtontransit.com/riding-art/rider-tools/art-realtime/?Stop=A42209#realTimeResultsContainer"
195,74021,"Columbia Pike, EB @ S Barton Street, FS",38.863351,-77.083518,"https://www.arlingtontransit.com/riding-art/rider-tools/art-realtime/?Stop=A74021#realTimeResultsContainer"
221,74004,"24th Road S, EB @ S Glebe Road, NS",38.848038,-77.081209,"https://www.arlingtontransit.com/riding-art/rider-tools/art-realtime/?Stop=A74004#realTimeResultsContainer"
222,74003,"Shirlington Road, NB @ 25th Street S, NS",38.846976,-77.083698,"https://www.arlingtontransit.com/riding-art/rider-tools/art-realtime/?Stop=A74003#realTimeResultsContainer"
223,74002,"SShirlington Road, NB @  Kemper Road, FS",38.844742,-77.084493,"https://www.arlingtontransit.com/riding-art/rider-tools/art-realtime/?Stop=A74002#realTimeResultsContainer"
234,41226,"Columbia Pike, WB @ S Frederick Street, NS",38.854926,-77.114921,"https://www.arlingtontransit.com/riding-art/rider-tools/art-realtime/?Stop=A41226#realTimeResultsContainer"
235,41227,"Columbia Pike, WB @ S Greenbrier Street, NS",38.854300,-77.116978,"https://www.arlingtontransit.com/riding-art/rider-tools/art-realtime/?Stop=A41227#realTimeResultsContainer"
236,41225,"Columbia Pike, WB @ S Dinwiddie Street, FS",38.855729,-77.112897,"https://www.arlingtontransit.com/riding-art/rider-tools/art-realtime/?Stop=A41225#realTimeResultsContainer"
237,41001,"S Dinwiddie Street, SB @ Columbia Pike, NS",38.856335,-77.112638,"https://www.arlingtontransit.com/riding-art/rider-tools/art-realtime/?Stop=A41001#realTimeResultsContainer"
239,41228,"S Greenbrier Street, NB @ Mid Block, MB",38.855668,-77.118447,"https://www.arlingtontransit.com/riding-art/rider-tools/art-realtime/?Stop=A41228#realTimeResultsContainer"
244,41003,"Columbia Pike, EB @ S Thomas Street, NS",38.857735,-77.104579,"https://www.arlingtontransit.com/riding-art/rider-tools/art-realtime/?Stop=A41003#realTimeResultsContainer"
245,41223,"Columbia Pike, WB @ S Thomas Street, NS",38.858095,-77.104040,"https://www.arlingtontransit.com/riding-art/rider-tools/art-realtime/?Stop=A41223#realTimeResultsContainer"
246,41004,"Columbia Pike, EB @ S George Mason Drive, NS",38.858588,-77.101427,"https://www.arlingtontransit.com/riding-art/rider-tools/art-realtime/?Stop=A41004#realTimeResultsContainer"
247,41222,"Columbia Pike, WB @ S George Mason Drive, NS",38.859058,-77.100698,"https://www.arlingtontransit.com/riding-art/rider-tools/art-realtime/?Stop=A41222#realTimeResultsContainer"
248,41005,"Columbia Pike, EB @ S Quincy Street, NS",38.859276,-77.099212,"https://www.arlingtontransit.com/riding-art/rider-tools/art-realtime/?Stop=A41005#realTimeResultsContainer"
249,41221,"Columbia Pike, WB @ S Quincy Street, FS",38.859533,-77.099049,"https://www.arlingtontransit.com/riding-art/rider-tools/art-realtime/?Stop=A41221#realTimeResultsContainer"
250,41006,"Columbia Pike, EB @ S Oakland Street, NS",38.860145,-77.095991,"https://www.arlingtontransit.com/riding-art/rider-tools/art-realtime/?Stop=A41006#realTimeResultsContainer"
251,41220,"Columbia Pike, WB @ S Oakland Street, NS",38.860498,-77.095501,"https://www.arlingtontransit.com/riding-art/rider-tools/art-realtime/?Stop=A41220#realTimeResultsContainer"
252,41007,"Columbia Pike, EB @ S Monroe Street, FS",38.860800,-77.093600,"https://www.arlingtontransit.com/riding-art/rider-tools/art-realtime/?Stop=A41007#realTimeResultsContainer"
254,41218,"S Glebe Road, SB @ Columbia Pike, NS",38.861576,-77.092225,"https://www.arlingtontransit.com/riding-art/rider-tools/art-realtime/?Stop=A41218#realTimeResultsContainer"
255,41008,"S Glebe Road, NB @ Columbia Pike, FS",38.861734,-77.091872,"https://www.arlingtontransit.com/riding-art/rider-tools/art-realtime/?Stop=A41008#realTimeResultsContainer"
262,41217,"S Glebe Road, SB @ 8th Street S, NS",38.864809,-77.092597,"https://www.arlingtontransit.com/riding-art/rider-tools/art-realtime/?Stop=A41217#realTimeResultsContainer"
265,41009,"S Glebe Road, NB @ 7th Street S, NS",38.865510,-77.092870,"https://www.arlingtontransit.com/riding-art/rider-tools/art-realtime/?Stop=A41009#realTimeResultsContainer"
267,41010,"S Glebe Road, NB @ 6th Street S, FS",38.866626,-77.094768,"https://www.arlingtontransit.com/riding-art/rider-tools/art-realtime/?Stop=A41010#realTimeResultsContainer"
268,41216,"S Glebe Road, SB @ 6th Street S, NS",38.866471,-77.094862,"https://www.arlingtontransit.com/riding-art/rider-tools/art-realtime/?Stop=A41216#realTimeResultsContainer"
269,41012,"S Glebe Road, NB @ Old Glebe Road, NS",38.867620,-77.096310,"https://www.arlingtontransit.com/riding-art/rider-tools/art-realtime/?Stop=A41012#realTimeResultsContainer"
272,41013,"S Glebe Road, NB @ 1st Road S, NS",38.868802,-77.098429,"https://www.arlingtontransit.com/riding-art/rider-tools/art-realtime/?Stop=A41013#realTimeResultsContainer"
273,41215,"S Glebe Road, SB @ 2nd Street S, NS",38.868553,-77.098346,"https://www.arlingtontransit.com/riding-art/rider-tools/art-realtime/?Stop=A41215#realTimeResultsContainer"
283,41014,"S Glebe Road, NB @ Arlington Blvd (Rte 50), NS",38.870168,-77.099995,"https://www.arlingtontransit.com/riding-art/rider-tools/art-realtime/?Stop=A41014#realTimeResultsContainer"
284,41214,"S Glebe Road, SB @ Arlington Blvd Rte 50, FS",38.869988,-77.100215,"https://www.arlingtontransit.com/riding-art/rider-tools/art-realtime/?Stop=A41214#realTimeResultsContainer"
285,41213,"N Glebe Road, SB @ 2nd Street N, FS",38.872050,-77.102958,"https://www.arlingtontransit.com/riding-art/rider-tools/art-realtime/?Stop=A41213#realTimeResultsContainer"
287,41016,"N Glebe Road, NB @ N Piedmont Street, NS",38.872723,-77.103375,"https://www.arlingtontransit.com/riding-art/rider-tools/art-realtime/?Stop=A41016#realTimeResultsContainer"
288,41017,"N Glebe Road, NB @ N Pershing Drive, NS",38.873799,-77.104923,"https://www.arlingtontransit.com/riding-art/rider-tools/art-realtime/?Stop=A41017#realTimeResultsContainer"
289,41212,"N Glebe Road, SB @ N Pershing Drive, FS",38.873571,-77.104912,"https://www.arlingtontransit.com/riding-art/rider-tools/art-realtime/?Stop=A41212#realTimeResultsContainer"
290,41018,"N Glebe Road, NB @ 3rd Road N, NS",38.874686,-77.106132,"https://www.arlingtontransit.com/riding-art/rider-tools/art-realtime/?Stop=A41018#realTimeResultsContainer"
292,41233,"S Dinwiddie Street, SB @ 8th Road S, FS",38.858555,-77.113817,"https://www.arlingtontransit.com/riding-art/rider-tools/art-realtime/?Stop=A41233#realTimeResultsContainer"
294,41232,"7th Road S, EB @ Park Condos, NS",38.859762,-77.117328,"https://www.arlingtontransit.com/riding-art/rider-tools/art-realtime/?Stop=A41232#realTimeResultsContainer"
296,41231,"7th Road S, EB @ S Florida Street, NS",38.858684,-77.118713,"https://www.arlingtontransit.com/riding-art/rider-tools/art-realtime/?Stop=A41231#realTimeResultsContainer"
297,41229,"S Greenbrier Street, NB @ 8th Road S, FS",38.857169,-77.119226,"https://www.arlingtontransit.com/riding-art/rider-tools/art-realtime/?Stop=A41229#realTimeResultsContainer"
334,41209,"N Randolph St, SB @ Ballston Quarter, MB",38.879100,-77.109300,"https://www.arlingtontransit.com/riding-art/rider-tools/art-realtime/?Stop=A41209#realTimeResultsContainer"
335,41021,"N Randolph St, NB @ Wilson Blvd, NS",38.879183,-77.109092,"https://www.arlingtontransit.com/riding-art/rider-tools/art-realtime/?Stop=A41021#realTimeResultsContainer"
337,41020,"N Glebe Road, NB @ N Quincy Street, FS",38.876432,-77.108506,"https://www.arlingtontransit.com/riding-art/rider-tools/art-realtime/?Stop=A41020#realTimeResultsContainer"
338,41210,"N Glebe Road, SB @  Henderson Road, NS",38.876137,-77.108690,"https://www.arlingtontransit.com/riding-art/rider-tools/art-realtime/?Stop=A41210#realTimeResultsContainer"
339,41211,"N Glebe Road, SB @ 4th Street N, NS",38.875519,-77.107651,"https://www.arlingtontransit.com/riding-art/rider-tools/art-realtime/?Stop=A41211#realTimeResultsContainer"
340,41019,"N Glebe Road, NB @ 4th Street N, NS",38.875493,-77.107263,"https://www.arlingtontransit.com/riding-art/rider-tools/art-realtime/?Stop=A41019#realTimeResultsContainer"
341,67002,"Wilson Blvd, EB @ N Quincy Street, FS",38.879800,-77.107200,"https://www.arlingtontransit.com/riding-art/rider-tools/art-realtime/?Stop=A67002#realTimeResultsContainer"
342,41208,"Wilson Blvd, WB @ N Pollard Street, NS",38.880169,-77.106249,"https://www.arlingtontransit.com/riding-art/rider-tools/art-realtime/?Stop=A41208#realTimeResultsContainer"
343,41023,"Wilson Blvd, EB @ N Oakland St, FS",38.881282,-77.103827,"https://www.arlingtontransit.com/riding-art/rider-tools/art-realtime/?Stop=A41023#realTimeResultsContainer"
344,41207,"Wilson Blvd, WB @ N Oakland Street, FS",38.881163,-77.104357,"https://www.arlingtontransit.com/riding-art/rider-tools/art-realtime/?Stop=A41207#realTimeResultsContainer"
345,41024,"Wilson Blvd, EB @ N Kenmore Street, NS",38.882907,-77.100442,"https://www.arlingtontransit.com/riding-art/rider-tools/art-realtime/?Stop=A41024#realTimeResultsContainer"
346,41206,"Wilson Blvd, WB @ N Kansas Street, NS",38.883065,-77.100526,"https://www.arlingtontransit.com/riding-art/rider-tools/art-realtime/?Stop=A41206#realTimeResultsContainer"
412,62004,"Lee Highway, WB @ Lorcom Lane, NS",38.898489,-77.117304,"https://www.arlingtontransit.com/riding-art/rider-tools/art-realtime/?Stop=A62004#realTimeResultsContainer"
413,62213,"Lee Highway, EB @ N Vermont Street, MB",38.898057,-77.116484,"https://www.arlingtontransit.com/riding-art/rider-tools/art-realtime/?Stop=A62213#realTimeResultsContainer"
414,62015,"Lee Highway, WB @ N Thomas Street, NS",38.897586,-77.115134,"https://www.arlingtontransit.com/riding-art/rider-tools/art-realtime/?Stop=A62015#realTimeResultsContainer"
415,62214,"Lee Highway, EB @ N Thomas Street, FS",38.897440,-77.115254,"https://www.arlingtontransit.com/riding-art/rider-tools/art-realtime/?Stop=A62214#realTimeResultsContainer"
416,62003,"Lee Highway, WB @ N Utah St, FS",38.897227,-77.114189,"https://www.arlingtontransit.com/riding-art/rider-tools/art-realtime/?Stop=A62003#realTimeResultsContainer"
440,41025,"Clarendon Blvd, EB @ N Highland Street, NS",38.886778,-77.095136,"https://www.arlingtontransit.com/riding-art/rider-tools/art-realtime/?Stop=A41025#realTimeResultsContainer"
444,41204,"Wilson Blvd, WB @ N Fillmore Street, NS",38.888855,-77.093019,"https://www.arlingtontransit.com/riding-art/rider-tools/art-realtime/?Stop=A41204#realTimeResultsContainer"
446,41203,"Wilson Blvd, WB @ N Danville Street, NS",38.889789,-77.090456,"https://www.arlingtontransit.com/riding-art/rider-tools/art-realtime/?Stop=A41203#realTimeResultsContainer"
447,41202,"Wilson Blvd, WB @ N Barton Street, NS",38.890617,-77.088307,"https://www.arlingtontransit.com/riding-art/rider-tools/art-realtime/?Stop=A41202#realTimeResultsContainer"
448,41027,"Clarendon Blvd, EB @ N Danville Street, NS",38.888487,-77.091119,"https://www.arlingtontransit.com/riding-art/rider-tools/art-realtime/?Stop=A41027#realTimeResultsContainer"
449,41028,"Clarendon Blvd, EB @ N Barton Street, NS",38.889370,-77.088824,"https://www.arlingtontransit.com/riding-art/rider-tools/art-realtime/?Stop=A41028#realTimeResultsContainer"
450,41029,"Clarendon Blvd, EB @ N Wayne Street, NS",38.890345,-77.086492,"https://www.arlingtontransit.com/riding-art/rider-tools/art-realtime/?Stop=A41029#realTimeResultsContainer"
451,41201,"Wilson Blvd, WB @ N Veitch Street, NS",38.891465,-77.085513,"https://www.arlingtontransit.com/riding-art/rider-tools/art-realtime/?Stop=A41201#realTimeResultsContainer"
454,61107,"Clarendon Blvd, EB @ N Uhle Street, NS",38.891310,-77.085020,"https://www.arlingtontransit.com/riding-art/rider-tools/art-realtime/?Stop=A61107#realTimeResultsContainer"
457,41031,"Court House Metro, Arlington Co Offices (Flags)",38.890665,-77.084930,"https://www.arlingtontransit.com/riding-art/rider-tools/art-realtime/?Stop=A41031#realTimeResultsContainer"
460,61010,"Wilson Blvd, WB @ N Rhodes Street, FS",38.893155,-77.080659,"https://www.arlingtontransit.com/riding-art/rider-tools/art-realtime/?Stop=A61010#realTimeResultsContainer"
475,61002,"Rosslyn Metro Bay A, N Moore St, SB @ Wilson, NS",38.896730,-77.071620,"https://www.arlingtontransit.com/riding-art/rider-tools/art-realtime/?Stop=A61002#realTimeResultsContainer"
513,42001,"Ballston Metro F, Fairfax Dr, EB @ N Stafford, NS",38.882088,-77.111083,"https://www.arlingtontransit.com/riding-art/rider-tools/art-realtime/?Stop=A42001#realTimeResultsContainer"
530,42026,"Pentagon Metro @ Bay U3",38.868426,-77.054603,"https://www.arlingtontransit.com/riding-art/rider-tools/art-realtime/?Stop=A42026#realTimeResultsContainer"
531,42214,"S Courthouse Road, NB @ 2nd Street S, NS",38.871430,-77.081669,"https://www.arlingtontransit.com/riding-art/rider-tools/art-realtime/?Stop=A42214#realTimeResultsContainer"
533,42208,"Columbia Pike, WB @ S Orme Street, NS",38.866569,-77.071720,"https://www.arlingtontransit.com/riding-art/rider-tools/art-realtime/?Stop=A42208#realTimeResultsContainer"
534,42021,"Columbia Pike, EB @ S Orme Street, FS",38.866473,-77.071416,"https://www.arlingtontransit.com/riding-art/rider-tools/art-realtime/?Stop=A42021#realTimeResultsContainer"
543,82101,"24th Road S, WB @ S Glebe Road , FS",38.848179,-77.081113,"https://www.arlingtontransit.com/riding-art/rider-tools/art-realtime/?Stop=A82101#realTimeResultsContainer"
553,74015,"Walter Reed Drive, NB @ 19th Street S, NS",38.853093,-77.089516,"https://www.arlingtontransit.com/riding-art/rider-tools/art-realtime/?Stop=A74015#realTimeResultsContainer"
558,42009,"Washington Blvd, SB @ 9th Street N, NS",38.883035,-77.092030,"https://www.arlingtontransit.com/riding-art/rider-tools/art-realtime/?Stop=A42009#realTimeResultsContainer"
559,42010,"Washington Blvd, SB @ N Pershing Drive, FS",38.880520,-77.090450,"https://www.arlingtontransit.com/riding-art/rider-tools/art-realtime/?Stop=A42010#realTimeResultsContainer"
560,42011,"Washington Blvd, SB @ 3rd Street N, NS",38.878902,-77.089025,"https://www.arlingtontransit.com/riding-art/rider-tools/art-realtime/?Stop=A42011#realTimeResultsContainer"
561,42016,"S Courthouse Road, SB @ 6th Street S, NS",38.869096,-77.081368,"https://www.arlingtontransit.com/riding-art/rider-tools/art-realtime/?Stop=A42016#realTimeResultsContainer"
562,42017,"S Courthouse Road, SB @ 8th Street S, NS",38.866838,-77.080983,"https://www.arlingtontransit.com/riding-art/rider-tools/art-realtime/?Stop=A42017#realTimeResultsContainer"
563,42018,"S Courthouse Road, SB @ 9th Street S, FS",38.865062,-77.080636,"https://www.arlingtontransit.com/riding-art/rider-tools/art-realtime/?Stop=A42018#realTimeResultsContainer"
564,42019,"Columbia Pike, EB @ S Scott Street, NS",38.864830,-77.077835,"https://www.arlingtontransit.com/riding-art/rider-tools/art-realtime/?Stop=A42019#realTimeResultsContainer"
565,42025,"Army Navy Drive, NB @ S Hayes Street, NS",38.865328,-77.058972,"https://www.arlingtontransit.com/riding-art/rider-tools/art-realtime/?Stop=A42025#realTimeResultsContainer"
566,42203,"Army Navy Drive, WB @ S Fern Street, NS",38.865241,-77.056318,"https://www.arlingtontransit.com/riding-art/rider-tools/art-realtime/?Stop=A42203#realTimeResultsContainer"
567,42210,"Columbia Pike, WB @ S Scott Street, FS",38.865088,-77.077526,"https://www.arlingtontransit.com/riding-art/rider-tools/art-realtime/?Stop=A42210#realTimeResultsContainer"
568,42211,"S Courthouse Road, NB @ Columbia Pike, FS",38.864980,-77.080410,"https://www.arlingtontransit.com/riding-art/rider-tools/art-realtime/?Stop=A42211#realTimeResultsContainer"
569,42212,"S Courthouse Road, NB @ 8th Street S, FS",38.866991,-77.080813,"https://www.arlingtontransit.com/riding-art/rider-tools/art-realtime/?Stop=A42212#realTimeResultsContainer"
570,42213,"S Courthouse Road, NB @ 5th Street S, NS",38.869600,-77.081300,"https://www.arlingtontransit.com/riding-art/rider-tools/art-realtime/?Stop=A42213#realTimeResultsContainer"
571,42215,"Washington Blvd, NB @ N Wayne Street, NS",38.876579,-77.085247,"https://www.arlingtontransit.com/riding-art/rider-tools/art-realtime/?Stop=A42215#realTimeResultsContainer"
572,42216,"Washington Blvd, NB @ N Barton Street, FS",38.877438,-77.086431,"https://www.arlingtontransit.com/riding-art/rider-tools/art-realtime/?Stop=A42216#realTimeResultsContainer"
574,42217,"Washington Blvd, NB @ 3rd Street N, NS",38.878571,-77.088018,"https://www.arlingtontransit.com/riding-art/rider-tools/art-realtime/?Stop=A42217#realTimeResultsContainer"
575,42218,"Washington Blvd, NB @ N Bryan Street, NS",38.879400,-77.089177,"https://www.arlingtontransit.com/riding-art/rider-tools/art-realtime/?Stop=A42218#realTimeResultsContainer"
576,42219,"Washington Blvd, NB @ N Pershing Drive, NS",38.880647,-77.090183,"https://www.arlingtontransit.com/riding-art/rider-tools/art-realtime/?Stop=A42219#realTimeResultsContainer"
577,42220,"Washington Blvd, NB @ 9th Street N, NS",38.882740,-77.091496,"https://www.arlingtontransit.com/riding-art/rider-tools/art-realtime/?Stop=A42220#realTimeResultsContainer"
578,41205,"Wilson Blvd, WB @ N Herndon Street, NS",38.887254,-77.095369,"https://www.arlingtontransit.com/riding-art/rider-tools/art-realtime/?Stop=A41205#realTimeResultsContainer"
579,41236,"Wilson Blvd, WB @ 10th Street N, NS",38.884804,-77.098380,"https://www.arlingtontransit.com/riding-art/rider-tools/art-realtime/?Stop=A41236#realTimeResultsContainer"
580,41237,"Wilson Blvd, WB @ N Monroe Street, FS",38.881931,-77.102948,"https://www.arlingtontransit.com/riding-art/rider-tools/art-realtime/?Stop=A41237#realTimeResultsContainer"
812,41032,"Wilson Blvd, EB @ 10th Street N, FS",38.884734,-77.098234,"https://www.arlingtontransit.com/riding-art/rider-tools/art-realtime/?Stop=A41032#realTimeResultsContainer"
814,42008,"Washington Blvd, SB @ 10th Street N, NS",38.884641,-77.093345,"https://www.arlingtontransit.com/riding-art/rider-tools/art-realtime/?Stop=A42008#realTimeResultsContainer"
815,42012,"Washington Blvd, SB @ N Brookside Drive, FS",38.877386,-77.086861,"https://www.arlingtontransit.com/riding-art/rider-tools/art-realtime/?Stop=A42012#realTimeResultsContainer"
817,42014,"Washington Blvd, SB @ Arlington Blvd (service), NS",38.875663,-77.084472,"https://www.arlingtontransit.com/riding-art/rider-tools/art-realtime/?Stop=A42014#realTimeResultsContainer"
818,42207,"Columbia Pike, WB @ S Oak Street, NS",38.867402,-77.068531,"https://www.arlingtontransit.com/riding-art/rider-tools/art-realtime/?Stop=A42207#realTimeResultsContainer"
819,42022,"Columbia Pike, EB @ S Oak Street, FS",38.867232,-77.068533,"https://www.arlingtontransit.com/riding-art/rider-tools/art-realtime/?Stop=A42022#realTimeResultsContainer"
820,42206,"S Joyce Street, NB @ Columbia Pike, NS",38.869388,-77.063993,"https://www.arlingtontransit.com/riding-art/rider-tools/art-realtime/?Stop=A42206#realTimeResultsContainer"
821,42023,"S Joyce Street, SB @ Columbia Pike, FS",38.869180,-77.064153,"https://www.arlingtontransit.com/riding-art/rider-tools/art-realtime/?Stop=A42023#realTimeResultsContainer"
822,42205,"Army Navy Drive, WB @ S Joyce Street, NS",38.866030,-77.062240,"https://www.arlingtontransit.com/riding-art/rider-tools/art-realtime/?Stop=A42205#realTimeResultsContainer"
823,42024,"Army Navy Drive, NB @ S Joyce Street, FS",38.865691,-77.061809,"https://www.arlingtontransit.com/riding-art/rider-tools/art-realtime/?Stop=A42024#realTimeResultsContainer"
825,42202,"Army Navy Drive, WB @ S Eads Street, FS",38.865106,-77.055238,"https://www.arlingtontransit.com/riding-art/rider-tools/art-realtime/?Stop=A42202#realTimeResultsContainer"
880,42204,"Army Navy Drive, WB @ S Hayes Street, FS",38.865720,-77.060018,"https://www.arlingtontransit.com/riding-art/rider-tools/art-realtime/?Stop=A42204#realTimeResultsContainer"
927,77002,"S Arlington Mill Drive, WB @ S Taylor Street, FS",38.843759,-77.091807,"https://www.arlingtontransit.com/riding-art/rider-tools/art-realtime/?Stop=A77002#realTimeResultsContainer"
928,77003,"S Arlington Mill Drive, WB @ 28th Street S, FS",38.845437,-77.095924,"https://www.arlingtontransit.com/riding-art/rider-tools/art-realtime/?Stop=A77003#realTimeResultsContainer"
929,77004,"Walter Reed Drive, NB @ S Randolph Street, NS",38.847692,-77.094425,"https://www.arlingtontransit.com/riding-art/rider-tools/art-realtime/?Stop=A77004#realTimeResultsContainer"
930,77005,"Walter Reed Drive, NB @ S Pollard Street, FS",38.849953,-77.092707,"https://www.arlingtontransit.com/riding-art/rider-tools/art-realtime/?Stop=A77005#realTimeResultsContainer"
931,77006,"Walter Reed Drive, NB @ S Nelson Street, FS",38.852045,-77.091088,"https://www.arlingtontransit.com/riding-art/rider-tools/art-realtime/?Stop=A77006#realTimeResultsContainer"
934,77010,"Walter Reed Drive, NB @ 13th Road S, NS",38.858810,-77.087490,"https://www.arlingtontransit.com/riding-art/rider-tools/art-realtime/?Stop=A77010#realTimeResultsContainer"
935,77011,"Walter Reed Drive, NB @ 13th Street S, NS",38.859730,-77.087180,"https://www.arlingtontransit.com/riding-art/rider-tools/art-realtime/?Stop=A77011#realTimeResultsContainer"
941,87001,"Army Navy Drive, WB @ S Lynn Street, FS",38.865547,-77.065263,"https://www.arlingtontransit.com/riding-art/rider-tools/art-realtime/?Stop=A87001#realTimeResultsContainer"
942,87002,"Army Navy Drive, SB @ S Nash Street, NS",38.863878,-77.067850,"https://www.arlingtontransit.com/riding-art/rider-tools/art-realtime/?Stop=A87002#realTimeResultsContainer"
943,87003,"Army Navy Drive, SB @ Memorial Drive, FS",38.859180,-77.069510,"https://www.arlingtontransit.com/riding-art/rider-tools/art-realtime/?Stop=A87003#realTimeResultsContainer"
945,87004,"Army Navy Drive, SB @ 20th Street S, NS",38.855623,-77.072159,"https://www.arlingtontransit.com/riding-art/rider-tools/art-realtime/?Stop=A87004#realTimeResultsContainer"
946,87005,"Army Navy Drive, SB @ 22nd Street S, NS",38.854262,-77.073046,"https://www.arlingtontransit.com/riding-art/rider-tools/art-realtime/?Stop=A87005#realTimeResultsContainer"
947,87006,"Army Navy Drive, SB @ 23rd Street, NS",38.853196,-77.073819,"https://www.arlingtontransit.com/riding-art/rider-tools/art-realtime/?Stop=A87006#realTimeResultsContainer"
948,87007,"Army Navy Drive, SB @ 28th Street S, FS",38.851254,-77.075243,"https://www.arlingtontransit.com/riding-art/rider-tools/art-realtime/?Stop=A87007#realTimeResultsContainer"
949,87008,"Army Navy Drive, SB @ 25th Street, NS",38.848384,-77.077496,"https://www.arlingtontransit.com/riding-art/rider-tools/art-realtime/?Stop=A87008#realTimeResultsContainer"
950,87018,"S Adams Street, EB @ 25th Street S, FS",38.846886,-77.077651,"https://www.arlingtontransit.com/riding-art/rider-tools/art-realtime/?Stop=A87018#realTimeResultsContainer"
951,87009,"26th Street S, NB @ S Veitch Street, NS",38.846964,-77.075833,"https://www.arlingtontransit.com/riding-art/rider-tools/art-realtime/?Stop=A87009#realTimeResultsContainer"
952,87010,"26th Street S, NB @ S Troy Street, FS",38.848186,-77.075135,"https://www.arlingtontransit.com/riding-art/rider-tools/art-realtime/?Stop=A87010#realTimeResultsContainer"
953,87011,"28th Street S, EB @ 26th Street S, FS",38.848574,-77.074272,"https://www.arlingtontransit.com/riding-art/rider-tools/art-realtime/?Stop=A87011#realTimeResultsContainer"
954,87012,"28th Street S, EB @ 1428 28th Street S, MB",38.847110,-77.072247,"https://www.arlingtontransit.com/riding-art/rider-tools/art-realtime/?Stop=A87012#realTimeResultsContainer"
955,87013,"28th Street S, EB @ S Mead Street, NS",38.846454,-77.070538,"https://www.arlingtontransit.com/riding-art/rider-tools/art-realtime/?Stop=A87013#realTimeResultsContainer"
956,87014,"S Lang Street, SB @ 28th Street S, FS",38.845832,-77.066956,"https://www.arlingtontransit.com/riding-art/rider-tools/art-realtime/?Stop=A87014#realTimeResultsContainer"
957,87015,"S Glebe Road, NB @ S Mead Street, NS",38.844841,-77.068725,"https://www.arlingtontransit.com/riding-art/rider-tools/art-realtime/?Stop=A87015#realTimeResultsContainer"
958,87016,"S Glebe Road, NB @ S Troy Street, NS",38.844538,-77.071463,"https://www.arlingtontransit.com/riding-art/rider-tools/art-realtime/?Stop=A87016#realTimeResultsContainer"
959,87017,"S Glebe Road, NB @ S Adams Street, NS",38.844173,-77.074669,"https://www.arlingtontransit.com/riding-art/rider-tools/art-realtime/?Stop=A87017#realTimeResultsContainer"
961,82102,"Shirlington Road, SB @ 25th Street S, FS",38.847015,-77.083916,"https://www.arlingtontransit.com/riding-art/rider-tools/art-realtime/?Stop=A82102#realTimeResultsContainer"
962,82103,"Shirlington Road, SB @ Four Mile Run, NS",38.844469,-77.085569,"https://www.arlingtontransit.com/riding-art/rider-tools/art-realtime/?Stop=A82103#realTimeResultsContainer"
966,87210,"S Glebe Road, SB @ S Adams Street, FS",38.844023,-77.074588,"https://www.arlingtontransit.com/riding-art/rider-tools/art-realtime/?Stop=A87210#realTimeResultsContainer"
967,87211,"S Glebe Road, SB @ S Troy Street, FS",38.844299,-77.071489,"https://www.arlingtontransit.com/riding-art/rider-tools/art-realtime/?Stop=A87211#realTimeResultsContainer"
968,87212,"S Glebe Road, SB @ S Meade Street, FS",38.844668,-77.068535,"https://www.arlingtontransit.com/riding-art/rider-tools/art-realtime/?Stop=A87212#realTimeResultsContainer"
969,87213,"28th Street S, WB @ opposite 1400, MB",38.846828,-77.071209,"https://www.arlingtontransit.com/riding-art/rider-tools/art-realtime/?Stop=A87213#realTimeResultsContainer"
970,87214,"28th Street S, WB @ 1501 28th Street S, MB",38.847565,-77.072814,"https://www.arlingtontransit.com/riding-art/rider-tools/art-realtime/?Stop=A87214#realTimeResultsContainer"
971,87215,"28th Street S, WB @ 26th Street S, NS",38.848750,-77.074180,"https://www.arlingtontransit.com/riding-art/rider-tools/art-realtime/?Stop=A87215#realTimeResultsContainer"
972,87216,"26th Street S, SB @ S Troy Street, FS",38.848509,-77.075119,"https://www.arlingtontransit.com/riding-art/rider-tools/art-realtime/?Stop=A87216#realTimeResultsContainer"
973,87217,"26th Street S, SB @ 25th Street S, FS",38.847712,-77.075575,"https://www.arlingtontransit.com/riding-art/rider-tools/art-realtime/?Stop=A87217#realTimeResultsContainer"
974,87218,"S Adams Street, NB @ 26th Street S, FS",38.846514,-77.077244,"https://www.arlingtontransit.com/riding-art/rider-tools/art-realtime/?Stop=A87218#realTimeResultsContainer"
975,87226,"Army Navy Drive, NB @ 25th Street S, FS",38.848119,-77.077372,"https://www.arlingtontransit.com/riding-art/rider-tools/art-realtime/?Stop=A87226#realTimeResultsContainer"
976,87219,"Army Navy Drive, NB @ 28th Street S, NS",38.851500,-77.074834,"https://www.arlingtontransit.com/riding-art/rider-tools/art-realtime/?Stop=A87219#realTimeResultsContainer"
977,87220,"Army Navy Drive, NB @ 23rd Street S, NS",38.852988,-77.073814,"https://www.arlingtontransit.com/riding-art/rider-tools/art-realtime/?Stop=A87220#realTimeResultsContainer"
978,87221,"Army Navy Drive, NB @ 22nd Street S, FS",38.854401,-77.072736,"https://www.arlingtontransit.com/riding-art/rider-tools/art-realtime/?Stop=A87221#realTimeResultsContainer"
979,87222,"Army Navy Drive, NB @ 20th Street S, FS",38.855807,-77.071893,"https://www.arlingtontransit.com/riding-art/rider-tools/art-realtime/?Stop=A87222#realTimeResultsContainer"
980,87223,"Army Navy Drive, NB @ Memorial Drive, NS",38.859130,-77.069240,"https://www.arlingtontransit.com/riding-art/rider-tools/art-realtime/?Stop=A87223#realTimeResultsContainer"
981,87224,"Army Navy Dr, NB @ S Nash St (Horizon APTS), FS",38.863750,-77.067666,"https://www.arlingtontransit.com/riding-art/rider-tools/art-realtime/?Stop=A87224#realTimeResultsContainer"
982,87225,"Army Navy Drive, NB @ S Lynn Street, NS",38.865345,-77.065268,"https://www.arlingtontransit.com/riding-art/rider-tools/art-realtime/?Stop=A87225#realTimeResultsContainer"
985,77015,"Walter Reed Drive, NB @ 6th Street S, NS",38.867474,-77.087856,"https://www.arlingtontransit.com/riding-art/rider-tools/art-realtime/?Stop=A77015#realTimeResultsContainer"
986,77016,"Clarendon Blvd, EB @ N Fillmore Street, NS",38.887710,-77.093320,"https://www.arlingtontransit.com/riding-art/rider-tools/art-realtime/?Stop=A77016#realTimeResultsContainer"
988,77210,"Walter Reed Drive, SB @ S Randolph Street, NS",38.848080,-77.094458,"https://www.arlingtontransit.com/riding-art/rider-tools/art-realtime/?Stop=A77210#realTimeResultsContainer"
992,77201,"Walter Reed Drive, SB @ 8th Street S, NS",38.866039,-77.087871,"https://www.arlingtontransit.com/riding-art/rider-tools/art-realtime/?Stop=A77201#realTimeResultsContainer"
993,77202,"Walter Reed Drive, SB @ 9th Street S, NS",38.864406,-77.087525,"https://www.arlingtontransit.com/riding-art/rider-tools/art-realtime/?Stop=A77202#realTimeResultsContainer"
994,77203,"Walter Reed Drive, SB @ Columbia Pike, FS",38.862261,-77.087136,"https://www.arlingtontransit.com/riding-art/rider-tools/art-realtime/?Stop=A77203#realTimeResultsContainer"
995,77204,"Walter Reed Drive, SB @ 13th Street S, NS",38.860105,-77.087358,"https://www.arlingtontransit.com/riding-art/rider-tools/art-realtime/?Stop=A77204#realTimeResultsContainer"
996,77205,"Walter Reed Drive, SB @ 13th Road S, FS",38.858872,-77.087721,"https://www.arlingtontransit.com/riding-art/rider-tools/art-realtime/?Stop=A77205#realTimeResultsContainer"
997,77206,"Walter Reed Drive, SB @ 15th Street S, NS",38.857171,-77.088282,"https://www.arlingtontransit.com/riding-art/rider-tools/art-realtime/?Stop=A77206#realTimeResultsContainer"
998,77207,"Walter Reed Drive, SB @ Glebe Road, NS",38.856110,-77.088585,"https://www.arlingtontransit.com/riding-art/rider-tools/art-realtime/?Stop=A77207#realTimeResultsContainer"
999,77214,"Walter Reed Drive, SB @ 18th Street S, NS",38.853920,-77.089116,"https://www.arlingtontransit.com/riding-art/rider-tools/art-realtime/?Stop=A77214#realTimeResultsContainer"
1000,77208,"Walter Reed Drive, SB @ 19th Street S, FS",38.851812,-77.091561,"https://www.arlingtontransit.com/riding-art/rider-tools/art-realtime/?Stop=A77208#realTimeResultsContainer"
1001,77209,"Walter Reed Drive, SB @ S Pollard Street, NS",38.850003,-77.092963,"https://www.arlingtontransit.com/riding-art/rider-tools/art-realtime/?Stop=A77209#realTimeResultsContainer"
1003,77211,"S Arlington Mill Drive, EB @ 28th Road S, FS",38.845025,-77.095601,"https://www.arlingtontransit.com/riding-art/rider-tools/art-realtime/?Stop=A77211#realTimeResultsContainer"
1004,77212,"S Arlington Mill Drive, EB @ S Taylor Street, NS",38.843654,-77.092072,"https://www.arlingtontransit.com/riding-art/rider-tools/art-realtime/?Stop=A77212#realTimeResultsContainer"
1005,77213,"S Arlington Mill Drive, EB @ Campbell Avenue, FS",38.841930,-77.089412,"https://www.arlingtontransit.com/riding-art/rider-tools/art-realtime/?Stop=A77213#realTimeResultsContainer"
1007,77008,"Walter Reed Drive, NB @ 16th Road S, NS",38.855799,-77.088319,"https://www.arlingtontransit.com/riding-art/rider-tools/art-realtime/?Stop=A77008#realTimeResultsContainer"
1008,77009,"Walter Reed Drive, NB @ 16th Street S, NS",38.856930,-77.088080,"https://www.arlingtontransit.com/riding-art/rider-tools/art-realtime/?Stop=A77009#realTimeResultsContainer"
1009,77012,"Walter Reed Drive, NB @ Columbia Pike, NS",38.862030,-77.086861,"https://www.arlingtontransit.com/riding-art/rider-tools/art-realtime/?Stop=A77012#realTimeResultsContainer"
1010,77017,"Walter Reed Drive, NB @ Columbia Pike , FS",38.862880,-77.086937,"https://www.arlingtontransit.com/riding-art/rider-tools/art-realtime/?Stop=A77017#realTimeResultsContainer"
1011,77013,"Walter Reed Drive, NB @ 9th Street S, NS",38.863913,-77.087166,"https://www.arlingtontransit.com/riding-art/rider-tools/art-realtime/?Stop=A77013#realTimeResultsContainer"
1012,77014,"Walter Reed Drive, NB @ 8th Street S, NS",38.865645,-77.087526,"https://www.arlingtontransit.com/riding-art/rider-tools/art-realtime/?Stop=A77014#realTimeResultsContainer"
1015,42222,"Washington Blvd, NB @ 10th Street N, FS",38.884865,-77.093224,"https://www.arlingtontransit.com/riding-art/rider-tools/art-realtime/?Stop=A42222#realTimeResultsContainer"
1016,42223,"Wilson Blvd, WB @ N Randolph Street, NS",38.879995,-77.108711,"https://www.arlingtontransit.com/riding-art/rider-tools/art-realtime/?Stop=A42223#realTimeResultsContainer"
1017,87227,"28th Street S, WB @ S Lang Street, FS",38.846183,-77.067296,"https://www.arlingtontransit.com/riding-art/rider-tools/art-realtime/?Stop=A87227#realTimeResultsContainer"
1018,77216,"N Highland Street, SB @ 11th Street N, NS",38.886460,-77.094939,"https://www.arlingtontransit.com/riding-art/rider-tools/art-realtime/?Stop=A77216#realTimeResultsContainer"
1022,62215,"Lee Highway, EB @ N Utah Street, MB ",38.897124,-77.114199,"https://www.arlingtontransit.com/riding-art/rider-tools/art-realtime/?Stop=A62215#realTimeResultsContainer"
1076,77217,"6th Street S, WB @ N Fillmore Street, NS",38.868100,-77.087700,"https://www.arlingtontransit.com/riding-art/rider-tools/art-realtime/?Stop=A77217#realTimeResultsContainer"
1077,41033,"Wilson Blvd, EB @ N Monroe Street, FS",38.882005,-77.102437,"https://www.arlingtontransit.com/riding-art/rider-tools/art-realtime/?Stop=A41033#realTimeResultsContainer"
1078,77218,"6th Street S, WB @ S Wayne Street, NS",38.868829,-77.083382,"https://www.arlingtontransit.com/riding-art/rider-tools/art-realtime/?Stop=A77218#realTimeResultsContainer"
1079,77018,"6th Street S, EB @ S Wayne Street, FS",38.868664,-77.083047,"https://www.arlingtontransit.com/riding-art/rider-tools/art-realtime/?Stop=A77018#realTimeResultsContainer"
1091,45004,"S George Mason Drive, SB @ At 1402, MB",38.853888,-77.101927,"https://www.arlingtontransit.com/riding-art/rider-tools/art-realtime/?Stop=A45004#realTimeResultsContainer"
1092,45002,"S Four Mile Run Drive, WB @ Across from 4600, MB",38.855267,-77.106618,"https://www.arlingtontransit.com/riding-art/rider-tools/art-realtime/?Stop=A45002#realTimeResultsContainer"
1093,45003,"S George Mason Drive, SB @ 12th Road S, NS",38.857659,-77.100819,"https://www.arlingtontransit.com/riding-art/rider-tools/art-realtime/?Stop=A45003#realTimeResultsContainer"
1094,45005,"Columbia Pike, EB @ S Glebe Rd, FS",38.861346,-77.091210,"https://www.arlingtontransit.com/riding-art/rider-tools/art-realtime/?Stop=A45005#realTimeResultsContainer"
1095,45009,"Columbia Pike, WB @ S Glebe Rd, NS",38.861409,-77.091764,"https://www.arlingtontransit.com/riding-art/rider-tools/art-realtime/?Stop=A45009#realTimeResultsContainer"
1096,45008,"Columbia Pike, WB @ Walter Reed Drive, NS",38.862707,-77.086780,"https://www.arlingtontransit.com/riding-art/rider-tools/art-realtime/?Stop=A45008#realTimeResultsContainer"
1097,45006,"Columbia Pike, EB @ Walter Reed Drive, FS",38.862577,-77.086579,"https://www.arlingtontransit.com/riding-art/rider-tools/art-realtime/?Stop=A45006#realTimeResultsContainer"
1098,45007,"Columbia Pike, WB @ S Barton St, FS",38.863348,-77.084432,"https://www.arlingtontransit.com/riding-art/rider-tools/art-realtime/?Stop=A45007#realTimeResultsContainer"
1099,45001,"Sequoia/DHS S Uhle Street WB @ S Walter Reed Drive",38.872790,-77.082993,"https://www.arlingtontransit.com/riding-art/rider-tools/art-realtime/?Stop=A45001#realTimeResultsContainer"
1100,41034,"Columbia Pike, EB @ Four Mile Run, FS",38.856500,-77.108900,"https://www.arlingtontransit.com/riding-art/rider-tools/art-realtime/?Stop=A41034#realTimeResultsContainer"
1101,41238,"Columbia Pike, WB @ S Buchanan Street, NS",38.856820,-77.108380,"https://www.arlingtontransit.com/riding-art/rider-tools/art-realtime/?Stop=A41238#realTimeResultsContainer"
1111,75030,"S Randolf Street SB @ Campbell Ave, FS",38.840680,-77.088880,"https://www.arlingtontransit.com/riding-art/rider-tools/art-realtime/?Stop=A75030#realTimeResultsContainer"
1123,45010,"Clarendon Blvd, EB @ N Pierce Street, FS",38.893653,-77.075386,"https://www.arlingtontransit.com/riding-art/rider-tools/art-realtime/?Stop=A45010#realTimeResultsContainer"
1125,42028,"2nd St S, EB @ S Courthouse Rd, SB",38.871573,-77.081959,"https://www.arlingtontransit.com/riding-art/rider-tools/art-realtime/?Stop=A42028#realTimeResultsContainer"
1126,52030,"N Glebe Road, NB @ 11th Street N, NS",38.883385,-77.116248,"https://www.arlingtontransit.com/riding-art/rider-tools/art-realtime/?Stop=A52030#realTimeResultsContainer"
1128,45023,"Wilson Blvd, WB @ N Quinn Street, FS",38.894090,-77.078440,"https://www.arlingtontransit.com/riding-art/rider-tools/art-realtime/?Stop=A45023#realTimeResultsContainer"
1129,45024,"N Barton Street, SB @ 10th Street N, NS",38.885025,-77.087990,"https://www.arlingtontransit.com/riding-art/rider-tools/art-realtime/?Stop=A45024#realTimeResultsContainer"
1132,45021,"N Barton Street, NB @ 10th Street N, FS",38.884885,-77.087810,"https://www.arlingtontransit.com/riding-art/rider-tools/art-realtime/?Stop=A45021#realTimeResultsContainer"
1133,45022,"Clarendon Blvd, EB @ N Rhodes Street, FS",38.892834,-77.079277,"https://www.arlingtontransit.com/riding-art/rider-tools/art-realtime/?Stop=A45022#realTimeResultsContainer"
1134,45011,"Columbia Pike, WB @ S Jefferson Street, NS",38.853638,-77.119637,"https://www.arlingtontransit.com/riding-art/rider-tools/art-realtime/?Stop=A45011#realTimeResultsContainer"
1135,45012,"8th Road S, EB @ S Carlin Springs Road, FS",38.855599,-77.123261,"https://www.arlingtontransit.com/riding-art/rider-tools/art-realtime/?Stop=A45012#realTimeResultsContainer"
1136,45013,"8th Road S, EB @ S Harrison Street, NS",38.856304,-77.121351,"https://www.arlingtontransit.com/riding-art/rider-tools/art-realtime/?Stop=A45013#realTimeResultsContainer"
1137,45014,"8th Road S, EB @ S Greenbrier Street, NS",38.856503,-77.119075,"https://www.arlingtontransit.com/riding-art/rider-tools/art-realtime/?Stop=A45014#realTimeResultsContainer"
1139,45016,"S Four Mile Run Drive, EB @ #4500, MB",38.854745,-77.106035,"https://www.arlingtontransit.com/riding-art/rider-tools/art-realtime/?Stop=A45016#realTimeResultsContainer"
1140,45017,"S George Mason Drive, NB @ #1402, MB",38.853748,-77.101664,"https://www.arlingtontransit.com/riding-art/rider-tools/art-realtime/?Stop=A45017#realTimeResultsContainer"
1141,45018,"S George Mason Drive, NB @ 12th Road S, FS",38.858212,-77.100729,"https://www.arlingtontransit.com/riding-art/rider-tools/art-realtime/?Stop=A45018#realTimeResultsContainer"
1144,45025,"N Barton Street, NB @ 9th Street N, NS",38.882839,-77.087501,"https://www.arlingtontransit.com/riding-art/rider-tools/art-realtime/?Stop=A45025#realTimeResultsContainer"
1145,45026,"N Barton Street, NB @ N Pershing Drive",38.880725,-77.087235,"https://www.arlingtontransit.com/riding-art/rider-tools/art-realtime/?Stop=A45026#realTimeResultsContainer"
1146,45027,"N Barton Street, SB @ N Pershing Drive, NS",38.880924,-77.087376,"https://www.arlingtontransit.com/riding-art/rider-tools/art-realtime/?Stop=A45027#realTimeResultsContainer"
1147,45028,"N Barton Street, SB @ 9th Street N, NS",38.883097,-77.087636,"https://www.arlingtontransit.com/riding-art/rider-tools/art-realtime/?Stop=A45028#realTimeResultsContainer"
1168,15103,"Rosslyn Metro Bay E, N Moore St, SB @ Wilson, NS",38.895245,-77.071567,"https://www.arlingtontransit.com/riding-art/rider-tools/art-realtime/?Stop=A15103#realTimeResultsContainer"
1169,15013,"N Highland Street, NB @ 11th St N, FS",38.886350,-77.094760,"https://www.arlingtontransit.com/riding-art/rider-tools/art-realtime/?Stop=A15013#realTimeResultsContainer"
1171,15041,"8th Rd S, EB @ 5100, MB",38.857040,-77.116260,"https://www.arlingtontransit.com/riding-art/rider-tools/art-realtime/?Stop=A15041#realTimeResultsContainer"
1180,15020,"S Carlin Springs Road, NB @ Columbia Pike, FS",38.853695,-77.122079,"https://www.arlingtontransit.com/riding-art/rider-tools/art-realtime/?Stop=A15020#realTimeResultsContainer"
1181,15021,"East Falls Church Metro, N Sycamore Street, Bay D",38.886298,-77.156700,"https://www.arlingtontransit.com/riding-art/rider-tools/art-realtime/?Stop=A15021#realTimeResultsContainer"
1182,15022,"Crystal Drive, NB @ VRE Station",38.857872,-77.049105,"https://www.arlingtontransit.com/riding-art/rider-tools/art-realtime/?Stop=A15022#realTimeResultsContainer"
1183,15024,"Crystal City Bay A, S Bell St, SB @ S Hayes St S",38.858569,-77.051336,"https://www.arlingtontransit.com/riding-art/rider-tools/art-realtime/?Stop=A15024#realTimeResultsContainer"
1185,15025,"N Barton St, SB @ Clarendon Blvd, NS",38.889694,-77.088655,"https://www.arlingtontransit.com/riding-art/rider-tools/art-realtime/?Stop=A15025#realTimeResultsContainer"
1196,15095,"N Sycamore Street, NB @ 22nd Road N, NS",38.889834,-77.156200,"https://www.arlingtontransit.com/riding-art/rider-tools/art-realtime/?Stop=A15095#realTimeResultsContainer"
1197,15096,"Lee Hwy, EB @ N Roosevelt Street, NS",38.891210,-77.154800,"https://www.arlingtontransit.com/riding-art/rider-tools/art-realtime/?Stop=A15096#realTimeResultsContainer"
1198,15097,"Lee Hwy, EB @ N Quantico Street, NS",38.891960,-77.153400,"https://www.arlingtontransit.com/riding-art/rider-tools/art-realtime/?Stop=A15097#realTimeResultsContainer"
1199,15098,"Lee Hwy, EB @ N Potomac Street, FS",38.892520,-77.151500,"https://www.arlingtontransit.com/riding-art/rider-tools/art-realtime/?Stop=A15098#realTimeResultsContainer"
1200,15099,"Lee Hwy, EB @ N Powhatan Street, NS",38.892810,-77.150300,"https://www.arlingtontransit.com/riding-art/rider-tools/art-realtime/?Stop=A15099#realTimeResultsContainer"
1201,15047,"Lee Hwy, EB @ John Marshall Drive, FS",38.893660,-77.147190,"https://www.arlingtontransit.com/riding-art/rider-tools/art-realtime/?Stop=A15047#realTimeResultsContainer"
1203,15050,"Lee Hwy, EB @ N Jefferson Street, MB",38.895533,-77.140655,"https://www.arlingtontransit.com/riding-art/rider-tools/art-realtime/?Stop=A15050#realTimeResultsContainer"
1204,15049,"Lee Hwy, EB @ N Lexington Street, NS",38.894830,-77.143570,"https://www.arlingtontransit.com/riding-art/rider-tools/art-realtime/?Stop=A15049#realTimeResultsContainer"
1205,15051,"Lee Hwy, EB @ N Harrison Street, NS",38.896094,-77.138224,"https://www.arlingtontransit.com/riding-art/rider-tools/art-realtime/?Stop=A15051#realTimeResultsContainer"
1206,15030,"Lee Hwy, EB @ N George Mason Drive, FS",38.896224,-77.133177,"https://www.arlingtontransit.com/riding-art/rider-tools/art-realtime/?Stop=A15030#realTimeResultsContainer"
1207,15031,"Lee Hwy, EB @ N Edison Street, NS",38.896284,-77.130720,"https://www.arlingtontransit.com/riding-art/rider-tools/art-realtime/?Stop=A15031#realTimeResultsContainer"
1208,15032,"Lee Hwy, EB @ N Culpeper Street, FS",38.896387,-77.126788,"https://www.arlingtontransit.com/riding-art/rider-tools/art-realtime/?Stop=A15032#realTimeResultsContainer"
1209,15033,"Lee Hwy, EB @ N Glebe Road, NS",38.897257,-77.124131,"https://www.arlingtontransit.com/riding-art/rider-tools/art-realtime/?Stop=A15033#realTimeResultsContainer"
1210,15034,"Lee Hwy, EB @ N Albemarle Street, NS",38.897951,-77.122101,"https://www.arlingtontransit.com/riding-art/rider-tools/art-realtime/?Stop=A15034#realTimeResultsContainer"
1211,15035,"Lee Hwy, EB @ N Woodrow Street, NS",38.898546,-77.119602,"https://www.arlingtontransit.com/riding-art/rider-tools/art-realtime/?Stop=A15035#realTimeResultsContainer"
1212,15036,"Lee Hwy, EB @ N Stafford Street, NS",38.896989,-77.112375,"https://www.arlingtontransit.com/riding-art/rider-tools/art-realtime/?Stop=A15036#realTimeResultsContainer"
1213,15037,"Lee Hwy, EB @ N Randolph Street, FS",38.896968,-77.110067,"https://www.arlingtontransit.com/riding-art/rider-tools/art-realtime/?Stop=A15037#realTimeResultsContainer"
1214,15091,"Lee Hwy, EB @ N Quincy Street, FS",38.896705,-77.107940,"https://www.arlingtontransit.com/riding-art/rider-tools/art-realtime/?Stop=A15091#realTimeResultsContainer"
1215,15092,"Lee Hwy, EB @ N Oakland  Street, FS",38.896245,-77.106056,"https://www.arlingtontransit.com/riding-art/rider-tools/art-realtime/?Stop=A15092#realTimeResultsContainer"
1216,15093,"Lee Hwy, EB @ N Monroe Street, NS",38.895835,-77.104387,"https://www.arlingtontransit.com/riding-art/rider-tools/art-realtime/?Stop=A15093#realTimeResultsContainer"
1217,15094,"Lee Hwy, EB @ Adjacent to 3206, MB",38.896210,-77.100990,"https://www.arlingtontransit.com/riding-art/rider-tools/art-realtime/?Stop=A15094#realTimeResultsContainer"
1218,15088,"Lee Hwy, EB @ Kirkwood Road, NS",38.895836,-77.097497,"https://www.arlingtontransit.com/riding-art/rider-tools/art-realtime/?Stop=A15088#realTimeResultsContainer"
1219,15090,"Lee Hwy, EB @ N Danville Street, FS",38.894547,-77.092764,"https://www.arlingtontransit.com/riding-art/rider-tools/art-realtime/?Stop=A15090#realTimeResultsContainer"
1220,15063,"Lee Hwy, EB @ N Cleveland Street, FS",38.894754,-77.090934,"https://www.arlingtontransit.com/riding-art/rider-tools/art-realtime/?Stop=A15063#realTimeResultsContainer"
1221,15065,"Lee Hwy, EB @ N Veitch Street, FS",38.895954,-77.085983,"https://www.arlingtontransit.com/riding-art/rider-tools/art-realtime/?Stop=A15065#realTimeResultsContainer"
1222,15066,"Lee Hwy, EB @ N Rhodes Street, NS",38.896279,-77.082255,"https://www.arlingtontransit.com/riding-art/rider-tools/art-realtime/?Stop=A15066#realTimeResultsContainer"
1223,15067,"Lee Hwy, EB @ N Quinn Street, FS",38.897800,-77.078214,"https://www.arlingtontransit.com/riding-art/rider-tools/art-realtime/?Stop=A15067#realTimeResultsContainer"
1224,15068,"Lee Hwy, EB @ Fort Myer Drive, NS",38.898322,-77.073025,"https://www.arlingtontransit.com/riding-art/rider-tools/art-realtime/?Stop=A15068#realTimeResultsContainer"
1225,15069,"Lee Hwy, WB @ N Nash Street, MB",38.899164,-77.072833,"https://www.arlingtontransit.com/riding-art/rider-tools/art-realtime/?Stop=A15069#realTimeResultsContainer"
1226,15070,"Lee Hwy, WB @ N Oak Street, NS",38.899092,-77.075107,"https://www.arlingtontransit.com/riding-art/rider-tools/art-realtime/?Stop=A15070#realTimeResultsContainer"
1227,15071,"Lee Hwy, WB @ N Scott Street, NS",38.897590,-77.080400,"https://www.arlingtontransit.com/riding-art/rider-tools/art-realtime/?Stop=A15071#realTimeResultsContainer"
1228,15072,"Lee Hwy, WB @ N Vance Street, NS",38.895995,-77.086885,"https://www.arlingtontransit.com/riding-art/rider-tools/art-realtime/?Stop=A15072#realTimeResultsContainer"
1229,15073,"Lee Hwy, WB @ N Adams Street, FS",38.895420,-77.089187,"https://www.arlingtontransit.com/riding-art/rider-tools/art-realtime/?Stop=A15073#realTimeResultsContainer"
1230,15074,"Lee Hwy, WB @ N Cleveland Street, FS",38.894971,-77.091573,"https://www.arlingtontransit.com/riding-art/rider-tools/art-realtime/?Stop=A15074#realTimeResultsContainer"
1231,15075,"Lee Hwy, WB @ N Highland Street, FS",38.895243,-77.094536,"https://www.arlingtontransit.com/riding-art/rider-tools/art-realtime/?Stop=A15075#realTimeResultsContainer"
1232,15089,"Lee Hwy, EB @ N Highland Street, NS",38.894982,-77.094767,"https://www.arlingtontransit.com/riding-art/rider-tools/art-realtime/?Stop=A15089#realTimeResultsContainer"
1233,15076,"Lee Hwy, WB @ Spout Run Pkwy, FS",38.896112,-77.097317,"https://www.arlingtontransit.com/riding-art/rider-tools/art-realtime/?Stop=A15076#realTimeResultsContainer"
1235,15078,"Lee Hwy, WB @ N Lincoln Street, NS",38.896460,-77.102590,"https://www.arlingtontransit.com/riding-art/rider-tools/art-realtime/?Stop=A15078#realTimeResultsContainer"
1236,15079,"Lee Hwy, WB @ N Oakland  Street, NS",38.896395,-77.105866,"https://www.arlingtontransit.com/riding-art/rider-tools/art-realtime/?Stop=A15079#realTimeResultsContainer"
1237,15080,"Lee Hwy, WB @ N Pollard Street, NS",38.896731,-77.107010,"https://www.arlingtontransit.com/riding-art/rider-tools/art-realtime/?Stop=A15080#realTimeResultsContainer"
1238,15081,"Lee Hwy, WB @ 21st Road N, FS",38.897088,-77.110032,"https://www.arlingtontransit.com/riding-art/rider-tools/art-realtime/?Stop=A15081#realTimeResultsContainer"
1239,15082,"Lee Hwy, WB @ N Taylor Street, NS",38.897062,-77.112876,"https://www.arlingtontransit.com/riding-art/rider-tools/art-realtime/?Stop=A15082#realTimeResultsContainer"
1240,15083,"Lee Hwy, WB @ Lorcom Lane, FS",38.898680,-77.118570,"https://www.arlingtontransit.com/riding-art/rider-tools/art-realtime/?Stop=A15083#realTimeResultsContainer"
1241,15084,"Lee Hwy, WB @ N Albemarle Street, NS",38.898319,-77.121694,"https://www.arlingtontransit.com/riding-art/rider-tools/art-realtime/?Stop=A15084#realTimeResultsContainer"
1242,15085,"Lee Hwy, WB @ N Glebe Road, NS",38.897781,-77.123277,"https://www.arlingtontransit.com/riding-art/rider-tools/art-realtime/?Stop=A15085#realTimeResultsContainer"
1243,15086,"Lee Hwy, WB @ N Culpeper Street, NS",38.896516,-77.127268,"https://www.arlingtontransit.com/riding-art/rider-tools/art-realtime/?Stop=A15086#realTimeResultsContainer"
1244,15087,"Lee Hwy, WB @ N Edison Street, NS",38.896464,-77.130318,"https://www.arlingtontransit.com/riding-art/rider-tools/art-realtime/?Stop=A15087#realTimeResultsContainer"
1245,15064,"Lee Hwy, EB @ N Adams Street, FS",38.895330,-77.088206,"https://www.arlingtontransit.com/riding-art/rider-tools/art-realtime/?Stop=A15064#realTimeResultsContainer"
1246,15052,"Lee Hwy, WB @ N George Mason Drive, FS",38.896449,-77.134321,"https://www.arlingtontransit.com/riding-art/rider-tools/art-realtime/?Stop=A15052#realTimeResultsContainer"
1247,15053,"Lee Hwy, WB @ N Harrison Street, NS",38.896442,-77.137358,"https://www.arlingtontransit.com/riding-art/rider-tools/art-realtime/?Stop=A15053#realTimeResultsContainer"
1248,15054,"Lee Hwy, WB @ N Harrison Street, FS",38.896280,-77.138490,"https://www.arlingtontransit.com/riding-art/rider-tools/art-realtime/?Stop=A15054#realTimeResultsContainer"
1249,15055,"Lee Hwy, WB @ N Kensington Street, NS",38.895500,-77.141600,"https://www.arlingtontransit.com/riding-art/rider-tools/art-realtime/?Stop=A15055#realTimeResultsContainer"
1250,15056,"Lee Hwy, WB @ N Lexington Street, NS",38.894898,-77.143821,"https://www.arlingtontransit.com/riding-art/rider-tools/art-realtime/?Stop=A15056#realTimeResultsContainer"
1252,15058,"Lee Hwy, WB @ John Marshall Drive, NS",38.893680,-77.147700,"https://www.arlingtontransit.com/riding-art/rider-tools/art-realtime/?Stop=A15058#realTimeResultsContainer"
1253,15059,"Lee Hwy, WB @ N Powhatan Street, NS",38.893073,-77.150116,"https://www.arlingtontransit.com/riding-art/rider-tools/art-realtime/?Stop=A15059#realTimeResultsContainer"
1254,15060,"Lee Hwy, WB @ N Potomac Street, NS",38.892640,-77.151715,"https://www.arlingtontransit.com/riding-art/rider-tools/art-realtime/?Stop=A15060#realTimeResultsContainer"
1255,15061,"Lee Hwy, WB @ N Quantico Street, NS",38.892287,-77.153054,"https://www.arlingtontransit.com/riding-art/rider-tools/art-realtime/?Stop=A15061#realTimeResultsContainer"
1256,15062,"Lee Hwy, WB @ N Roosevelt Street, FS",38.891444,-77.154739,"https://www.arlingtontransit.com/riding-art/rider-tools/art-realtime/?Stop=A15062#realTimeResultsContainer"
1257,15100,"N Nash Street, NB @ Wilson Blvd, FS",38.895568,-77.073081,"https://www.arlingtontransit.com/riding-art/rider-tools/art-realtime/?Stop=A15100#realTimeResultsContainer"
1258,15101,"N Barton Street, SB @ Fairfax Drive, NS",38.888205,-77.088477,"https://www.arlingtontransit.com/riding-art/rider-tools/art-realtime/?Stop=A15101#realTimeResultsContainer"
1259,15102,"N Barton Street, NB @ Fairfax Drive, NS",38.887365,-77.088184,"https://www.arlingtontransit.com/riding-art/rider-tools/art-realtime/?Stop=A15102#realTimeResultsContainer"
1261,15119,"WILSON BLVD, EB @ FORT MYER DRIVE, NS",38.894750,-77.072532,"https://www.arlingtontransit.com/riding-art/rider-tools/art-realtime/?Stop=A15119#realTimeResultsContainer"
1262,15118,"WILSON BLVD, WB @ N MOORE STREET, FS",38.895110,-77.071882,"https://www.arlingtontransit.com/riding-art/rider-tools/art-realtime/?Stop=A15118#realTimeResultsContainer"
1340,82007,"Shirlington Station, Bay E",38.839540,-77.087260,"https://www.arlingtontransit.com/riding-art/rider-tools/art-realtime/?Stop=A82007#realTimeResultsContainer"
1341,15132,"S HAYES STREET, SB @ 12TH STREET S, FS",38.862510,-77.059820,"https://www.arlingtontransit.com/riding-art/rider-tools/art-realtime/?Stop=A15132#realTimeResultsContainer"
